# 
~VERSION INFORMATION
     VERS.                              2.0:Версия формата LAS
     WRAP.                               NO:Режим одной строчки на временной отчет
~WELL INFORMATION
     STRT.ms                       33913720:Время первой записи в файле
     STOP.ms                       56658382:Время последней записи в файле
     STEP.ms                              0:Шаг времени, 0 - переменный шаг
     NULL.                          -999.25:Метка, нет значения
     DATE.                       09.10.2024:Дата каротажа
      DRV.                                 :Наименование драйвера прибора
     NAME.                          ННКТ(б):Название прибора
     SNUM.                         23613003:Серийный номер прибора
     FRMW.                        0.23.10.2:Версия прошивки на контроллере прибора
~CURVE INFORMATION
     TIME.ms                       {0,11:0}:Время, количество миллисекунд от начало суток
     NTNC.имп/мин                          :Счёт, ближний зонд ННКТ
     FTNC.у.е.                             :Счёт, дальний зонд ННКТ
     NTNL.имп/мин                          :Счёт нормированный на счёт в воде, ближний зонд ННКТ
     FTNL.у.е.                             :Счёт нормированный на счёт в воде, дальний зонд ННКТ
     TRNP.%                                :Пористость по водородосодержанию ННКТ
     UHVS.В                                :Установленное напряжение на высоковольтнике
     UHVM.В                                :Измеренное напряжение на высоковольтнике
       MT.°C                               :Температура
~OTHER INFORMATION


~A     TIME   NTNC   FTNC   NTNL   FTNL   TRNP   UHVS   UHVM     MT
# ...
   35449257 10320.0    0.0 0.2643    0.0    5.3 2000.0 1994.0   16.0
   35450258 7500.0  120.0 0.1921 0.1855   83.1 2000.0 1994.0   16.0
   35451259 8700.0  180.0 0.2228 0.2783   65.5 2000.0 1994.0   16.0
   35452259 9000.0    0.0 0.2305    0.0    5.3 2000.0 1994.0   16.0
   35453261 8760.0  180.0 0.2244 0.2783   65.9 2000.0 1994.0   16.0
   35454262 8100.0   60.0 0.2075 0.0928  173.4 2000.0 1994.0   16.0
   35455263 7560.0  180.0 0.1936 0.2783   57.6 2000.0 1994.0   16.0
   35456263 7860.0   60.0 0.2013 0.0928  168.5 2000.0 1994.0   16.0
   35457266 9840.0   60.0  0.252 0.0928  209.6 2000.0 1995.0   16.0
   35458266 9120.0  180.0 0.2336 0.2783   68.4 2000.0 1994.0   16.0
   35459266 9180.0  180.0 0.2351 0.2783   68.8 2000.0 1994.0   16.0
   35460267 9240.0  240.0 0.2367 0.3711   53.3 2000.0 1994.0   16.0
   35461268 9120.0   60.0 0.2336 0.0928  194.6 2000.0 1994.0   16.0
   35462270 8640.0  240.0 0.2213 0.3711   50.1 2000.0 1995.0   16.0
   35463270 7620.0   60.0 0.1952 0.0928  163.5 2000.0 1994.0   16.0
   35464271 8400.0   60.0 0.2152 0.0928  179.7 2000.0 1994.0   16.0
   35465272 7380.0  120.0  0.189 0.1855   81.9 2000.0 1994.0   16.0
   35466273 9420.0   60.0 0.2413 0.0928  200.8 2000.0 1994.0   16.0
   35467274 8040.0  180.0 0.2059 0.2783   60.9 2000.0 1995.0   16.0
   35468276 8700.0    0.0 0.2228    0.0    5.3 2000.0 1994.0   16.0
   35469276 9600.0  180.0 0.2459 0.2783   75.1 2000.0 1995.0   16.0
   35470277 8160.0    0.0  0.209    0.0    5.3 2000.0 1994.0   16.0
   35471279 7920.0  120.0 0.2029 0.1855   87.5 2000.0 1995.0   16.0
   35472280 7920.0  180.0 0.2029 0.2783   60.1 2000.0 1995.0   16.0
   35473281 9660.0  120.0 0.2474 0.1855  105.6 2000.0 1995.0   16.0
   35474282 7980.0  120.0 0.2044 0.1855   88.1 2000.0 1994.0   16.0
   35475283 8820.0  180.0 0.2259 0.2783   66.3 2000.0 1995.0   16.0
   35476284 9840.0    0.0  0.252    0.0    5.3 2000.0 1994.0   16.0
   35477285 9960.0   60.0 0.2551 0.0928  212.1 2000.0 1994.0   16.0
   35478286 7980.0  120.0 0.2044 0.1855   88.1 2000.0 1994.0   16.0
   35479288 8760.0  120.0 0.2244 0.1855   96.2 2000.0 1994.0   16.0
   35480290 8460.0  240.0 0.2167 0.3711   49.2 2000.0 1994.0   16.0
   35481290 8220.0  240.0 0.2105 0.3711   48.0 2000.0 1995.0   16.0
   35482291 8760.0  120.0 0.2244 0.1855   96.2 2000.0 1994.0   16.0
   35483292 6960.0  180.0 0.1783 0.2783   53.5 2000.0 1994.0   16.0
   35484293 8940.0  180.0  0.229 0.2783   67.2 2000.0 1994.0   16.0
   35485295 10140.0  120.0 0.2597 0.1855  110.5 2000.0 1994.0   16.0
   35486296 8400.0   60.0 0.2152 0.0928  179.7 2000.0 1994.0   16.0
   35487297 8700.0  420.0 0.2228 0.6494   31.1 2000.0 1994.0   16.0
   35488298 9540.0   60.0 0.2444 0.0928  203.3 2000.0 1995.0   16.0
   35489299 8520.0  120.0 0.2182 0.1855   93.7 2000.0 1995.0   16.0
   35490300 9120.0  120.0 0.2336 0.1855  100.0 2000.0 1994.0   16.0
   35491301 7380.0   60.0  0.189 0.0928  158.5 2000.0 1994.0   16.0
   35492302 8280.0  120.0 0.2121 0.1855   91.2 2000.0 1994.0   16.0
   35493304 9300.0  240.0 0.2382 0.3711   53.6 2000.0 1995.0   16.0
   35494305 8820.0   60.0 0.2259 0.0928  188.4 2000.0 1994.0   16.0
   35495306 8460.0   60.0 0.2167 0.0928  180.9 2000.0 1994.0   16.0
   35496306 8160.0  240.0  0.209 0.3711   47.7 2000.0 1994.0   16.0
   35497307 9300.0  180.0 0.2382 0.2783   69.7 2000.0 1995.0   16.0
   35498308 8880.0    0.0 0.2274    0.0    5.3 2000.0 1994.0   16.0
   35499311 9840.0  300.0  0.252 0.4638   46.2 2000.0 1994.0   16.0
   35500310 8940.0  120.0  0.229 0.1855   98.1 2000.0 1994.0   16.0
   35501312 8160.0   60.0  0.209 0.0928  174.7 2000.0 1994.0   16.0
   35502313 8100.0  180.0 0.2075 0.2783   61.4 2000.0 1994.0   16.0
   35503313 7740.0   60.0 0.1982 0.0928  166.0 2000.0 1994.0   16.0
   35504314 7680.0  300.0 0.1967 0.4638   37.2 2000.0 1994.0   16.0
   35505316 9300.0   60.0 0.2382 0.0928  198.4 2000.0 1994.0   16.0
   35506317 7380.0  180.0  0.189 0.2783   56.4 2000.0 1994.0   16.0
   35507318 9960.0    0.0 0.2551    0.0    5.3 2000.0 1995.0   16.0
   35508320 7440.0   60.0 0.1906 0.0928  159.7 2000.0 1994.0   16.0
   35509320 9540.0   60.0 0.2444 0.0928  203.3 2000.0 1994.0   16.0
   35510321 8640.0   60.0 0.2213 0.0928  184.7 2000.0 1994.0   16.0
   35511322 9540.0  180.0 0.2444 0.2783   71.3 2000.0 1994.0   16.0
   35512324 7980.0  120.0 0.2044 0.1855   88.1 2000.0 1994.0   16.0
   35513325 8280.0  240.0 0.2121 0.3711   50.5 2000.0 1994.0   16.0
   35514325 9300.0   60.0 0.2382 0.0928  198.4 2000.0 1994.0   16.0
   35515326 9900.0  120.0 0.2536 0.1855  108.1 2000.0 1995.0   16.0
   35516327 10920.0  120.0 0.2797 0.1855  118.6 2000.0 1994.0   16.0
   35517328 8040.0  240.0 0.2059 0.3711   47.0 2000.0 1994.0   16.0
   35518329 8160.0  180.0  0.209 0.2783   61.8 2000.0 1995.0   16.0
   35519330 8160.0  120.0  0.209 0.1855   90.0 2000.0 1994.0   16.0
   35520331 8880.0   60.0 0.2274 0.0928  189.6 2000.0 1995.0   16.0
   35521332 8700.0  300.0 0.2228 0.4638   41.4 2000.0 1994.0   16.0
   35522333 8520.0  120.0 0.2182 0.1855   93.7 2000.0 1994.0   16.0
   35523334 9180.0    0.0 0.2351    0.0    5.3 2000.0 1994.0   16.0
   35524334 8580.0    0.0 0.2198    0.0    5.3 2000.0 1994.0   16.0
   35525335 9540.0  180.0 0.2444 0.2783   71.3 2000.0 1994.0   16.0
   35526336 9000.0   60.0 0.2305 0.0928  192.1 2000.0 1994.0   16.0
   35527338 9240.0   60.0 0.2367 0.0928  197.1 2000.0 1994.0   16.0
   35528338 7860.0  120.0 0.2013 0.1855   86.9 2000.0 1994.0   16.0
   35529338 9600.0  180.0 0.2459 0.2783   71.7 2000.0 1994.0   16.0
   35530339 8520.0   60.0 0.2182 0.0928  182.2 2000.0 1994.0   16.0
   35531341 7800.0  120.0 0.1998 0.1855   86.3 2000.0 1994.0   16.0
   35532341 8640.0  120.0 0.2213 0.1855   95.0 2000.0 1994.0   16.0
   35533342 7620.0  180.0 0.1952 0.2783   58.0 2000.0 1994.0   16.0
   35534343 8100.0   60.0 0.2075 0.0928  173.4 2000.0 1994.0   16.0
   35535344 7740.0  120.0 0.1982 0.1855   85.6 2000.0 1994.0   16.0
   35536345 9060.0  120.0 0.2321 0.1855   99.3 2000.0 1995.0   16.0
   35537346 8820.0   60.0 0.2259 0.0928  188.4 2000.0 1994.0   16.0
   35538346 9000.0   60.0 0.2305 0.0928  192.1 2000.0 1994.0   16.0
   35539347 8640.0    0.0 0.2213    0.0    5.3 2000.0 1994.0   16.0
   35540348 8580.0  180.0 0.2198 0.2783   64.7 2000.0 1994.0   16.0
   35541350 7680.0   60.0 0.1967 0.0928  164.7 2000.0 1995.0   16.0
   35542350 10500.0  180.0 0.2689 0.2783   78.0 2000.0 1994.0   16.0
   35543352 7560.0  240.0 0.1936 0.3711   44.5 2000.0 1994.0   16.0
   35544352 8160.0  240.0  0.209 0.3711   47.7 2000.0 1994.0   16.0
   35545353 9300.0  180.0 0.2382 0.2783   69.7 2000.0 1994.0   16.0
   35546354 8400.0  180.0 0.2152 0.2783   63.4 2000.0 1994.0   16.0
   35547355 7500.0   60.0 0.1921 0.0928  161.0 2000.0 1994.0   16.0
   35548356 7740.0  240.0 0.1982 0.3711   45.5 2000.0 1995.0   16.0
   35549358 9240.0  120.0 0.2367 0.1855  101.2 2000.0 1994.0   16.0
   35550360 7980.0   60.0 0.2044 0.0928  171.0 2000.0 1995.0   16.0
   35551361 9300.0   60.0 0.2382 0.0928  198.4 2000.0 1994.0   16.0
   35552362 9540.0  240.0 0.2444 0.3711   54.8 2000.0 1995.0   16.0
   35553363 8580.0  180.0 0.2198 0.2783   64.7 2000.0 1995.0   16.0
   35554364 8640.0   60.0 0.2213 0.0928  184.7 2000.0 1994.0   16.0
   35555365 9000.0  120.0 0.2305 0.1855   98.7 2000.0 1995.0   16.0
   35556367 8940.0  120.0  0.229 0.1855   98.1 2000.0 1994.0   16.0
   35557368 8160.0   60.0  0.209 0.0928  174.7 2000.0 1995.0   16.0
   35558369 8520.0  120.0 0.2182 0.1855   93.7 2000.0 1995.0   16.0
   35559372 6720.0  180.0 0.1721 0.2783   51.8 2000.0 1995.0   16.0
   35560372 8340.0   60.0 0.2136 0.0928  178.4 2000.0 1995.0   16.0
   35561373 9000.0  120.0 0.2305 0.1855  103.7 2000.0 1994.0   16.0
   35562375 9660.0    0.0 0.2474    0.0    5.3 2000.0 1995.0   16.0
   35563375 8520.0  180.0 0.2182 0.2783   64.3 2000.0 1995.0   16.0
   35564375 9600.0  180.0 0.2459 0.2783   71.7 2000.0 1995.0   16.0
   35565376 9180.0  180.0 0.2351 0.2783   68.8 2000.0 1995.0   16.0
   35566377 10320.0   60.0 0.2643 0.0928  219.5 2000.0 1994.0   16.0
