# 
~VERSION INFORMATION
     VERS.                              2.0:Версия формата LAS
     WRAP.                               NO:Режим одной строчки на временной отчет
~WELL INFORMATION
     STRT.ms                       33913720:Время первой записи в файле
     STOP.ms                       56658382:Время последней записи в файле
     STEP.ms                              0:Шаг времени, 0 - переменный шаг
     NULL.                          -999.25:Метка, нет значения
     DATE.                       09.10.2024:Дата каротажа
      DRV.                                 :Наименование драйвера прибора
     NAME.                          ННКТ(б):Название прибора
     SNUM.                         23613003:Серийный номер прибора
     FRMW.                        0.23.10.2:Версия прошивки на контроллере прибора
~CURVE INFORMATION
     TIME.ms                       {0,11:0}:Время, количество миллисекунд от начало суток
     NTNC.имп/мин                          :Счёт, ближний зонд ННКТ
     FTNC.у.е.                             :Счёт, дальний зонд ННКТ
     NTNL.имп/мин                          :Счёт нормированный на счёт в воде, ближний зонд ННКТ
     FTNL.у.е.                             :Счёт нормированный на счёт в воде, дальний зонд ННКТ
     TRNP.%                                :Пористость по водородосодержанию ННКТ
     UHVS.В                                :Установленное напряжение на высоковольтнике
     UHVM.В                                :Измеренное напряжение на высоковольтнике
       MT.°C                               :Температура
~OTHER INFORMATION


~A     TIME   NTNC   FTNC   NTNL   FTNL   TRNP   UHVS   UHVM     MT
# ...
   41473130 8280.0    0.0 0.2121    0.0    5.3 2000.0 1995.0   15.0
   41474129 8460.0  180.0 0.2167 0.2783   63.8 2000.0 1994.0   15.0
   41475133 9660.0    0.0 0.2474    0.0    5.3 2000.0 1994.0   15.0
   41476134 8460.0  240.0 0.2167 0.3711   49.2 2000.0 1995.0   15.0
   41477134 9300.0  180.0 0.2382 0.2783   69.7 2000.0 1995.0   15.0
   41478135 7980.0   60.0 0.2044 0.0928  171.0 2000.0 1995.0   15.0
   41479136 9720.0   60.0  0.249 0.0928  207.1 2000.0 1995.0   15.0
   41480137 8880.0  300.0 0.2274 0.4638   42.2 2000.0 1995.0   15.0
   41481137 7560.0  120.0 0.1936 0.1855   83.8 2000.0 1995.0   15.0
   41482138 9000.0  120.0 0.2305 0.1855   98.7 2000.0 1994.0   15.0
   41483140 7920.0   60.0 0.2029 0.0928  169.7 2000.0 1995.0   15.0
   41484141 8820.0  360.0 0.2259 0.5566   35.8 2000.0 1995.0   15.0
   41485142 8760.0  180.0 0.2244 0.2783   65.9 2000.0 1995.0   15.0
   41486141 8700.0  120.0 0.2228 0.1855   95.6 2000.0 1994.0   15.0
   41487142 8160.0  120.0  0.209 0.1855   90.0 2000.0 1995.0   15.0
   41488143 9660.0   60.0 0.2474 0.0928  205.8 2000.0 1995.0   15.0
   41489145 7320.0  120.0 0.1875 0.1855   81.3 2000.0 1995.0   15.0
   41490145 9120.0  180.0 0.2336 0.2783   68.4 2000.0 1995.0   15.0
   41491147 7740.0  120.0 0.1982 0.1855   85.6 2000.0 1995.0   15.0
   41492148 8580.0  240.0 0.2198 0.3711   49.8 2000.0 1995.0   15.0
   41493148 7620.0   60.0 0.1952 0.0928  163.5 2000.0 1995.0   15.0
   41494150 9180.0  120.0 0.2351 0.1855  100.6 2000.0 1995.0   15.0
   41495150 9300.0  180.0 0.2382 0.2783   69.7 2000.0 1995.0   15.0
   41496151 9360.0  240.0 0.2397 0.3711   53.9 2000.0 1995.0   15.0
   41497154 8280.0  180.0 0.2121 0.2783   62.6 2000.0 1995.0   15.0
   41498155 10500.0   60.0 0.2689 0.0928  223.3 2000.0 1995.0   15.0
   41499155 8340.0  240.0 0.2136 0.3711   48.6 2000.0 1995.0   15.0
   41500157 8640.0   60.0 0.2213 0.0928  184.7 2000.0 1995.0   15.0
   41501158 7740.0  120.0 0.1982 0.1855   85.6 2000.0 1995.0   15.0
   41502159 7860.0  120.0 0.2013 0.1855   86.9 2000.0 1995.0   15.0
   41503159 9780.0   60.0 0.2505 0.0928  208.3 2000.0 1995.0   15.0
   41504159 9360.0  240.0 0.2397 0.3711   53.9 2000.0 1995.0   15.0
   41505161 8940.0  120.0  0.229 0.1855   98.1 2000.0 1995.0   15.0
   41506163 7560.0  180.0 0.1936 0.2783   57.6 2000.0 1995.0   15.0
   41507164 7740.0  180.0 0.1982 0.2783   58.9 2000.0 1994.0   15.0
   41508165 8160.0  180.0  0.209 0.2783   64.7 2000.0 1995.0   15.0
   41509165 8460.0  120.0 0.2167 0.1855   93.1 2000.0 1995.0   15.0
   41510168 9000.0  120.0 0.2305 0.1855   98.7 2000.0 1995.0   15.0
   41511168 8820.0   60.0 0.2259 0.0928  188.4 2000.0 1995.0   15.0
   41512168 8580.0  120.0 0.2198 0.1855   94.4 2000.0 1995.0   15.0
   41513170 8760.0   60.0 0.2244 0.0928  187.1 2000.0 1995.0   15.0
   41514171 7320.0  120.0 0.1875 0.1855   81.3 2000.0 1995.0   15.0
   41515172 9360.0  180.0 0.2397 0.2783   70.1 2000.0 1995.0   15.0
   41516175 8160.0  300.0  0.209 0.4638   39.2 2000.0 1995.0   15.0
   41517173 7380.0  300.0  0.189 0.4638   35.9 2000.0 1995.0   15.0
   41518174 8820.0   60.0 0.2259 0.0928  188.4 2000.0 1995.0   15.0
   41519175 6960.0  540.0 0.1783 0.8349   21.4 2000.0 1995.0   15.0
   41520176 7980.0  240.0 0.2044 0.3711   46.7 2000.0 1995.0   15.0
   41521178 8220.0  240.0 0.2105 0.3711   48.0 2000.0 1995.0   15.0
   41522178 9480.0  180.0 0.2428 0.2783   70.9 2000.0 1995.0   15.0
   41523180 9180.0   60.0 0.2351 0.0928  195.9 2000.0 1995.0   15.0
   41524181 8460.0  240.0 0.2167 0.3711   49.2 2000.0 1995.0   15.0
   41525181 8820.0  120.0 0.2259 0.1855   96.8 2000.0 1995.0   15.0
   41526182 8280.0  360.0 0.2121 0.5566   34.0 2000.0 1995.0   15.0
   41527183 9300.0  180.0 0.2382 0.2783   69.7 2000.0 1995.0   15.0
   41528185 7620.0   60.0 0.1952 0.0928  163.5 2000.0 1994.0   15.0
   41529185 9300.0   60.0 0.2382 0.0928  198.4 2000.0 1995.0   15.0
   41530186 9180.0  120.0 0.2351 0.1855  100.6 2000.0 1995.0   15.0
   41531188 8400.0  120.0 0.2152 0.1855   92.5 2000.0 1995.0   15.0
   41532189 8280.0  180.0 0.2121 0.2783   62.6 2000.0 1994.0   15.0
   41533190 7740.0   60.0 0.1982 0.0928  166.0 2000.0 1994.0   15.0
   41534190 8400.0  240.0 0.2152 0.3711   48.9 2000.0 1995.0   15.0
   41535193 9120.0  240.0 0.2336 0.3711   52.6 2000.0 1995.0   15.0
   41536192 7680.0  240.0 0.1967 0.3711   45.2 2000.0 1995.0   15.0
   41537194 9420.0  300.0 0.2413 0.4638   44.4 2000.0 1995.0   15.0
   41538194 8040.0  120.0 0.2059 0.1855   88.8 2000.0 1994.0   15.0
   41539195 9300.0  300.0 0.2382 0.4638   43.9 2000.0 1995.0   15.0
   41540198 7860.0   60.0 0.2013 0.0928  168.5 2000.0 1995.0   15.0
   41541197 7440.0  300.0 0.1906 0.4638   36.2 2000.0 1995.0   15.0
   41542199 7740.0   60.0 0.1982 0.0928  166.0 2000.0 1995.0   15.0
   41543200 9120.0  120.0 0.2336 0.1855  100.0 2000.0 1995.0   15.0
   41544201 8760.0  120.0 0.2244 0.1855   96.2 2000.0 1995.0   15.0
   41545202 9660.0  120.0 0.2474 0.1855  105.6 2000.0 1994.0   15.0
   41546203 9060.0  300.0 0.2321 0.4638   42.9 2000.0 1995.0   15.0
   41547205 7860.0  120.0 0.2013 0.1855   86.9 2000.0 1995.0   15.0
   41548206 9000.0  120.0 0.2305 0.1855   98.7 2000.0 1995.0   15.0
   41549208 9180.0  240.0 0.2351 0.3711   52.9 2000.0 1995.0   15.0
   41550209 6780.0  120.0 0.1737 0.1855   75.7 2000.0 1995.0   15.0
   41551208 7860.0  180.0 0.2013 0.2783   59.7 2000.0 1994.0   15.0
   41552211 8460.0  120.0 0.2167 0.1855   93.1 2000.0 1995.0   15.0
   41553212 9360.0   60.0 0.2397 0.0928  199.6 2000.0 1995.0   15.0
   41554212 7620.0   60.0 0.1952 0.0928  163.5 2000.0 1995.0   15.0
   41555213 8220.0  240.0 0.2105 0.3711   50.1 2000.0 1995.0   15.0
   41556214 7860.0  240.0 0.2013 0.3711   46.1 2000.0 1995.0   15.0
   41557216 8880.0   60.0 0.2274 0.0928  189.6 2000.0 1995.0   15.0
   41558217 9180.0  120.0 0.2351 0.1855  100.6 2000.0 1995.0   15.0
   41559217 8760.0  240.0 0.2244 0.3711   50.8 2000.0 1995.0   15.0
   41560218 9240.0   60.0 0.2367 0.0928  197.1 2000.0 1995.0   15.0
   41561219 8100.0  240.0 0.2075 0.3711   47.3 2000.0 1995.0   15.0
   41562219 7440.0   60.0 0.1906 0.0928  159.7 2000.0 1995.0   15.0
   41563221 7740.0    0.0 0.1982    0.0    5.3 2000.0 1995.0   15.0
   41564223 8820.0  180.0 0.2259 0.2783   66.3 2000.0 1995.0   15.0
   41565223 8700.0  180.0 0.2228 0.2783   65.5 2000.0 1995.0   15.0
   41566223 7920.0  180.0 0.2029 0.2783   60.1 2000.0 1994.0   15.0
   41567225 7680.0  180.0 0.1967 0.2783   58.4 2000.0 1994.0   15.0
   41568226 8040.0  120.0 0.2059 0.1855   88.8 2000.0 1995.0   15.0
   41569225 8940.0    0.0  0.229    0.0    5.3 2000.0 1995.0   15.0
   41570226 7620.0  180.0 0.1952 0.2783   58.0 2000.0 1995.0   15.0
   41571228 8520.0    0.0 0.2182    0.0    5.3 2000.0 1995.0   15.0
   41572228 8640.0   60.0 0.2213 0.0928  184.7 2000.0 1995.0   15.0
   41573230 8340.0  120.0 0.2136 0.1855   91.9 2000.0 1995.0   15.0
   41574231 8460.0  120.0 0.2167 0.1855   93.1 2000.0 1994.0   15.0
   41575232 8460.0    0.0 0.2167    0.0    5.3 2000.0 1995.0   15.0
   41576234 8760.0  120.0 0.2244 0.1855   96.2 2000.0 1995.0   15.0
   41577236 6660.0  120.0 0.1706 0.1855   74.4 2000.0 1994.0   15.0
   41578236 9060.0  180.0 0.2321 0.2783   68.0 2000.0 1995.0   15.0
   41579237 8700.0  240.0 0.2228 0.3711   50.5 2000.0 1994.0   15.0
   41580237 9000.0  480.0 0.2305 0.7421   28.7 2000.0 1995.0   15.0
   41581239 8880.0  120.0 0.2274 0.1855   97.5 2000.0 1995.0   15.0
   41582240 8160.0  120.0  0.209 0.1855   90.0 2000.0 1995.0   15.0
   41583241 8580.0  180.0 0.2198 0.2783   64.7 2000.0 1995.0   15.0
   41584243 7200.0  120.0 0.1844 0.1855   80.0 2000.0 1994.0   15.0
   41585244 8760.0  240.0 0.2244 0.3711   50.8 2000.0 1995.0   15.0
   41586244 8760.0    0.0 0.2244    0.0    5.3 2000.0 1994.0   15.0
   41587245 8940.0  180.0  0.229 0.2783   67.2 2000.0 1994.0   15.0
   41588248 8700.0  120.0 0.2228 0.1855   95.6 2000.0 1995.0   15.0
   41589246 9360.0  180.0 0.2397 0.2783   70.1 2000.0 1994.0   15.0
   41590249 9540.0  120.0 0.2444 0.1855  104.3 2000.0 1995.0   15.0
