# 
~VERSION INFORMATION
     VERS.                              2.0:Версия формата LAS
     WRAP.                               NO:Режим одной строчки на временной отчет
~WELL INFORMATION
     STRT.ms                       33913720:Время первой записи в файле
     STOP.ms                       56658382:Время последней записи в файле
     STEP.ms                              0:Шаг времени, 0 - переменный шаг
     NULL.                          -999.25:Метка, нет значения
     DATE.                       09.10.2024:Дата каротажа
      DRV.                                 :Наименование драйвера прибора
     NAME.                          ННКТ(б):Название прибора
     SNUM.                         23613003:Серийный номер прибора
     FRMW.                        0.23.10.2:Версия прошивки на контроллере прибора
~CURVE INFORMATION
     TIME.ms                       {0,11:0}:Время, количество миллисекунд от начало суток
     NTNC.имп/мин                          :Счёт, ближний зонд ННКТ
     FTNC.у.е.                             :Счёт, дальний зонд ННКТ
     NTNL.имп/мин                          :Счёт нормированный на счёт в воде, ближний зонд ННКТ
     FTNL.у.е.                             :Счёт нормированный на счёт в воде, дальний зонд ННКТ
     TRNP.%                                :Пористость по водородосодержанию ННКТ
     UHVS.В                                :Установленное напряжение на высоковольтнике
     UHVM.В                                :Измеренное напряжение на высоковольтнике
       MT.°C                               :Температура
~OTHER INFORMATION


~A     TIME   NTNC   FTNC   NTNL   FTNL   TRNP   UHVS   UHVM     MT
# ...
   50568294 9180.0  120.0 0.2351 0.1855  100.6 2000.0 1995.0   15.0
   50569295 8880.0    0.0 0.2274    0.0    5.3 2000.0 1994.0   15.0
   50570296 8820.0    0.0 0.2259    0.0    5.3 2000.0 1995.0   15.0
   50571297 7380.0  120.0  0.189 0.1855   81.9 2000.0 1995.0   15.0
   50572298 7920.0  120.0 0.2029 0.1855   87.5 2000.0 1995.0   15.0
   50573298 9540.0  300.0 0.2444 0.4638   44.9 2000.0 1995.0   15.0
   50574299 7980.0  240.0 0.2044 0.3711   46.7 2000.0 1994.0   15.0
   50575300 9660.0  120.0 0.2474 0.1855  110.5 2000.0 1995.0   15.0
   50576302 9360.0  180.0 0.2397 0.2783   70.1 2000.0 1994.0   15.0
   50577303 8640.0  120.0 0.2213 0.1855   95.0 2000.0 1995.0   15.0
   50578305 10080.0  120.0 0.2582 0.1855  109.9 2000.0 1995.0   15.0
   50579306 9840.0  120.0  0.252 0.1855  107.4 2000.0 1995.0   15.0
   50580308 9540.0  120.0 0.2444 0.1855  104.3 2000.0 1995.0   15.0
   50581308 8520.0  180.0 0.2182 0.2783   64.3 2000.0 1995.0   15.0
   50582310 8940.0  240.0  0.229 0.3711   51.7 2000.0 1995.0   15.0
   50583311 7920.0   60.0 0.2029 0.0928  169.7 2000.0 1995.0   15.0
   50584311 9000.0  240.0 0.2305 0.3711   52.0 2000.0 1995.0   15.0
   50585311 9060.0   60.0 0.2321 0.0928  193.4 2000.0 1995.0   15.0
   50586313 8940.0  180.0  0.229 0.2783   67.2 2000.0 1995.0   15.0
   50587313 8460.0   60.0 0.2167 0.0928  180.9 2000.0 1995.0   15.0
   50588315 7620.0  120.0 0.1952 0.1855   84.4 2000.0 1994.0   15.0
   50589315 7620.0  120.0 0.1952 0.1855   84.4 2000.0 1995.0   15.0
   50590315 9480.0  180.0 0.2428 0.2783   70.9 2000.0 1995.0   15.0
   50591317 8460.0  180.0 0.2167 0.2783   63.8 2000.0 1995.0   15.0
   50592318 9120.0    0.0 0.2336    0.0    5.3 2000.0 1994.0   15.0
   50593318 8520.0  180.0 0.2182 0.2783   64.3 2000.0 1994.0   15.0
   50594320 7560.0  180.0 0.1936 0.2783   57.6 2000.0 1994.0   15.0
   50595322 9300.0  180.0 0.2382 0.2783   69.7 2000.0 1995.0   15.0
   50596323 8460.0  240.0 0.2167 0.3711   49.2 2000.0 1994.0   15.0
   50597324 8580.0  120.0 0.2198 0.1855   94.4 2000.0 1994.0   15.0
   50598326 8520.0  180.0 0.2182 0.2783   64.3 2000.0 1995.0   15.0
   50599326 8040.0  120.0 0.2059 0.1855   88.8 2000.0 1995.0   15.0
   50600327 8040.0  120.0 0.2059 0.1855   88.8 2000.0 1995.0   15.0
   50601329 8580.0   60.0 0.2198 0.0928  183.4 2000.0 1995.0   15.0
   50602329 9540.0    0.0 0.2444    0.0    5.3 2000.0 1995.0   15.0
   50603330 8400.0  120.0 0.2152 0.1855   92.5 2000.0 1995.0   15.0
   50604331 7860.0   60.0 0.2013 0.0928  168.5 2000.0 1995.0   15.0
   50605332 9420.0  240.0 0.2413 0.3711   54.2 2000.0 1994.0   15.0
   50606334 8100.0   60.0 0.2075 0.0928  173.4 2000.0 1995.0   15.0
   50607335 8880.0   60.0 0.2274 0.0928  189.6 2000.0 1994.0   15.0
   50608335 7920.0  120.0 0.2029 0.1855   87.5 2000.0 1995.0   15.0
   50609336 8040.0   60.0 0.2059 0.0928  172.2 2000.0 1995.0   15.0
   50610337 9300.0   60.0 0.2382 0.0928  198.4 2000.0 1995.0   15.0
   50611338 8400.0  180.0 0.2152 0.2783   63.4 2000.0 1994.0   15.0
   50612340 7920.0   60.0 0.2029 0.0928  169.7 2000.0 1994.0   15.0
   50613340 8460.0  360.0 0.2167 0.5566   34.6 2000.0 1994.0   15.0
   50614341 10800.0   60.0 0.2766 0.0928  229.5 2000.0 1995.0   15.0
   50615342 8940.0  180.0  0.229 0.2783   67.2 2000.0 1994.0   15.0
   50616343 8520.0  120.0 0.2182 0.1855   93.7 2000.0 1995.0   15.0
   50617344 7920.0  180.0 0.2029 0.2783   60.1 2000.0 1994.0   15.0
   50618345 7380.0  180.0  0.189 0.2783   56.4 2000.0 1995.0   15.0
   50619347 8640.0  240.0 0.2213 0.3711   50.1 2000.0 1995.0   15.0
   50620347 7260.0  180.0  0.186 0.2783   55.5 2000.0 1994.0   15.0
   50621348 7440.0  120.0 0.1906 0.1855   82.5 2000.0 1995.0   15.0
   50622349 7920.0   60.0 0.2029 0.0928  178.4 2000.0 1995.0   15.0
   50623350 8940.0  120.0  0.229 0.1855   98.1 2000.0 1995.0   15.0
   50624350 8520.0  360.0 0.2182 0.5566   34.8 2000.0 1995.0   15.0
   50625352 9300.0    0.0 0.2382    0.0    5.3 2000.0 1995.0   15.0
   50626354 9180.0  120.0 0.2351 0.1855  100.6 2000.0 1995.0   15.0
   50627355 9180.0   60.0 0.2351 0.0928  195.9 2000.0 1995.0   15.0
   50628357 8580.0   60.0 0.2198 0.0928  183.4 2000.0 1995.0   15.0
   50629357 9180.0  120.0 0.2351 0.1855  100.6 2000.0 1994.0   15.0
   50630358 8580.0    0.0 0.2198    0.0    5.3 2000.0 1995.0   15.0
   50631359 8520.0  120.0 0.2182 0.1855   93.7 2000.0 1994.0   15.0
   50632360 7860.0  120.0 0.2013 0.1855   86.9 2000.0 1995.0   15.0
   50633360 9540.0  180.0 0.2444 0.2783   71.3 2000.0 1994.0   15.0
   50634362 8460.0  180.0 0.2167 0.2783   63.8 2000.0 1995.0   15.0
   50635362 8700.0  120.0 0.2228 0.1855   95.6 2000.0 1994.0   15.0
   50636364 9900.0  120.0 0.2536 0.1855  108.1 2000.0 1995.0   15.0
   50637364 7980.0  120.0 0.2044 0.1855   88.1 2000.0 1995.0   15.0
   50638365 7200.0   60.0 0.1844 0.0928  154.8 2000.0 1995.0   15.0
   50639366 9300.0  120.0 0.2382 0.1855  101.8 2000.0 1995.0   15.0
   50640366 9300.0  300.0 0.2382 0.4638   43.9 2000.0 1995.0   15.0
   50641367 8940.0   60.0  0.229 0.0928  190.9 2000.0 1995.0   15.0
   50642369 7920.0  240.0 0.2029 0.3711   46.4 2000.0 1995.0   15.0
   50643371 9600.0   60.0 0.2459 0.0928  204.6 2000.0 1994.0   15.0
   50644372 7800.0  120.0 0.1998 0.1855   86.3 2000.0 1994.0   15.0
   50645372 8400.0  180.0 0.2152 0.2783   63.4 2000.0 1994.0   15.0
   50646374 8040.0  120.0 0.2059 0.1855   88.8 2000.0 1995.0   15.0
   50647374 9060.0  300.0 0.2321 0.4638   42.9 2000.0 1995.0   15.0
   50648377 7740.0  120.0 0.1982 0.1855   85.6 2000.0 1994.0   15.0
   50649378 8160.0  120.0  0.209 0.1855   90.0 2000.0 1994.0   15.0
   50650379 8820.0  180.0 0.2259 0.2783   66.3 2000.0 1994.0   15.0
   50651380 10320.0  120.0 0.2643 0.1855  112.4 2000.0 1994.0   15.0
   50652381 9660.0  120.0 0.2474 0.1855  105.6 2000.0 1994.0   15.0
   50653382 8520.0  120.0 0.2182 0.1855   93.7 2000.0 1994.0   15.0
   50654383 7740.0   60.0 0.1982 0.0928  166.0 2000.0 1994.0   15.0
   50655384 8460.0  120.0 0.2167 0.1855   93.1 2000.0 1995.0   15.0
   50656385 9960.0  360.0 0.2551 0.5566   39.8 2000.0 1995.0   15.0
   50657386 7740.0  180.0 0.1982 0.2783   58.9 2000.0 1995.0   15.0
   50658387 7560.0    0.0 0.1936    0.0    5.3 2000.0 1994.0   15.0
   50659389 7800.0  180.0 0.1998 0.2783   59.3 2000.0 1995.0   15.0
   50660389 7800.0  120.0 0.1998 0.1855   86.3 2000.0 1995.0   15.0
   50661391 8520.0  240.0 0.2182 0.3711   49.5 2000.0 1995.0   15.0
   50662391 8880.0  180.0 0.2274 0.2783   66.7 2000.0 1995.0   15.0
   50663392 8880.0  300.0 0.2274 0.4638   42.2 2000.0 1995.0   15.0
   50664393 8220.0  120.0 0.2105 0.1855   90.6 2000.0 1995.0   15.0
   50665394 8040.0  180.0 0.2059 0.2783   60.9 2000.0 1995.0   15.0
   50666394 7860.0  180.0 0.2013 0.2783   59.7 2000.0 1995.0   15.0
   50667395 8280.0  180.0 0.2121 0.2783   62.6 2000.0 1995.0   15.0
   50668396 8520.0   60.0 0.2182 0.0928  182.2 2000.0 1994.0   15.0
   50669397 8040.0  120.0 0.2059 0.1855   93.1 2000.0 1995.0   15.0
   50670398 10020.0  120.0 0.2566 0.1855  109.3 2000.0 1994.0   15.0
   50671400 9180.0   60.0 0.2351 0.0928  195.9 2000.0 1995.0   15.0
   50672401 7680.0   60.0 0.1967 0.0928  164.7 2000.0 1994.0   15.0
   50673401 9060.0  180.0 0.2321 0.2783   68.0 2000.0 1994.0   15.0
   50674402 8820.0  180.0 0.2259 0.2783   66.3 2000.0 1995.0   15.0
   50675403 7680.0  300.0 0.1967 0.4638   37.2 2000.0 1994.0   15.0
   50676405 7980.0  480.0 0.2044 0.7421   26.0 2000.0 1995.0   15.0
   50677404 8580.0   60.0 0.2198 0.0928  183.4 2000.0 1994.0   15.0
   50678405 8580.0   60.0 0.2198 0.0928  183.4 2000.0 1994.0   15.0
   50679406 8580.0   60.0 0.2198 0.0928  183.4 2000.0 1994.0   15.0
   50680407 9780.0  240.0 0.2505 0.3711   56.1 2000.0 1994.0   15.0
   50681408 7740.0  240.0 0.1982 0.3711   45.5 2000.0 1994.0   15.0
   50682409 9060.0   60.0 0.2321 0.0928  193.4 2000.0 1994.0   15.0
   50683410 8700.0  240.0 0.2228 0.3711   50.5 2000.0 1995.0   15.0
   50684411 7800.0    0.0 0.1998    0.0    5.3 2000.0 1995.0   15.0
   50685413 9000.0  120.0 0.2305 0.1855   98.7 2000.0 1994.0   15.0
