# 
~VERSION INFORMATION
     VERS.                              2.0:Версия формата LAS
     WRAP.                               NO:Режим одной строчки на временной отчет
~WELL INFORMATION
     STRT.ms                       33913720:Время первой записи в файле
     STOP.ms                       56658382:Время последней записи в файле
     STEP.ms                              0:Шаг времени, 0 - переменный шаг
     NULL.                          -999.25:Метка, нет значения
     DATE.                       09.10.2024:Дата каротажа
      DRV.                                 :Наименование драйвера прибора
     NAME.                          ННКТ(б):Название прибора
     SNUM.                         23613003:Серийный номер прибора
     FRMW.                        0.23.10.2:Версия прошивки на контроллере прибора
~CURVE INFORMATION
     TIME.ms                       {0,11:0}:Время, количество миллисекунд от начало суток
     NTNC.имп/мин                          :Счёт, ближний зонд ННКТ
     FTNC.у.е.                             :Счёт, дальний зонд ННКТ
     NTNL.имп/мин                          :Счёт нормированный на счёт в воде, ближний зонд ННКТ
     FTNL.у.е.                             :Счёт нормированный на счёт в воде, дальний зонд ННКТ
     TRNP.%                                :Пористость по водородосодержанию ННКТ
     UHVS.В                                :Установленное напряжение на высоковольтнике
     UHVM.В                                :Измеренное напряжение на высоковольтнике
       MT.°C                               :Температура
~OTHER INFORMATION


~A     TIME   NTNC   FTNC   NTNL   FTNL   TRNP   UHVS   UHVM     MT
# ...
   39937639 8400.0  300.0 0.2152 0.4638   40.2 2000.0 1995.0   15.0
   39938642 8460.0  240.0 0.2167 0.3711   49.2 2000.0 1995.0   15.0
   39939641 8340.0  120.0 0.2136 0.1855   91.9 2000.0 1995.0   15.0
   39940642 8040.0  120.0 0.2059 0.1855   88.8 2000.0 1994.0   15.0
   39941642 8160.0  120.0  0.209 0.1855   90.0 2000.0 1995.0   15.0
   39942643 9600.0  180.0 0.2459 0.2783   71.7 2000.0 1995.0   15.0
   39943644 9180.0  120.0 0.2351 0.1855  100.6 2000.0 1994.0   15.0
   39944646 9420.0   60.0 0.2413 0.0928  200.8 2000.0 1994.0   15.0
   39945648 8040.0   60.0 0.2059 0.0928  172.2 2000.0 1995.0   15.0
   39946648 8040.0  180.0 0.2059 0.2783   60.9 2000.0 1995.0   15.0
   39947648 9300.0  240.0 0.2382 0.3711   53.6 2000.0 1995.0   15.0
   39948651 8820.0  180.0 0.2259 0.2783   66.3 2000.0 1995.0   15.0
   39949650 7860.0  120.0 0.2013 0.1855   86.9 2000.0 1995.0   15.0
   39950651 7560.0  120.0 0.1936 0.1855   83.8 2000.0 1995.0   15.0
   39951652 7740.0   60.0 0.1982 0.0928  166.0 2000.0 1995.0   15.0
   39952654 8340.0    0.0 0.2136    0.0    5.3 2000.0 1994.0   15.0
   39953656 7560.0   60.0 0.1936 0.0928  162.2 2000.0 1994.0   15.0
   39954657 7800.0   60.0 0.1998 0.0928  167.2 2000.0 1995.0   15.0
   39955658 8460.0  300.0 0.2167 0.4638   40.4 2000.0 1995.0   15.0
   39956659 9060.0  120.0 0.2321 0.1855   99.3 2000.0 1995.0   15.0
   39957661 8760.0  120.0 0.2244 0.1855   96.2 2000.0 1995.0   15.0
   39958660 8520.0  120.0 0.2182 0.1855   93.7 2000.0 1994.0   15.0
   39959661 8220.0   60.0 0.2105 0.0928  175.9 2000.0 1994.0   15.0
   39960662 8820.0   60.0 0.2259 0.0928  188.4 2000.0 1995.0   15.0
   39961663 8100.0   60.0 0.2075 0.0928  173.4 2000.0 1995.0   15.0
   39962664 8520.0  120.0 0.2182 0.1855   93.7 2000.0 1995.0   15.0
   39963665 8760.0  120.0 0.2244 0.1855   96.2 2000.0 1995.0   15.0
   39964665 10620.0  300.0  0.272 0.4638   49.4 2000.0 1994.0   15.0
   39965665 8100.0  120.0 0.2075 0.1855   89.4 2000.0 1995.0   15.0
   39966666 8340.0  240.0 0.2136 0.3711   48.6 2000.0 1995.0   15.0
   39967667 8700.0  360.0 0.2228 0.5566   35.4 2000.0 1994.0   15.0
   39968668 9300.0  180.0 0.2382 0.2783   73.0 2000.0 1994.0   15.0
   39969669 9960.0  120.0 0.2551 0.1855  108.7 2000.0 1995.0   15.0
   39970671 9000.0  120.0 0.2305 0.1855   98.7 2000.0 1995.0   15.0
   39971670 8340.0  300.0 0.2136 0.4638   39.9 2000.0 1995.0   15.0
   39972671 9360.0  120.0 0.2397 0.1855  102.5 2000.0 1995.0   15.0
   39973674 7260.0  120.0  0.186 0.1855   80.7 2000.0 1995.0   15.0
   39974675 8760.0  300.0 0.2244 0.4638   41.7 2000.0 1995.0   15.0
   39975675 8580.0   60.0 0.2198 0.0928  183.4 2000.0 1995.0   15.0
   39976676 7560.0  120.0 0.1936 0.1855   83.8 2000.0 1994.0   15.0
   39977678 9660.0    0.0 0.2474    0.0    5.3 2000.0 1995.0   15.0
   39978680 8100.0  120.0 0.2075 0.1855   89.4 2000.0 1995.0   15.0
   39979680 8940.0  180.0  0.229 0.2783   67.2 2000.0 1994.0   15.0
   39980681 9060.0    0.0 0.2321    0.0    5.3 2000.0 1995.0   15.0
   39981682 8100.0  420.0 0.2075 0.6494   29.3 2000.0 1995.0   15.0
   39982684 9480.0  240.0 0.2428 0.3711   54.5 2000.0 1995.0   15.0
   39983683 9240.0  120.0 0.2367 0.1855  101.2 2000.0 1995.0   15.0
   39984685 7620.0  120.0 0.1952 0.1855   84.4 2000.0 1995.0   15.0
   39985685 9240.0   60.0 0.2367 0.0928  197.1 2000.0 1995.0   15.0
   39986686 9180.0  120.0 0.2351 0.1855  100.6 2000.0 1994.0   15.0
   39987688 8280.0  120.0 0.2121 0.1855   91.2 2000.0 1995.0   15.0
   39988688 8460.0  360.0 0.2167 0.5566   34.6 2000.0 1995.0   15.0
   39989688 7500.0  360.0 0.1921 0.5566   31.3 2000.0 1995.0   15.0
   39990690 9240.0  240.0 0.2367 0.3711   53.3 2000.0 1994.0   15.0
   39991689 9300.0  240.0 0.2382 0.3711   53.6 2000.0 1995.0   15.0
   39992689 8040.0   60.0 0.2059 0.0928  172.2 2000.0 1995.0   15.0
   39993691 9480.0  120.0 0.2428 0.1855  103.7 2000.0 1995.0   15.0
   39994691 9420.0  180.0 0.2413 0.2783   70.5 2000.0 1995.0   15.0
   39995693 9600.0    0.0 0.2459    0.0    5.3 2000.0 1994.0   15.0
   39996694 8820.0  360.0 0.2259 0.5566   35.8 2000.0 1995.0   15.0
   39997696 8940.0  120.0  0.229 0.1855   98.1 2000.0 1994.0   15.0
   39998697 8100.0  120.0 0.2075 0.1855   89.4 2000.0 1994.0   15.0
   39999697 7740.0  120.0 0.1982 0.1855   85.6 2000.0 1995.0   15.0
   40000698 7200.0  120.0 0.1844 0.1855   80.0 2000.0 1995.0   15.0
   40001699 8520.0  240.0 0.2182 0.3711   49.5 2000.0 1995.0   15.0
   40002700 8160.0  180.0  0.209 0.2783   61.8 2000.0 1994.0   15.0
   40003701 9660.0  240.0 0.2474 0.3711   55.4 2000.0 1994.0   15.0
   40004702 9660.0  300.0 0.2474 0.4638   45.4 2000.0 1995.0   15.0
   40005703 8460.0  180.0 0.2167 0.2783   63.8 2000.0 1994.0   15.0
   40006703 9540.0  240.0 0.2444 0.3711   54.8 2000.0 1995.0   15.0
   40007704 8160.0   60.0  0.209 0.0928  174.7 2000.0 1995.0   15.0
   40008705 8220.0  120.0 0.2105 0.1855   90.6 2000.0 1994.0   15.0
   40009706 7800.0  180.0 0.1998 0.2783   59.3 2000.0 1995.0   15.0
   40010706 8880.0    0.0 0.2274    0.0    5.3 2000.0 1995.0   15.0
   40011708 8160.0  180.0  0.209 0.2783   61.8 2000.0 1995.0   15.0
   40012710 8280.0    0.0 0.2121    0.0    5.3 2000.0 1995.0   15.0
   40013710 8880.0    0.0 0.2274    0.0    5.3 2000.0 1995.0   15.0
   40014711 7620.0  120.0 0.1952 0.1855   84.4 2000.0 1995.0   15.0
   40015711 7680.0  180.0 0.1967 0.2783   58.4 2000.0 1994.0   15.0
   40016712 8460.0  120.0 0.2167 0.1855   93.1 2000.0 1994.0   15.0
   40017714 8160.0   60.0  0.209 0.0928  174.7 2000.0 1995.0   15.0
   40018714 7860.0  120.0 0.2013 0.1855   86.9 2000.0 1995.0   15.0
   40019715 9120.0  120.0 0.2336 0.1855  100.0 2000.0 1995.0   15.0
   40020715 6780.0  240.0 0.1737 0.3711   40.5 2000.0 1994.0   15.0
   40021717 8280.0  240.0 0.2121 0.3711   50.5 2000.0 1994.0   15.0
   40022718 7860.0  120.0 0.2013 0.1855   86.9 2000.0 1994.0   15.0
   40023719 8400.0  300.0 0.2152 0.4638   40.2 2000.0 1995.0   15.0
   40024719 9060.0  180.0 0.2321 0.2783   68.0 2000.0 1995.0   15.0
   40025721 8460.0    0.0 0.2167    0.0    5.3 2000.0 1995.0   15.0
   40026722 7680.0  360.0 0.1967 0.5566   31.9 2000.0 1995.0   15.0
   40027724 9900.0  300.0 0.2536 0.4638   46.4 2000.0 1995.0   15.0
   40028723 8760.0  180.0 0.2244 0.2783   65.9 2000.0 1995.0   15.0
   40029725 7500.0  120.0 0.1921 0.1855   83.1 2000.0 1995.0   15.0
   40030726 9660.0  120.0 0.2474 0.1855  105.6 2000.0 1995.0   15.0
   40031727 9840.0  300.0  0.252 0.4638   46.2 2000.0 1995.0   15.0
   40032728 8460.0  240.0 0.2167 0.3711   49.2 2000.0 1995.0   15.0
   40033729 8460.0  120.0 0.2167 0.1855   93.1 2000.0 1995.0   15.0
   40034729 9600.0  120.0 0.2459 0.1855  104.9 2000.0 1994.0   15.0
   40035731 9540.0    0.0 0.2444    0.0    5.3 2000.0 1995.0   15.0
   40036732 9660.0   60.0 0.2474 0.0928  205.8 2000.0 1995.0   15.0
   40037733 8700.0  180.0 0.2228 0.2783   65.5 2000.0 1995.0   15.0
   40038734 7680.0   60.0 0.1967 0.0928  164.7 2000.0 1995.0   15.0
   40039735 7800.0  240.0 0.1998 0.3711   45.8 2000.0 1995.0   15.0
   40040736 8640.0  180.0 0.2213 0.2783   65.1 2000.0 1995.0   15.0
   40041737 8340.0    0.0 0.2136    0.0    5.3 2000.0 1995.0   15.0
   40042737 8760.0  180.0 0.2244 0.2783   65.9 2000.0 1995.0   15.0
   40043738 8820.0  180.0 0.2259 0.2783   66.3 2000.0 1995.0   15.0
   40044740 8340.0    0.0 0.2136    0.0    5.3 2000.0 1994.0   15.0
   40045741 8160.0   60.0  0.209 0.0928  174.7 2000.0 1994.0   15.0
   40046743 8580.0  180.0 0.2198 0.2783   64.7 2000.0 1994.0   15.0
   40047744 8400.0  240.0 0.2152 0.3711   48.9 2000.0 1994.0   15.0
   40048744 7920.0   60.0 0.2029 0.0928  169.7 2000.0 1995.0   15.0
   40049746 8400.0  180.0 0.2152 0.2783   63.4 2000.0 1995.0   15.0
   40050747 8280.0  120.0 0.2121 0.1855   91.2 2000.0 1995.0   15.0
   40051748 8820.0   60.0 0.2259 0.0928  188.4 2000.0 1995.0   15.0
   40052749 8820.0  120.0 0.2259 0.1855   96.8 2000.0 1995.0   15.0
   40053750 9240.0    0.0 0.2367    0.0    5.3 2000.0 1994.0   15.0
   40054752 7380.0  120.0  0.189 0.1855   81.9 2000.0 1995.0   15.0
