# 
~VERSION INFORMATION
     VERS.                              2.0:Версия формата LAS
     WRAP.                               NO:Режим одной строчки на временной отчет
~WELL INFORMATION
     STRT.ms                       33913720:Время первой записи в файле
     STOP.ms                       56658382:Время последней записи в файле
     STEP.ms                              0:Шаг времени, 0 - переменный шаг
     NULL.                          -999.25:Метка, нет значения
     DATE.                       09.10.2024:Дата каротажа
      DRV.                                 :Наименование драйвера прибора
     NAME.                          ННКТ(б):Название прибора
     SNUM.                         23613003:Серийный номер прибора
     FRMW.                        0.23.10.2:Версия прошивки на контроллере прибора
~CURVE INFORMATION
     TIME.ms                       {0,11:0}:Время, количество миллисекунд от начало суток
     NTNC.имп/мин                          :Счёт, ближний зонд ННКТ
     FTNC.у.е.                             :Счёт, дальний зонд ННКТ
     NTNL.имп/мин                          :Счёт нормированный на счёт в воде, ближний зонд ННКТ
     FTNL.у.е.                             :Счёт нормированный на счёт в воде, дальний зонд ННКТ
     TRNP.%                                :Пористость по водородосодержанию ННКТ
     UHVS.В                                :Установленное напряжение на высоковольтнике
     UHVM.В                                :Измеренное напряжение на высоковольтнике
       MT.°C                               :Температура
~OTHER INFORMATION


~A     TIME   NTNC   FTNC   NTNL   FTNL   TRNP   UHVS   UHVM     MT
# ...
   49032720 8880.0  180.0 0.2274 0.2783   66.7 2000.0 1995.0   15.0
   49033722 8160.0  240.0  0.209 0.3711   47.7 2000.0 1995.0   15.0
   49034723 9180.0   60.0 0.2351 0.0928  195.9 2000.0 1994.0   15.0
   49035724 9300.0  180.0 0.2382 0.2783   69.7 2000.0 1994.0   15.0
   49036726 7800.0  120.0 0.1998 0.1855   86.3 2000.0 1994.0   15.0
   49037726 8520.0   60.0 0.2182 0.0928  182.2 2000.0 1994.0   15.0
   49038727 7620.0  240.0 0.1952 0.3711   44.8 2000.0 1994.0   15.0
   49039728 9660.0  120.0 0.2474 0.1855  105.6 2000.0 1994.0   15.0
   49040730 10080.0   60.0 0.2582 0.0928  214.6 2000.0 1994.0   15.0
   49041729 9180.0   60.0 0.2351 0.0928  195.9 2000.0 1995.0   15.0
   49042729 8220.0   60.0 0.2105 0.0928  175.9 2000.0 1994.0   15.0
   49043731 9480.0  180.0 0.2428 0.2783   70.9 2000.0 1994.0   15.0
   49044732 7740.0  180.0 0.1982 0.2783   58.9 2000.0 1994.0   15.0
   49045733 8040.0  180.0 0.2059 0.2783   60.9 2000.0 1995.0   15.0
   49046736 9000.0  120.0 0.2305 0.1855   98.7 2000.0 1995.0   15.0
   49047736 8640.0  120.0 0.2213 0.1855   95.0 2000.0 1995.0   15.0
   49048738 9120.0  180.0 0.2336 0.2783   68.4 2000.0 1994.0   15.0
   49049739 8580.0   60.0 0.2198 0.0928  183.4 2000.0 1995.0   15.0
   49050739 8400.0  180.0 0.2152 0.2783   63.4 2000.0 1994.0   15.0
   49051744 8040.0  300.0 0.2059 0.4638   38.7 2000.0 1994.0   15.0
   49052744 8760.0  180.0 0.2244 0.2783   65.9 2000.0 1994.0   15.0
   49053744 9480.0  120.0 0.2428 0.1855  103.7 2000.0 1995.0   15.0
   49054744 9120.0  120.0 0.2336 0.1855  100.0 2000.0 1994.0   15.0
   49055746 7500.0  300.0 0.1921 0.4638   36.4 2000.0 1994.0   15.0
   49056747 8220.0  240.0 0.2105 0.3711   48.0 2000.0 1995.0   15.0
   49057747 6720.0  300.0 0.1721 0.4638   33.2 2000.0 1995.0   15.0
   49058750 8160.0   60.0  0.209 0.0928  174.7 2000.0 1995.0   15.0
   49059749 9480.0  180.0 0.2428 0.2783   70.9 2000.0 1994.0   15.0
   49060751 8280.0  240.0 0.2121 0.3711   48.3 2000.0 1994.0   15.0
   49061752 9420.0  180.0 0.2413 0.2783   70.5 2000.0 1994.0   15.0
   49062753 8160.0   60.0  0.209 0.0928  183.4 2000.0 1994.0   15.0
   49063755 9600.0  540.0 0.2459 0.8349   27.4 2000.0 1994.0   15.0
   49064755 8340.0  180.0 0.2136 0.2783   63.0 2000.0 1994.0   15.0
   49065756 10200.0   60.0 0.2613 0.0928  217.0 2000.0 1994.0   15.0
   49066758 8640.0  120.0 0.2213 0.1855   95.0 2000.0 1994.0   15.0
   49067759 8520.0   60.0 0.2182 0.0928  182.2 2000.0 1994.0   15.0
   49068760 8760.0  300.0 0.2244 0.4638   41.7 2000.0 1994.0   15.0
   49069761 7980.0    0.0 0.2044    0.0    5.3 2000.0 1995.0   15.0
   49070763 7920.0  180.0 0.2029 0.2783   60.1 2000.0 1995.0   15.0
   49071765 8160.0  180.0  0.209 0.2783   61.8 2000.0 1995.0   15.0
   49072766 9180.0   60.0 0.2351 0.0928  195.9 2000.0 1995.0   15.0
   49073768 7920.0  240.0 0.2029 0.3711   46.4 2000.0 1994.0   15.0
   49074768 8760.0  300.0 0.2244 0.4638   41.7 2000.0 1994.0   15.0
   49075769 8040.0  180.0 0.2059 0.2783   60.9 2000.0 1994.0   15.0
   49076771 7740.0  300.0 0.1982 0.4638   37.4 2000.0 1994.0   15.0
   49077771 9120.0  120.0 0.2336 0.1855  100.0 2000.0 1995.0   15.0
   49078773 7800.0  240.0 0.1998 0.3711   45.8 2000.0 1994.0   15.0
   49079772 8880.0  300.0 0.2274 0.4638   42.2 2000.0 1994.0   15.0
   49080774 8760.0   60.0 0.2244 0.0928  187.1 2000.0 1994.0   15.0
   49081775 8760.0  240.0 0.2244 0.3711   50.8 2000.0 1994.0   15.0
   49082776 8700.0  120.0 0.2228 0.1855   95.6 2000.0 1994.0   15.0
   49083776 8520.0   60.0 0.2182 0.0928  182.2 2000.0 1994.0   15.0
   49084777 9240.0  180.0 0.2367 0.2783   69.2 2000.0 1994.0   15.0
   49085779 8340.0    0.0 0.2136    0.0    5.3 2000.0 1994.0   15.0
   49086779 8640.0  120.0 0.2213 0.1855   95.0 2000.0 1995.0   15.0
   49087780 9000.0  180.0 0.2305 0.2783   67.6 2000.0 1994.0   15.0
   49088781 8040.0  180.0 0.2059 0.2783   60.9 2000.0 1994.0   15.0
   49089784 8040.0  120.0 0.2059 0.1855   88.8 2000.0 1994.0   15.0
   49090785 8880.0  180.0 0.2274 0.2783   66.7 2000.0 1995.0   15.0
   49091785 9180.0  120.0 0.2351 0.1855  100.6 2000.0 1994.0   15.0
   49092785 8700.0  180.0 0.2228 0.2783   65.5 2000.0 1994.0   15.0
   49093787 8760.0   60.0 0.2244 0.0928  187.1 2000.0 1994.0   15.0
   49094788 8220.0  180.0 0.2105 0.2783   62.2 2000.0 1994.0   15.0
   49095790 8700.0  180.0 0.2228 0.2783   65.5 2000.0 1994.0   15.0
   49096792 9480.0   60.0 0.2428 0.0928  202.1 2000.0 1995.0   15.0
   49097792 8700.0  120.0 0.2228 0.1855   95.6 2000.0 1995.0   15.0
   49098795 7560.0  180.0 0.1936 0.2783   57.6 2000.0 1995.0   15.0
   49099794 8520.0    0.0 0.2182    0.0    5.3 2000.0 1994.0   15.0
   49100795 8940.0   60.0  0.229 0.0928  190.9 2000.0 1994.0   15.0
   49101795 8160.0  180.0  0.209 0.2783   61.8 2000.0 1995.0   15.0
   49102797 9060.0  180.0 0.2321 0.2783   68.0 2000.0 1994.0   15.0
   49103799 8520.0   60.0 0.2182 0.0928  182.2 2000.0 1994.0   15.0
   49104799 8280.0  180.0 0.2121 0.2783   62.6 2000.0 1995.0   15.0
   49105800 8880.0  120.0 0.2274 0.1855   97.5 2000.0 1995.0   15.0
   49106802 9180.0   60.0 0.2351 0.0928  205.8 2000.0 1995.0   15.0
   49107802 9240.0  120.0 0.2367 0.1855  101.2 2000.0 1994.0   15.0
   49108804 8940.0  180.0  0.229 0.2783   67.2 2000.0 1995.0   15.0
   49109806 9540.0   60.0 0.2444 0.0928  203.3 2000.0 1995.0   15.0
   49110806 9420.0  240.0 0.2413 0.3711   54.2 2000.0 1994.0   15.0
   49111807 8400.0   60.0 0.2152 0.0928  179.7 2000.0 1995.0   15.0
   49112807 7680.0   60.0 0.1967 0.0928  164.7 2000.0 1995.0   15.0
   49113808 8040.0  360.0 0.2059 0.5566   33.1 2000.0 1994.0   15.0
   49114809 8280.0  120.0 0.2121 0.1855   91.2 2000.0 1994.0   15.0
   49115812 8580.0  180.0 0.2198 0.2783   64.7 2000.0 1995.0   15.0
   49116813 7440.0    0.0 0.1906    0.0    5.3 2000.0 1994.0   15.0
   49117813 8580.0   60.0 0.2198 0.0928  183.4 2000.0 1994.0   15.0
   49118816 9420.0   60.0 0.2413 0.0928  200.8 2000.0 1995.0   15.0
   49119815 8760.0  420.0 0.2244 0.6494   31.3 2000.0 1995.0   15.0
   49120817 8640.0    0.0 0.2213    0.0    5.3 2000.0 1995.0   15.0
   49121821 9120.0    0.0 0.2336    0.0    5.3 2000.0 1995.0   15.0
   49122818 8340.0  120.0 0.2136 0.1855   91.9 2000.0 1995.0   15.0
   49123819 8880.0  120.0 0.2274 0.1855   97.5 2000.0 1995.0   15.0
   49124821 7800.0   60.0 0.1998 0.0928  167.2 2000.0 1995.0   15.0
   49125822 8760.0   60.0 0.2244 0.0928  187.1 2000.0 1994.0   15.0
   49126822 9000.0  120.0 0.2305 0.1855   98.7 2000.0 1994.0   15.0
   49127824 8700.0   60.0 0.2228 0.0928  185.9 2000.0 1994.0   15.0
   49128825 9000.0  240.0 0.2305 0.3711   52.0 2000.0 1994.0   15.0
   49129825 9420.0  300.0 0.2413 0.4638   44.4 2000.0 1994.0   15.0
   49130828 9720.0  240.0  0.249 0.3711   55.7 2000.0 1995.0   15.0
   49131828 8460.0   60.0 0.2167 0.0928  180.9 2000.0 1995.0   15.0
   49132829 8760.0  300.0 0.2244 0.4638   41.7 2000.0 1994.0   15.0
   49133830 8460.0    0.0 0.2167    0.0    5.3 2000.0 1994.0   15.0
   49134831 7680.0   60.0 0.1967 0.0928  164.7 2000.0 1994.0   15.0
   49135831 7920.0  120.0 0.2029 0.1855   87.5 2000.0 1994.0   15.0
   49136833 9900.0   60.0 0.2536 0.0928  210.8 2000.0 1995.0   15.0
   49137834 7200.0    0.0 0.1844    0.0    5.3 2000.0 1995.0   15.0
   49138834 7500.0    0.0 0.1921    0.0    5.3 2000.0 1995.0   15.0
   49139836 8580.0   60.0 0.2198 0.0928  183.4 2000.0 1994.0   15.0
   49140836 7860.0  240.0 0.2013 0.3711   46.1 2000.0 1995.0   15.0
   49141837 9240.0  240.0 0.2367 0.3711   53.3 2000.0 1994.0   15.0
   49142838 9000.0  120.0 0.2305 0.1855   98.7 2000.0 1994.0   15.0
   49143839 7320.0   60.0 0.1875 0.0928  157.3 2000.0 1995.0   15.0
   49144840 8340.0  240.0 0.2136 0.3711   48.6 2000.0 1995.0   15.0
   49145842 9060.0  180.0 0.2321 0.2783   68.0 2000.0 1995.0   15.0
   49146843 8100.0  180.0 0.2075 0.2783   61.4 2000.0 1994.0   15.0
   49147844 8700.0  120.0 0.2228 0.1855   95.6 2000.0 1994.0   15.0
   49148846 8640.0  120.0 0.2213 0.1855   95.0 2000.0 1995.0   15.0
   49149846 7140.0  180.0 0.1829 0.2783   54.7 2000.0 1994.0   15.0
