# 
~VERSION INFORMATION
     VERS.                              2.0:Версия формата LAS
     WRAP.                               NO:Режим одной строчки на временной отчет
~WELL INFORMATION
     STRT.ms                       33913720:Время первой записи в файле
     STOP.ms                       56658382:Время последней записи в файле
     STEP.ms                              0:Шаг времени, 0 - переменный шаг
     NULL.                          -999.25:Метка, нет значения
     DATE.                       09.10.2024:Дата каротажа
      DRV.                                 :Наименование драйвера прибора
     NAME.                          ННКТ(б):Название прибора
     SNUM.                         23613003:Серийный номер прибора
     FRMW.                        0.23.10.2:Версия прошивки на контроллере прибора
~CURVE INFORMATION
     TIME.ms                       {0,11:0}:Время, количество миллисекунд от начало суток
     NTNC.имп/мин                          :Счёт, ближний зонд ННКТ
     FTNC.у.е.                             :Счёт, дальний зонд ННКТ
     NTNL.имп/мин                          :Счёт нормированный на счёт в воде, ближний зонд ННКТ
     FTNL.у.е.                             :Счёт нормированный на счёт в воде, дальний зонд ННКТ
     TRNP.%                                :Пористость по водородосодержанию ННКТ
     UHVS.В                                :Установленное напряжение на высоковольтнике
     UHVM.В                                :Измеренное напряжение на высоковольтнике
       MT.°C                               :Температура
~OTHER INFORMATION


~A     TIME   NTNC   FTNC   NTNL   FTNL   TRNP   UHVS   UHVM     MT
# ...
   47497143 8700.0   60.0 0.2228 0.0928  185.9 2000.0 1994.0   15.0
   47498143 7500.0  180.0 0.1921 0.2783   57.2 2000.0 1994.0   15.0
   47499144 8100.0  360.0 0.2075 0.5566   33.3 2000.0 1995.0   15.0
   47500144 8580.0  120.0 0.2198 0.1855   94.4 2000.0 1994.0   15.0
   47501146 8880.0  240.0 0.2274 0.3711   51.4 2000.0 1994.0   15.0
   47502146 7680.0  240.0 0.1967 0.3711   45.2 2000.0 1995.0   15.0
   47503146 8160.0    0.0  0.209    0.0    5.3 2000.0 1995.0   15.0
   47504147 9780.0   60.0 0.2505 0.0928  208.3 2000.0 1994.0   15.0
   47505148 9060.0  300.0 0.2321 0.4638   42.9 2000.0 1995.0   15.0
   47506150 8460.0  240.0 0.2167 0.3711   49.2 2000.0 1995.0   15.0
   47507149 9780.0   60.0 0.2505 0.0928  208.3 2000.0 1994.0   15.0
   47508150 8040.0  120.0 0.2059 0.1855   88.8 2000.0 1994.0   15.0
   47509152 7860.0  240.0 0.2013 0.3711   46.1 2000.0 1995.0   15.0
   47510153 7740.0  180.0 0.1982 0.2783   58.9 2000.0 1994.0   15.0
   47511155 8040.0  240.0 0.2059 0.3711   47.0 2000.0 1995.0   15.0
   47512156 7920.0  240.0 0.2029 0.3711   46.4 2000.0 1995.0   15.0
   47513156 8220.0  240.0 0.2105 0.3711   50.1 2000.0 1994.0   15.0
   47514158 10140.0  120.0 0.2597 0.1855  110.5 2000.0 1994.0   15.0
   47515159 8400.0  240.0 0.2152 0.3711   48.9 2000.0 1994.0   15.0
   47516161 8640.0  180.0 0.2213 0.2783   65.1 2000.0 1994.0   15.0
   47517160 8340.0  180.0 0.2136 0.2783   63.0 2000.0 1995.0   15.0
   47518162 8880.0  120.0 0.2274 0.1855   97.5 2000.0 1995.0   15.0
   47519163 8100.0  120.0 0.2075 0.1855   89.4 2000.0 1995.0   15.0
   47520165 9660.0  180.0 0.2474 0.2783   72.1 2000.0 1995.0   15.0
   47521165 9900.0   60.0 0.2536 0.0928  210.8 2000.0 1995.0   15.0
   47522166 8280.0  180.0 0.2121 0.2783   62.6 2000.0 1995.0   15.0
   47523167 9120.0  300.0 0.2336 0.4638   43.2 2000.0 1995.0   15.0
   47524167 8820.0  180.0 0.2259 0.2783   66.3 2000.0 1994.0   15.0
   47525168 7980.0  120.0 0.2044 0.1855   88.1 2000.0 1995.0   15.0
   47526170 8580.0   60.0 0.2198 0.0928  183.4 2000.0 1994.0   15.0
   47527170 7920.0   60.0 0.2029 0.0928  169.7 2000.0 1994.0   15.0
   47528172 7620.0   60.0 0.1952 0.0928  163.5 2000.0 1995.0   15.0
   47529173 7860.0  120.0 0.2013 0.1855   86.9 2000.0 1995.0   15.0
   47530173 8040.0    0.0 0.2059    0.0    5.3 2000.0 1995.0   15.0
   47531175 8220.0  120.0 0.2105 0.1855   90.6 2000.0 1995.0   15.0
   47532176 9240.0  240.0 0.2367 0.3711   53.3 2000.0 1994.0   15.0
   47533177 9120.0  180.0 0.2336 0.2783   68.4 2000.0 1994.0   15.0
   47534179 8400.0  180.0 0.2152 0.2783   63.4 2000.0 1994.0   15.0
   47535179 7440.0  300.0 0.1906 0.4638   36.2 2000.0 1994.0   15.0
   47536180 8580.0  120.0 0.2198 0.1855   94.4 2000.0 1994.0   15.0
   47537182 9300.0  120.0 0.2382 0.1855  101.8 2000.0 1994.0   15.0
   47538183 8820.0    0.0 0.2259    0.0    5.3 2000.0 1995.0   15.0
   47539184 7980.0   60.0 0.2044 0.0928  171.0 2000.0 1994.0   15.0
   47540184 9300.0    0.0 0.2382    0.0    5.3 2000.0 1994.0   15.0
   47541185 7440.0   60.0 0.1906 0.0928  159.7 2000.0 1995.0   15.0
   47542185 8700.0  120.0 0.2228 0.1855   95.6 2000.0 1995.0   15.0
   47543186 9060.0   60.0 0.2321 0.0928  193.4 2000.0 1995.0   15.0
   47544186 7140.0    0.0 0.1829    0.0    5.3 2000.0 1994.0   15.0
   47545187 8700.0  120.0 0.2228 0.1855   95.6 2000.0 1994.0   15.0
   47546189 9600.0  180.0 0.2459 0.2783   71.7 2000.0 1994.0   15.0
   47547189 8220.0  180.0 0.2105 0.2783   62.2 2000.0 1995.0   15.0
   47548190 7500.0  240.0 0.1921 0.3711   44.2 2000.0 1994.0   15.0
   47549192 8640.0   60.0 0.2213 0.0928  184.7 2000.0 1995.0   15.0
   47550192 7800.0  180.0 0.1998 0.2783   59.3 2000.0 1995.0   15.0
   47551193 7740.0   60.0 0.1982 0.0928  166.0 2000.0 1994.0   15.0
   47552194 7500.0  120.0 0.1921 0.1855   83.1 2000.0 1994.0   15.0
   47553195 7320.0  120.0 0.1875 0.1855   81.3 2000.0 1995.0   15.0
   47554196 8520.0   60.0 0.2182 0.0928  182.2 2000.0 1994.0   15.0
   47555196 8700.0  240.0 0.2228 0.3711   50.5 2000.0 1994.0   15.0
   47556198 8640.0    0.0 0.2213    0.0    5.3 2000.0 1995.0   15.0
   47557199 7800.0    0.0 0.1998    0.0    5.3 2000.0 1995.0   15.0
   47558200 9120.0  120.0 0.2336 0.1855  100.0 2000.0 1995.0   15.0
   47559202 8700.0   60.0 0.2228 0.0928  185.9 2000.0 1994.0   15.0
   47560203 7560.0  480.0 0.1936 0.7421   24.9 2000.0 1995.0   15.0
   47561203 8580.0   60.0 0.2198 0.0928  183.4 2000.0 1994.0   15.0
   47562205 9180.0  180.0 0.2351 0.2783   72.1 2000.0 1994.0   15.0
   47563206 9240.0   60.0 0.2367 0.0928  197.1 2000.0 1994.0   15.0
   47564205 7980.0  180.0 0.2044 0.2783   60.5 2000.0 1994.0   15.0
   47565207 9840.0  180.0  0.252 0.2783   73.4 2000.0 1994.0   15.0
   47566209 9000.0   60.0 0.2305 0.0928  192.1 2000.0 1995.0   15.0
   47567209 9360.0   60.0 0.2397 0.0928  199.6 2000.0 1995.0   15.0
   47568210 8880.0  180.0 0.2274 0.2783   66.7 2000.0 1995.0   15.0
   47569211 8220.0  120.0 0.2105 0.1855   90.6 2000.0 1995.0   15.0
   47570211 9000.0   60.0 0.2305 0.0928  192.1 2000.0 1995.0   15.0
   47571213 8520.0  120.0 0.2182 0.1855   93.7 2000.0 1994.0   15.0
   47572214 8760.0  120.0 0.2244 0.1855   96.2 2000.0 1995.0   15.0
   47573214 9720.0  180.0  0.249 0.2783   72.6 2000.0 1995.0   15.0
   47574216 8640.0  180.0 0.2213 0.2783   65.1 2000.0 1995.0   15.0
   47575217 8340.0   60.0 0.2136 0.0928  178.4 2000.0 1994.0   15.0
   47576218 8460.0   60.0 0.2167 0.0928  180.9 2000.0 1994.0   15.0
   47577221 8820.0  120.0 0.2259 0.1855   96.8 2000.0 1994.0   15.0
   47578221 8760.0  300.0 0.2244 0.4638   41.7 2000.0 1995.0   15.0
   47579223 9300.0  240.0 0.2382 0.3711   53.6 2000.0 1994.0   15.0
   47580223 7800.0  180.0 0.1998 0.2783   59.3 2000.0 1994.0   15.0
   47581224 9180.0  480.0 0.2351 0.7421   29.1 2000.0 1994.0   15.0
   47582225 8220.0   60.0 0.2105 0.0928  175.9 2000.0 1995.0   15.0
   47583226 8760.0  420.0 0.2244 0.6494   31.3 2000.0 1994.0   15.0
   47584227 8640.0  120.0 0.2213 0.1855   95.0 2000.0 1994.0   15.0
   47585228 7560.0  180.0 0.1936 0.2783   57.6 2000.0 1994.0   15.0
   47586229 8580.0  240.0 0.2198 0.3711   49.8 2000.0 1995.0   15.0
   47587229 8220.0  240.0 0.2105 0.3711   48.0 2000.0 1995.0   15.0
   47588230 8940.0   60.0  0.229 0.0928  190.9 2000.0 1995.0   15.0
   47589230 7560.0  300.0 0.1936 0.4638   36.7 2000.0 1994.0   15.0
   47590232 9360.0  120.0 0.2397 0.1855  102.5 2000.0 1994.0   15.0
   47591233 7440.0  120.0 0.1906 0.1855   82.5 2000.0 1994.0   15.0
   47592234 8100.0   60.0 0.2075 0.0928  173.4 2000.0 1995.0   15.0
   47593236 8760.0  240.0 0.2244 0.3711   50.8 2000.0 1994.0   15.0
   47594237 7800.0  120.0 0.1998 0.1855   86.3 2000.0 1995.0   15.0
   47595238 8100.0  180.0 0.2075 0.2783   61.4 2000.0 1994.0   15.0
   47596239 8760.0  120.0 0.2244 0.1855   96.2 2000.0 1994.0   15.0
   47597239 9660.0  120.0 0.2474 0.1855  105.6 2000.0 1995.0   15.0
   47598240 8220.0  180.0 0.2105 0.2783   62.2 2000.0 1994.0   15.0
   47599241 9720.0  120.0  0.249 0.1855  106.2 2000.0 1994.0   15.0
   47600243 8160.0  120.0  0.209 0.1855   90.0 2000.0 1994.0   15.0
   47601243 8520.0   60.0 0.2182 0.0928  182.2 2000.0 1994.0   15.0
   47602244 8580.0  120.0 0.2198 0.1855   94.4 2000.0 1995.0   15.0
   47603245 8460.0  180.0 0.2167 0.2783   63.8 2000.0 1994.0   15.0
   47604246 8400.0  240.0 0.2152 0.3711   48.9 2000.0 1994.0   15.0
   47605247 9780.0  120.0 0.2505 0.1855  106.8 2000.0 1994.0   15.0
   47606250 7620.0   60.0 0.1952 0.0928  163.5 2000.0 1995.0   15.0
   47607250 7740.0   60.0 0.1982 0.0928  166.0 2000.0 1994.0   15.0
   47608250 7920.0    0.0 0.2029    0.0    5.3 2000.0 1995.0   15.0
   47609251 8580.0   60.0 0.2198 0.0928  183.4 2000.0 1995.0   15.0
   47610253 7140.0  120.0 0.1829 0.1855   83.1 2000.0 1995.0   15.0
   47611254 9000.0  180.0 0.2305 0.2783   67.6 2000.0 1994.0   15.0
   47612255 9180.0  180.0 0.2351 0.2783   68.8 2000.0 1995.0   15.0
   47613256 6900.0  180.0 0.1767 0.2783   53.0 2000.0 1995.0   15.0
   47614257 8160.0  120.0  0.209 0.1855   90.0 2000.0 1994.0   15.0
