# 
~VERSION INFORMATION
     VERS.                              2.0:Версия формата LAS
     WRAP.                               NO:Режим одной строчки на временной отчет
~WELL INFORMATION
     STRT.ms                       33913720:Время первой записи в файле
     STOP.ms                       56658382:Время последней записи в файле
     STEP.ms                              0:Шаг времени, 0 - переменный шаг
     NULL.                          -999.25:Метка, нет значения
     DATE.                       09.10.2024:Дата каротажа
      DRV.                                 :Наименование драйвера прибора
     NAME.                          ННКТ(б):Название прибора
     SNUM.                         23613003:Серийный номер прибора
     FRMW.                        0.23.10.2:Версия прошивки на контроллере прибора
~CURVE INFORMATION
     TIME.ms                       {0,11:0}:Время, количество миллисекунд от начало суток
     NTNC.имп/мин                          :Счёт, ближний зонд ННКТ
     FTNC.у.е.                             :Счёт, дальний зонд ННКТ
     NTNL.имп/мин                          :Счёт нормированный на счёт в воде, ближний зонд ННКТ
     FTNL.у.е.                             :Счёт нормированный на счёт в воде, дальний зонд ННКТ
     TRNP.%                                :Пористость по водородосодержанию ННКТ
     UHVS.В                                :Установленное напряжение на высоковольтнике
     UHVM.В                                :Измеренное напряжение на высоковольтнике
       MT.°C                               :Температура
~OTHER INFORMATION


~A     TIME   NTNC   FTNC   NTNL   FTNL   TRNP   UHVS   UHVM     MT
# ...
   45961627 10380.0  180.0 0.2659 0.2783   77.1 2000.0 1995.0   15.0
   45962628 9240.0  240.0 0.2367 0.3711   53.3 2000.0 1995.0   15.0
   45963628 9060.0   60.0 0.2321 0.0928  193.4 2000.0 1994.0   15.0
   45964630 8880.0  180.0 0.2274 0.2783   66.7 2000.0 1995.0   15.0
   45965630 7680.0  120.0 0.1967 0.1855   85.0 2000.0 1995.0   15.0
   45966631 8520.0  180.0 0.2182 0.2783   64.3 2000.0 1995.0   15.0
   45967631 9180.0   60.0 0.2351 0.0928  195.9 2000.0 1995.0   15.0
   45968634 7800.0  300.0 0.1998 0.4638   37.7 2000.0 1994.0   15.0
   45969634 7800.0  240.0 0.1998 0.3711   45.8 2000.0 1995.0   15.0
   45970635 9060.0   60.0 0.2321 0.0928  193.4 2000.0 1995.0   15.0
   45971636 7860.0  180.0 0.2013 0.2783   59.7 2000.0 1994.0   15.0
   45972636 8580.0  180.0 0.2198 0.2783   64.7 2000.0 1995.0   15.0
   45973638 8700.0  180.0 0.2228 0.2783   65.5 2000.0 1995.0   15.0
   45974638 7860.0   60.0 0.2013 0.0928  168.5 2000.0 1995.0   15.0
   45975639 9720.0  240.0  0.249 0.3711   55.7 2000.0 1995.0   15.0
   45976641 8640.0   60.0 0.2213 0.0928  184.7 2000.0 1994.0   15.0
   45977642 8760.0  240.0 0.2244 0.3711   50.8 2000.0 1994.0   15.0
   45978643 8160.0   60.0  0.209 0.0928  174.7 2000.0 1994.0   15.0
   45979643 9720.0  360.0  0.249 0.5566   38.9 2000.0 1995.0   15.0
   45980644 8400.0   60.0 0.2152 0.0928  179.7 2000.0 1995.0   15.0
   45981646 8520.0  120.0 0.2182 0.1855   93.7 2000.0 1994.0   15.0
   45982647 8160.0   60.0  0.209 0.0928  174.7 2000.0 1995.0   15.0
   45983649 7140.0  180.0 0.1829 0.2783   54.7 2000.0 1995.0   15.0
   45984649 9000.0  120.0 0.2305 0.1855   98.7 2000.0 1995.0   15.0
   45985650 7620.0   60.0 0.1952 0.0928  163.5 2000.0 1995.0   15.0
   45986651 8700.0  240.0 0.2228 0.3711   50.5 2000.0 1994.0   15.0
   45987653 9300.0  540.0 0.2382 0.8349   26.8 2000.0 1994.0   15.0
   45988653 8520.0  180.0 0.2182 0.2783   64.3 2000.0 1995.0   15.0
   45989654 9360.0  120.0 0.2397 0.1855  102.5 2000.0 1994.0   15.0
   45990655 9720.0  120.0  0.249 0.1855  106.2 2000.0 1994.0   15.0
   45991655 8760.0   60.0 0.2244 0.0928  187.1 2000.0 1995.0   15.0
   45992656 7560.0   60.0 0.1936 0.0928  162.2 2000.0 1994.0   15.0
   45993657 9060.0   60.0 0.2321 0.0928  193.4 2000.0 1995.0   15.0
   45994659 10020.0  300.0 0.2566 0.4638   46.9 2000.0 1994.0   15.0
   45995659 8640.0  180.0 0.2213 0.2783   68.0 2000.0 1995.0   15.0
   45996660 8640.0  180.0 0.2213 0.2783   65.1 2000.0 1995.0   15.0
   45997661 8580.0  120.0 0.2198 0.1855   94.4 2000.0 1995.0   15.0
   45998662 7920.0   60.0 0.2029 0.0928  169.7 2000.0 1994.0   15.0
   45999663 7560.0  300.0 0.1936 0.4638   36.7 2000.0 1995.0   15.0
   46000664 10140.0    0.0 0.2597    0.0    5.3 2000.0 1995.0   15.0
   46001664 8160.0  180.0  0.209 0.2783   61.8 2000.0 1995.0   15.0
   46002665 8340.0  180.0 0.2136 0.2783   63.0 2000.0 1995.0   15.0
   46003667 8880.0  180.0 0.2274 0.2783   66.7 2000.0 1995.0   15.0
   46004667 9060.0  120.0 0.2321 0.1855   99.3 2000.0 1994.0   15.0
   46005668 9600.0  120.0 0.2459 0.1855  104.9 2000.0 1995.0   15.0
   46006668 9180.0  120.0 0.2351 0.1855  100.6 2000.0 1994.0   15.0
   46007670 7620.0   60.0 0.1952 0.0928  163.5 2000.0 1995.0   15.0
   46008670 7920.0  120.0 0.2029 0.1855   87.5 2000.0 1995.0   15.0
   46009671 8820.0  180.0 0.2259 0.2783   66.3 2000.0 1995.0   15.0
   46010672 8520.0  180.0 0.2182 0.2783   64.3 2000.0 1995.0   15.0
   46011673 9000.0    0.0 0.2305    0.0    5.3 2000.0 1994.0   15.0
   46012674 8700.0  240.0 0.2228 0.3711   50.5 2000.0 1994.0   15.0
   46013675 8700.0  120.0 0.2228 0.1855   95.6 2000.0 1995.0   15.0
   46014677 9300.0   60.0 0.2382 0.0928  198.4 2000.0 1994.0   15.0
   46015677 7320.0   60.0 0.1875 0.0928  157.3 2000.0 1994.0   15.0
   46016679 8940.0  120.0  0.229 0.1855   98.1 2000.0 1995.0   15.0
   46017680 10260.0    0.0 0.2628    0.0    5.3 2000.0 1994.0   15.0
   46018680 8580.0   60.0 0.2198 0.0928  183.4 2000.0 1994.0   15.0
   46019681 8880.0   60.0 0.2274 0.0928  189.6 2000.0 1995.0   15.0
   46020682 8460.0  180.0 0.2167 0.2783   63.8 2000.0 1995.0   15.0
   46021683 8220.0   60.0 0.2105 0.0928  175.9 2000.0 1995.0   15.0
   46022684 8640.0  120.0 0.2213 0.1855   95.0 2000.0 1994.0   15.0
   46023684 10500.0  120.0 0.2689 0.1855  114.3 2000.0 1994.0   15.0
   46024685 8040.0    0.0 0.2059    0.0    5.3 2000.0 1995.0   15.0
   46025686 9480.0   60.0 0.2428 0.0928  202.1 2000.0 1994.0   15.0
   46026688 8340.0   60.0 0.2136 0.0928  178.4 2000.0 1995.0   15.0
   46027688 8640.0  180.0 0.2213 0.2783   65.1 2000.0 1994.0   15.0
   46028689 9660.0  120.0 0.2474 0.1855  105.6 2000.0 1995.0   15.0
   46029689 8880.0  180.0 0.2274 0.2783   66.7 2000.0 1995.0   15.0
   46030690 9660.0  120.0 0.2474 0.1855  105.6 2000.0 1995.0   15.0
   46031691 7560.0   60.0 0.1936 0.0928  162.2 2000.0 1995.0   15.0
   46032692 8100.0  120.0 0.2075 0.1855   89.4 2000.0 1994.0   15.0
   46033693 7560.0  360.0 0.1936 0.5566   31.5 2000.0 1994.0   15.0
   46034695 8340.0   60.0 0.2136 0.0928  178.4 2000.0 1994.0   15.0
   46035695 8640.0  120.0 0.2213 0.1855   95.0 2000.0 1995.0   15.0
   46036697 8040.0  120.0 0.2059 0.1855   88.8 2000.0 1995.0   15.0
   46037697 10320.0  120.0 0.2643 0.1855  112.4 2000.0 1994.0   15.0
   46038698 7800.0    0.0 0.1998    0.0    5.3 2000.0 1995.0   15.0
   46039699 7860.0   60.0 0.2013 0.0928  168.5 2000.0 1995.0   15.0
   46040700 8880.0   60.0 0.2274 0.0928  189.6 2000.0 1995.0   15.0
   46041703 8040.0  240.0 0.2059 0.3711   47.0 2000.0 1994.0   15.0
   46042703 8100.0  180.0 0.2075 0.2783   61.4 2000.0 1995.0   15.0
   46043703 9300.0  300.0 0.2382 0.4638   43.9 2000.0 1995.0   15.0
   46044704 9120.0   60.0 0.2336 0.0928  194.6 2000.0 1995.0   15.0
   46045706 9660.0  360.0 0.2474 0.5566   38.7 2000.0 1994.0   15.0
   46046706 8460.0  120.0 0.2167 0.1855   93.1 2000.0 1995.0   15.0
   46047707 9300.0   60.0 0.2382 0.0928  208.3 2000.0 1994.0   15.0
   46048708 8040.0  120.0 0.2059 0.1855   88.8 2000.0 1995.0   15.0
   46049708 9480.0  180.0 0.2428 0.2783   70.9 2000.0 1994.0   15.0
   46050709 9780.0  120.0 0.2505 0.1855  106.8 2000.0 1995.0   15.0
   46051710 7380.0  240.0  0.189 0.3711   43.6 2000.0 1994.0   15.0
   46052712 8400.0  240.0 0.2152 0.3711   48.9 2000.0 1995.0   15.0
   46053713 9660.0  180.0 0.2474 0.2783   72.1 2000.0 1994.0   15.0
   46054715 10320.0  300.0 0.2643 0.4638   48.1 2000.0 1995.0   15.0
   46055714 8220.0  120.0 0.2105 0.1855   90.6 2000.0 1994.0   15.0
   46056717 8940.0  120.0  0.229 0.1855   98.1 2000.0 1995.0   15.0
   46057717 8760.0  120.0 0.2244 0.1855   96.2 2000.0 1995.0   15.0
   46058717 8820.0   60.0 0.2259 0.0928  188.4 2000.0 1994.0   15.0
   46059718 8580.0  120.0 0.2198 0.1855   94.4 2000.0 1995.0   15.0
   46060719 8700.0  120.0 0.2228 0.1855   95.6 2000.0 1994.0   15.0
   46061720 8760.0  180.0 0.2244 0.2783   65.9 2000.0 1994.0   15.0
   46062721 8400.0  240.0 0.2152 0.3711   48.9 2000.0 1994.0   15.0
   46063721 8400.0  120.0 0.2152 0.1855   92.5 2000.0 1995.0   15.0
   46064723 8940.0  240.0  0.229 0.3711   51.7 2000.0 1994.0   15.0
   46065724 9600.0  300.0 0.2459 0.4638   45.2 2000.0 1994.0   15.0
   46066726 8820.0  120.0 0.2259 0.1855   96.8 2000.0 1995.0   15.0
   46067727 8700.0   60.0 0.2228 0.0928  185.9 2000.0 1994.0   15.0
   46068728 9060.0  480.0 0.2321 0.7421   28.8 2000.0 1994.0   15.0
   46069729 8460.0  120.0 0.2167 0.1855   93.1 2000.0 1994.0   15.0
   46070730 7260.0   60.0  0.186 0.0928  156.0 2000.0 1994.0   15.0
   46071731 8220.0   60.0 0.2105 0.0928  175.9 2000.0 1994.0   15.0
   46072732 8760.0  240.0 0.2244 0.3711   50.8 2000.0 1995.0   15.0
   46073733 8400.0  240.0 0.2152 0.3711   48.9 2000.0 1995.0   15.0
   46074734 8400.0   60.0 0.2152 0.0928  179.7 2000.0 1995.0   15.0
   46075735 9180.0  120.0 0.2351 0.1855  100.6 2000.0 1995.0   15.0
   46076737 7320.0  240.0 0.1875 0.3711   43.3 2000.0 1994.0   15.0
   46077738 8940.0  180.0  0.229 0.2783   67.2 2000.0 1995.0   15.0
   46078740 7620.0  240.0 0.1952 0.3711   44.8 2000.0 1994.0   15.0
