# 
~VERSION INFORMATION
     VERS.                              2.0:Версия формата LAS
     WRAP.                               NO:Режим одной строчки на временной отчет
~WELL INFORMATION
     STRT.ms                       33913720:Время первой записи в файле
     STOP.ms                       56658382:Время последней записи в файле
     STEP.ms                              0:Шаг времени, 0 - переменный шаг
     NULL.                          -999.25:Метка, нет значения
     DATE.                       09.10.2024:Дата каротажа
      DRV.                                 :Наименование драйвера прибора
     NAME.                          ННКТ(б):Название прибора
     SNUM.                         23613003:Серийный номер прибора
     FRMW.                        0.23.10.2:Версия прошивки на контроллере прибора
~CURVE INFORMATION
     TIME.ms                       {0,11:0}:Время, количество миллисекунд от начало суток
     NTNC.имп/мин                          :Счёт, ближний зонд ННКТ
     FTNC.у.е.                             :Счёт, дальний зонд ННКТ
     NTNL.имп/мин                          :Счёт нормированный на счёт в воде, ближний зонд ННКТ
     FTNL.у.е.                             :Счёт нормированный на счёт в воде, дальний зонд ННКТ
     TRNP.%                                :Пористость по водородосодержанию ННКТ
     UHVS.В                                :Установленное напряжение на высоковольтнике
     UHVM.В                                :Измеренное напряжение на высоковольтнике
       MT.°C                               :Температура
~OTHER INFORMATION


~A     TIME   NTNC   FTNC   NTNL   FTNL   TRNP   UHVS   UHVM     MT
# ...
   38402099 8760.0  120.0 0.2244 0.1855   96.2 2000.0 1995.0   15.0
   38403099 7560.0  360.0 0.1936 0.5566   31.5 2000.0 1995.0   15.0
   38404101 8700.0   60.0 0.2228 0.0928  185.9 2000.0 1995.0   15.0
   38405101 9420.0  180.0 0.2413 0.2783   70.5 2000.0 1994.0   15.0
   38406101 9120.0  180.0 0.2336 0.2783   68.4 2000.0 1995.0   15.0
   38407103 7740.0   60.0 0.1982 0.0928  166.0 2000.0 1994.0   15.0
   38408103 8400.0  120.0 0.2152 0.1855   92.5 2000.0 1995.0   15.0
   38409104 8280.0    0.0 0.2121    0.0    5.3 2000.0 1995.0   15.0
   38410105 6720.0    0.0 0.1721    0.0    5.3 2000.0 1995.0   15.0
   38411106 8340.0  300.0 0.2136 0.4638   39.9 2000.0 1995.0   15.0
   38412107 8280.0  360.0 0.2121 0.5566   34.0 2000.0 1995.0   15.0
   38413107 7500.0   60.0 0.1921 0.0928  161.0 2000.0 1994.0   15.0
   38414109 7680.0  300.0 0.1967 0.4638   37.2 2000.0 1995.0   15.0
   38415110 8280.0  120.0 0.2121 0.1855   91.2 2000.0 1994.0   15.0
   38416111 9300.0  180.0 0.2382 0.2783   69.7 2000.0 1994.0   15.0
   38417112 8940.0    0.0  0.229    0.0    5.3 2000.0 1994.0   15.0
   38418114 9180.0  240.0 0.2351 0.3711   52.9 2000.0 1995.0   15.0
   38419114 8400.0   60.0 0.2152 0.0928  179.7 2000.0 1995.0   15.0
   38420116 9660.0  180.0 0.2474 0.2783   72.1 2000.0 1994.0   15.0
   38421116 8220.0  420.0 0.2105 0.6494   29.7 2000.0 1995.0   15.0
   38422118 8520.0  240.0 0.2182 0.3711   49.5 2000.0 1995.0   15.0
   38423118 8160.0  180.0  0.209 0.2783   61.8 2000.0 1995.0   15.0
   38424119 8160.0  300.0  0.209 0.4638   39.2 2000.0 1995.0   15.0
   38425120 8460.0  180.0 0.2167 0.2783   63.8 2000.0 1995.0   15.0
   38426121 7560.0  180.0 0.1936 0.2783   57.6 2000.0 1994.0   15.0
   38427121 9000.0  180.0 0.2305 0.2783   70.5 2000.0 1994.0   15.0
   38428123 9240.0  240.0 0.2367 0.3711   53.3 2000.0 1995.0   15.0
   38429125 8160.0  240.0  0.209 0.3711   47.7 2000.0 1995.0   15.0
   38430127 8280.0  240.0 0.2121 0.3711   48.3 2000.0 1995.0   15.0
   38431127 9360.0   60.0 0.2397 0.0928  199.6 2000.0 1995.0   15.0
   38432126 8580.0  300.0 0.2198 0.4638   40.9 2000.0 1995.0   15.0
   38433127 7920.0  180.0 0.2029 0.2783   60.1 2000.0 1995.0   15.0
   38434129 8700.0   60.0 0.2228 0.0928  185.9 2000.0 1995.0   15.0
   38435129 9180.0  420.0 0.2351 0.6494   32.5 2000.0 1995.0   15.0
   38436130 7800.0  240.0 0.1998 0.3711   45.8 2000.0 1995.0   15.0
   38437131 9000.0   60.0 0.2305 0.0928  192.1 2000.0 1995.0   15.0
   38438132 8880.0  180.0 0.2274 0.2783   66.7 2000.0 1995.0   15.0
   38439133 8400.0  120.0 0.2152 0.1855   92.5 2000.0 1995.0   15.0
   38440134 7560.0  120.0 0.1936 0.1855   83.8 2000.0 1995.0   15.0
   38441134 10320.0    0.0 0.2643    0.0    5.3 2000.0 1995.0   15.0
   38442136 7620.0  120.0 0.1952 0.1855   84.4 2000.0 1994.0   15.0
   38443136 8520.0  300.0 0.2182 0.4638   40.7 2000.0 1994.0   15.0
   38444137 9180.0  180.0 0.2351 0.2783   68.8 2000.0 1995.0   15.0
   38445137 9600.0  180.0 0.2459 0.2783   71.7 2000.0 1995.0   15.0
   38446139 8340.0  180.0 0.2136 0.2783   63.0 2000.0 1994.0   15.0
   38447141 9600.0  180.0 0.2459 0.2783   71.7 2000.0 1995.0   15.0
   38448141 8400.0  180.0 0.2152 0.2783   63.4 2000.0 1995.0   15.0
   38449142 8640.0   60.0 0.2213 0.0928  184.7 2000.0 1995.0   15.0
   38450143 8340.0  180.0 0.2136 0.2783   63.0 2000.0 1994.0   15.0
   38451143 9960.0   60.0 0.2551 0.0928  212.1 2000.0 1994.0   15.0
   38452145 7680.0   60.0 0.1967 0.0928  164.7 2000.0 1994.0   15.0
   38453147 8220.0  120.0 0.2105 0.1855   90.6 2000.0 1995.0   15.0
   38454148 8520.0  120.0 0.2182 0.1855   93.7 2000.0 1995.0   15.0
   38455149 8940.0  180.0  0.229 0.2783   67.2 2000.0 1995.0   15.0
   38456151 7920.0  180.0 0.2029 0.2783   60.1 2000.0 1995.0   15.0
   38457151 8460.0  120.0 0.2167 0.1855   93.1 2000.0 1994.0   15.0
   38458152 8460.0  300.0 0.2167 0.4638   40.4 2000.0 1994.0   15.0
   38459153 9120.0  240.0 0.2336 0.3711   52.6 2000.0 1995.0   15.0
   38460154 9360.0  120.0 0.2397 0.1855  102.5 2000.0 1995.0   15.0
   38461155 7500.0    0.0 0.1921    0.0    5.3 2000.0 1995.0   15.0
   38462157 7980.0   60.0 0.2044 0.0928  171.0 2000.0 1995.0   15.0
   38463157 7380.0  300.0  0.189 0.4638   35.9 2000.0 1995.0   15.0
   38464159 9000.0   60.0 0.2305 0.0928  192.1 2000.0 1995.0   15.0
   38465159 7080.0  240.0 0.1813 0.3711   42.0 2000.0 1995.0   15.0
   38466160 8760.0  300.0 0.2244 0.4638   41.7 2000.0 1995.0   15.0
   38467161 9120.0  120.0 0.2336 0.1855  100.0 2000.0 1995.0   15.0
   38468162 8460.0  120.0 0.2167 0.1855   93.1 2000.0 1994.0   15.0
   38469164 10440.0  300.0 0.2674 0.4638   48.6 2000.0 1994.0   15.0
   38470164 9900.0  120.0 0.2536 0.1855  108.1 2000.0 1995.0   15.0
   38471164 8340.0  120.0 0.2136 0.1855   91.9 2000.0 1994.0   15.0
   38472165 9120.0  300.0 0.2336 0.4638   43.2 2000.0 1995.0   15.0
   38473168 8520.0  300.0 0.2182 0.4638   40.7 2000.0 1995.0   15.0
   38474169 7500.0   60.0 0.1921 0.0928  161.0 2000.0 1995.0   15.0
   38475169 9540.0  240.0 0.2444 0.3711   54.8 2000.0 1995.0   15.0
   38476170 8700.0  180.0 0.2228 0.2783   68.4 2000.0 1995.0   15.0
   38477172 8280.0   60.0 0.2121 0.0928  177.2 2000.0 1995.0   15.0
   38478173 8700.0  120.0 0.2228 0.1855   95.6 2000.0 1994.0   15.0
   38479174 8640.0  180.0 0.2213 0.2783   65.1 2000.0 1995.0   15.0
   38480174 9540.0   60.0 0.2444 0.0928  203.3 2000.0 1995.0   15.0
   38481175 8280.0  180.0 0.2121 0.2783   62.6 2000.0 1994.0   15.0
   38482176 9060.0    0.0 0.2321    0.0    5.3 2000.0 1995.0   15.0
   38483177 7620.0  240.0 0.1952 0.3711   44.8 2000.0 1995.0   15.0
   38484180 9360.0  240.0 0.2397 0.3711   53.9 2000.0 1995.0   15.0
   38485180 8400.0   60.0 0.2152 0.0928  179.7 2000.0 1995.0   15.0
   38486179 7740.0    0.0 0.1982    0.0    5.3 2000.0 1995.0   15.0
   38487180 7980.0  180.0 0.2044 0.2783   60.5 2000.0 1995.0   15.0
   38488182 8340.0  360.0 0.2136 0.5566   34.2 2000.0 1995.0   15.0
   38489184 7860.0  240.0 0.2013 0.3711   46.1 2000.0 1994.0   15.0
   38490183 8220.0  180.0 0.2105 0.2783   62.2 2000.0 1995.0   15.0
   38491184 9300.0  120.0 0.2382 0.1855  101.8 2000.0 1995.0   15.0
   38492185 9540.0   60.0 0.2444 0.0928  203.3 2000.0 1995.0   15.0
   38493186 8340.0  120.0 0.2136 0.1855   91.9 2000.0 1995.0   15.0
   38494189 9120.0  240.0 0.2336 0.3711   52.6 2000.0 1995.0   15.0
   38495188 7860.0  180.0 0.2013 0.2783   59.7 2000.0 1995.0   15.0
   38496188 8460.0  120.0 0.2167 0.1855   93.1 2000.0 1995.0   15.0
   38497190 8040.0  120.0 0.2059 0.1855   88.8 2000.0 1995.0   15.0
   38498191 8700.0  180.0 0.2228 0.2783   65.5 2000.0 1994.0   15.0
   38499191 8160.0  240.0  0.209 0.3711   47.7 2000.0 1995.0   15.0
   38500192 8340.0  180.0 0.2136 0.2783   63.0 2000.0 1995.0   15.0
   38501193 8940.0  240.0  0.229 0.3711   51.7 2000.0 1995.0   15.0
   38502195 8340.0  180.0 0.2136 0.2783   63.0 2000.0 1995.0   15.0
   38503195 9180.0  120.0 0.2351 0.1855  100.6 2000.0 1995.0   15.0
   38504196 8100.0  240.0 0.2075 0.3711   47.3 2000.0 1995.0   15.0
   38505197 8340.0   60.0 0.2136 0.0928  178.4 2000.0 1994.0   15.0
   38506198 8400.0   60.0 0.2152 0.0928  179.7 2000.0 1995.0   15.0
   38507199 8640.0   60.0 0.2213 0.0928  184.7 2000.0 1995.0   15.0
   38508200 8220.0  180.0 0.2105 0.2783   62.2 2000.0 1995.0   15.0
   38509202 8760.0    0.0 0.2244    0.0    5.3 2000.0 1994.0   15.0
   38510202 8040.0  120.0 0.2059 0.1855   88.8 2000.0 1995.0   15.0
   38511202 7740.0  300.0 0.1982 0.4638   37.4 2000.0 1995.0   15.0
   38512205 8520.0  120.0 0.2182 0.1855   93.7 2000.0 1995.0   15.0
   38513205 8940.0  300.0  0.229 0.4638   42.4 2000.0 1995.0   15.0
   38514205 8880.0  240.0 0.2274 0.3711   51.4 2000.0 1995.0   15.0
   38515206 7860.0  180.0 0.2013 0.2783   59.7 2000.0 1995.0   15.0
   38516207 7920.0    0.0 0.2029    0.0    5.3 2000.0 1995.0   15.0
   38517208 8400.0   60.0 0.2152 0.0928  179.7 2000.0 1995.0   15.0
   38518209 9000.0    0.0 0.2305    0.0    5.3 2000.0 1994.0   15.0
   38519211 8400.0  180.0 0.2152 0.2783   63.4 2000.0 1995.0   15.0
