# 
~VERSION INFORMATION
     VERS.                              2.0:Версия формата LAS
     WRAP.                               NO:Режим одной строчки на временной отчет
~WELL INFORMATION
     STRT.ms                       33913720:Время первой записи в файле
     STOP.ms                       56658382:Время последней записи в файле
     STEP.ms                              0:Шаг времени, 0 - переменный шаг
     NULL.                          -999.25:Метка, нет значения
     DATE.                       09.10.2024:Дата каротажа
      DRV.                                 :Наименование драйвера прибора
     NAME.                          ННКТ(б):Название прибора
     SNUM.                         23613003:Серийный номер прибора
     FRMW.                        0.23.10.2:Версия прошивки на контроллере прибора
~CURVE INFORMATION
     TIME.ms                       {0,11:0}:Время, количество миллисекунд от начало суток
     NTNC.имп/мин                          :Счёт, ближний зонд ННКТ
     FTNC.у.е.                             :Счёт, дальний зонд ННКТ
     NTNL.имп/мин                          :Счёт нормированный на счёт в воде, ближний зонд ННКТ
     FTNL.у.е.                             :Счёт нормированный на счёт в воде, дальний зонд ННКТ
     TRNP.%                                :Пористость по водородосодержанию ННКТ
     UHVS.В                                :Установленное напряжение на высоковольтнике
     UHVM.В                                :Измеренное напряжение на высоковольтнике
       MT.°C                               :Температура
~OTHER INFORMATION


~A     TIME   NTNC   FTNC   NTNL   FTNL   TRNP   UHVS   UHVM     MT
# ...
   43008650 8460.0  120.0 0.2167 0.1855   93.1 2000.0 1994.0   15.0
   43009651 7800.0   60.0 0.1998 0.0928  167.2 2000.0 1994.0   15.0
   43010651 8340.0  120.0 0.2136 0.1855   91.9 2000.0 1995.0   15.0
   43011655 8340.0  360.0 0.2136 0.5566   34.2 2000.0 1995.0   15.0
   43012653 8880.0  300.0 0.2274 0.4638   42.2 2000.0 1995.0   15.0
   43013654 8400.0   60.0 0.2152 0.0928  179.7 2000.0 1995.0   15.0
   43014656 7980.0  120.0 0.2044 0.1855   88.1 2000.0 1995.0   15.0
   43015655 9120.0  360.0 0.2336 0.5566   36.9 2000.0 1995.0   15.0
   43016656 8220.0  120.0 0.2105 0.1855   90.6 2000.0 1994.0   15.0
   43017657 8880.0  180.0 0.2274 0.2783   66.7 2000.0 1995.0   15.0
   43018659 7980.0  120.0 0.2044 0.1855   88.1 2000.0 1995.0   15.0
   43019660 8220.0  120.0 0.2105 0.1855   90.6 2000.0 1995.0   15.0
   43020660 8880.0  120.0 0.2274 0.1855   97.5 2000.0 1995.0   15.0
   43021662 7560.0  300.0 0.1936 0.4638   38.2 2000.0 1994.0   15.0
   43022663 7740.0  120.0 0.1982 0.1855   85.6 2000.0 1995.0   15.0
   43023664 9360.0  240.0 0.2397 0.3711   53.9 2000.0 1994.0   15.0
   43024665 8880.0  180.0 0.2274 0.2783   66.7 2000.0 1995.0   15.0
   43025665 8160.0  120.0  0.209 0.1855   90.0 2000.0 1995.0   15.0
   43026666 9060.0  240.0 0.2321 0.3711   52.3 2000.0 1994.0   15.0
   43027668 7620.0   60.0 0.1952 0.0928  163.5 2000.0 1994.0   15.0
   43028669 8220.0  120.0 0.2105 0.1855   90.6 2000.0 1995.0   15.0
   43029670 8220.0  240.0 0.2105 0.3711   48.0 2000.0 1995.0   15.0
   43030671 8640.0  120.0 0.2213 0.1855   95.0 2000.0 1995.0   15.0
   43031672 7920.0  120.0 0.2029 0.1855   87.5 2000.0 1995.0   15.0
   43032673 7440.0   60.0 0.1906 0.0928  159.7 2000.0 1995.0   15.0
   43033673 9780.0  360.0 0.2505 0.5566   39.1 2000.0 1995.0   15.0
   43034675 7080.0  180.0 0.1813 0.2783   54.3 2000.0 1994.0   15.0
   43035675 9480.0  120.0 0.2428 0.1855  103.7 2000.0 1994.0   15.0
   43036676 8640.0   60.0 0.2213 0.0928  184.7 2000.0 1994.0   15.0
   43037678 7620.0  180.0 0.1952 0.2783   58.0 2000.0 1995.0   15.0
   43038678 8280.0  180.0 0.2121 0.2783   62.6 2000.0 1995.0   15.0
   43039680 9060.0   60.0 0.2321 0.0928  193.4 2000.0 1995.0   15.0
   43040681 10380.0  120.0 0.2659 0.1855  113.0 2000.0 1995.0   15.0
   43041682 7560.0  180.0 0.1936 0.2783   57.6 2000.0 1995.0   15.0
   43042682 7740.0  120.0 0.1982 0.1855   85.6 2000.0 1995.0   15.0
   43043685 8340.0  120.0 0.2136 0.1855   91.9 2000.0 1995.0   15.0
   43044684 9000.0  180.0 0.2305 0.2783   67.6 2000.0 1995.0   15.0
   43045685 9840.0  180.0  0.252 0.2783   73.4 2000.0 1995.0   15.0
   43046686 8760.0  120.0 0.2244 0.1855   96.2 2000.0 1995.0   15.0
   43047687 8400.0  180.0 0.2152 0.2783   63.4 2000.0 1994.0   15.0
   43048688 7380.0  180.0  0.189 0.2783   56.4 2000.0 1995.0   15.0
   43049689 8700.0   60.0 0.2228 0.0928  185.9 2000.0 1995.0   15.0
   43050690 9900.0  300.0 0.2536 0.4638   46.4 2000.0 1995.0   15.0
   43051691 7200.0   60.0 0.1844 0.0928  154.8 2000.0 1995.0   15.0
   43052693 9120.0   60.0 0.2336 0.0928  194.6 2000.0 1995.0   15.0
   43053694 8760.0  180.0 0.2244 0.2783   65.9 2000.0 1995.0   15.0
   43054695 8880.0    0.0 0.2274    0.0    5.3 2000.0 1995.0   15.0
   43055695 7380.0  240.0  0.189 0.3711   43.6 2000.0 1994.0   15.0
   43056696 9060.0   60.0 0.2321 0.0928  193.4 2000.0 1994.0   15.0
   43057697 8880.0  300.0 0.2274 0.4638   42.2 2000.0 1995.0   15.0
   43058699 7800.0  360.0 0.1998 0.5566   32.3 2000.0 1995.0   15.0
   43059699 9120.0  120.0 0.2336 0.1855  100.0 2000.0 1995.0   15.0
   43060700 7140.0  120.0 0.1829 0.1855   79.4 2000.0 1995.0   15.0
   43061704 7500.0  180.0 0.1921 0.2783   57.2 2000.0 1995.0   15.0
   43062701 8940.0    0.0  0.229    0.0    5.3 2000.0 1995.0   15.0
   43063702 7980.0  120.0 0.2044 0.1855   88.1 2000.0 1995.0   15.0
   43064703 9240.0    0.0 0.2367    0.0    5.3 2000.0 1994.0   15.0
   43065704 8400.0  240.0 0.2152 0.3711   48.9 2000.0 1995.0   15.0
   43066706 9180.0   60.0 0.2351 0.0928  195.9 2000.0 1995.0   15.0
   43067707 8040.0   60.0 0.2059 0.0928  172.2 2000.0 1994.0   15.0
   43068708 7860.0   60.0 0.2013 0.0928  168.5 2000.0 1995.0   15.0
   43069709 8340.0   60.0 0.2136 0.0928  178.4 2000.0 1994.0   15.0
   43070710 8100.0  420.0 0.2075 0.6494   29.3 2000.0 1995.0   15.0
   43071710 10020.0   60.0 0.2566 0.0928  223.3 2000.0 1995.0   15.0
   43072711 9180.0    0.0 0.2351    0.0    5.3 2000.0 1995.0   15.0
   43073712 7740.0  180.0 0.1982 0.2783   58.9 2000.0 1995.0   15.0
   43074713 7800.0  180.0 0.1998 0.2783   59.3 2000.0 1995.0   15.0
   43075714 9240.0   60.0 0.2367 0.0928  197.1 2000.0 1995.0   15.0
   43076716 8640.0  120.0 0.2213 0.1855   95.0 2000.0 1995.0   15.0
   43077717 9540.0   60.0 0.2444 0.0928  203.3 2000.0 1995.0   15.0
   43078718 9120.0  180.0 0.2336 0.2783   68.4 2000.0 1995.0   15.0
   43079719 7980.0  180.0 0.2044 0.2783   60.5 2000.0 1994.0   15.0
   43080720 8460.0    0.0 0.2167    0.0    5.3 2000.0 1995.0   15.0
   43081721 8400.0  360.0 0.2152 0.5566   34.4 2000.0 1995.0   15.0
   43082722 8940.0  120.0  0.229 0.1855   98.1 2000.0 1995.0   15.0
   43083723 7200.0  120.0 0.1844 0.1855   80.0 2000.0 1994.0   15.0
   43084724 7740.0  180.0 0.1982 0.2783   58.9 2000.0 1995.0   15.0
   43085725 8280.0  180.0 0.2121 0.2783   62.6 2000.0 1994.0   15.0
   43086727 10500.0  120.0 0.2689 0.1855  114.3 2000.0 1995.0   15.0
   43087727 8160.0   60.0  0.209 0.0928  174.7 2000.0 1994.0   15.0
   43088727 9780.0  240.0 0.2505 0.3711   56.1 2000.0 1995.0   15.0
   43089729 8580.0  240.0 0.2198 0.3711   49.8 2000.0 1995.0   15.0
   43090730 8760.0  240.0 0.2244 0.3711   50.8 2000.0 1995.0   15.0
   43091730 9120.0    0.0 0.2336    0.0    5.3 2000.0 1995.0   15.0
   43092731 9300.0  180.0 0.2382 0.2783   69.7 2000.0 1995.0   15.0
   43093732 8820.0  180.0 0.2259 0.2783   66.3 2000.0 1995.0   15.0
   43094734 8280.0   60.0 0.2121 0.0928  177.2 2000.0 1995.0   15.0
   43095735 8940.0   60.0  0.229 0.0928  190.9 2000.0 1994.0   15.0
   43096735 8340.0  120.0 0.2136 0.1855   91.9 2000.0 1995.0   15.0
   43097736 9060.0  180.0 0.2321 0.2783   68.0 2000.0 1995.0   15.0
   43098737 8460.0   60.0 0.2167 0.0928  180.9 2000.0 1994.0   15.0
   43099738 8580.0  120.0 0.2198 0.1855   94.4 2000.0 1994.0   15.0
   43100739 8220.0    0.0 0.2105    0.0    5.3 2000.0 1995.0   15.0
   43101740 8520.0  120.0 0.2182 0.1855   93.7 2000.0 1995.0   15.0
   43102741 10020.0  180.0 0.2566 0.2783   74.6 2000.0 1995.0   15.0
   43103741 7680.0  420.0 0.1967 0.6494   28.1 2000.0 1995.0   15.0
   43104742 8640.0  240.0 0.2213 0.3711   50.1 2000.0 1995.0   15.0
   43105745 8160.0  180.0  0.209 0.2783   61.8 2000.0 1995.0   15.0
   43106745 8640.0  180.0 0.2213 0.2783   65.1 2000.0 1995.0   15.0
   43107746 8520.0   60.0 0.2182 0.0928  182.2 2000.0 1994.0   15.0
   43108747 8160.0    0.0  0.209    0.0    5.3 2000.0 1994.0   15.0
   43109748 9000.0   60.0 0.2305 0.0928  192.1 2000.0 1995.0   15.0
   43110749 7560.0  120.0 0.1936 0.1855   83.8 2000.0 1995.0   15.0
   43111749 9600.0  120.0 0.2459 0.1855  104.9 2000.0 1995.0   15.0
   43112750 8220.0  240.0 0.2105 0.3711   48.0 2000.0 1995.0   15.0
   43113752 7680.0  540.0 0.1967 0.8349   23.0 2000.0 1995.0   15.0
   43114752 8820.0  120.0 0.2259 0.1855   96.8 2000.0 1995.0   15.0
   43115754 8820.0   60.0 0.2259 0.0928  188.4 2000.0 1995.0   15.0
   43116755 8940.0  180.0  0.229 0.2783   67.2 2000.0 1995.0   15.0
   43117756 10260.0  240.0 0.2628 0.3711   58.5 2000.0 1995.0   15.0
   43118758 8100.0  120.0 0.2075 0.1855   89.4 2000.0 1995.0   15.0
   43119759 8340.0   60.0 0.2136 0.0928  187.1 2000.0 1995.0   15.0
   43120761 8160.0  360.0  0.209 0.5566   33.5 2000.0 1995.0   15.0
   43121762 8880.0  180.0 0.2274 0.2783   66.7 2000.0 1995.0   15.0
   43122762 8760.0  180.0 0.2244 0.2783   65.9 2000.0 1994.0   15.0
   43123764 8520.0  240.0 0.2182 0.3711   49.5 2000.0 1995.0   15.0
   43124765 8040.0   60.0 0.2059 0.0928  172.2 2000.0 1995.0   15.0
   43125768 8340.0  120.0 0.2136 0.1855   91.9 2000.0 1995.0   15.0
