# 
~VERSION INFORMATION
     VERS.                              2.0:Версия формата LAS
     WRAP.                               NO:Режим одной строчки на временной отчет
~WELL INFORMATION
     STRT.ms                       33913720:Время первой записи в файле
     STOP.ms                       56658382:Время последней записи в файле
     STEP.ms                              0:Шаг времени, 0 - переменный шаг
     NULL.                          -999.25:Метка, нет значения
     DATE.                       09.10.2024:Дата каротажа
      DRV.                                 :Наименование драйвера прибора
     NAME.                          ННКТ(б):Название прибора
     SNUM.                         23613003:Серийный номер прибора
     FRMW.                        0.23.10.2:Версия прошивки на контроллере прибора
~CURVE INFORMATION
     TIME.ms                       {0,11:0}:Время, количество миллисекунд от начало суток
     NTNC.имп/мин                          :Счёт, ближний зонд ННКТ
     FTNC.у.е.                             :Счёт, дальний зонд ННКТ
     NTNL.имп/мин                          :Счёт нормированный на счёт в воде, ближний зонд ННКТ
     FTNL.у.е.                             :Счёт нормированный на счёт в воде, дальний зонд ННКТ
     TRNP.%                                :Пористость по водородосодержанию ННКТ
     UHVS.В                                :Установленное напряжение на высоковольтнике
     UHVM.В                                :Измеренное напряжение на высоковольтнике
       MT.°C                               :Температура
~OTHER INFORMATION


~A     TIME   NTNC   FTNC   NTNL   FTNL   TRNP   UHVS   UHVM     MT
   33913720 1620.0 2160.0 0.0415 3.3395    6.3 2000.0 1994.0   23.0
   33914719 1320.0 1560.0 0.0338 2.4119    6.4 2000.0 1994.0   23.0
   33915722 1500.0 2100.0 0.0384 3.2468    6.2 2000.0 1995.0   23.0
   33916723 1500.0 1980.0 0.0384 3.0612    6.2 2000.0 1995.0   23.0
   33917724 1200.0 2400.0 0.0307 3.7106    5.9 2000.0 1995.0   23.0
   33918726 1440.0 1620.0 0.0369 2.5046    6.4 2000.0 1995.0   23.0
   33919726  960.0 2340.0 0.0246 3.6178    5.8 2000.0 1995.0   23.0
   33920727 1440.0 1500.0 0.0369 2.3191    6.5 2000.0 1994.0   23.0
   33921729 1440.0 1920.0 0.0369 2.9685    6.2 2000.0 1994.0   23.0
   33922729 1440.0 2400.0 0.0369 3.7106    6.1 2000.0 1995.0   23.0
   33923731 1140.0 2460.0 0.0292 3.8033    5.9 2000.0 1995.0   23.0
   33924732 1500.0 1380.0 0.0384 2.1336    6.7 2000.0 1995.0   23.0
   33925733 1080.0 2460.0 0.0277 3.8033    5.9 2000.0 1995.0   23.0
   33926734 1560.0 2400.0   0.04 3.7106    6.1 2000.0 1995.0   23.0
   33927735 2040.0 2340.0 0.0523 3.6178    6.4 2000.0 1995.0   23.0
   33928736 1260.0 2160.0 0.0323 3.3395    6.0 2000.0 1995.0   23.0
   33929737 1680.0 1800.0  0.043 2.7829    6.5 2000.0 1995.0   23.0
   33930737 1140.0 2340.0 0.0292 3.6178    5.9 2000.0 1995.0   23.0
   33931739 2040.0 2100.0 0.0523 3.2468    6.5 2000.0 1995.0   23.0
   33932739  900.0 2460.0 0.0231 3.8033    5.8 2000.0 1995.0   23.0
   33933742 2100.0 2100.0 0.0538 3.2468    6.5 2000.0 1995.0   23.0
   33934744 1380.0 2580.0 0.0353 3.9889    6.0 2000.0 1994.0   23.0
   33935744 1380.0 2040.0 0.0353  3.154    6.1 2000.0 1995.0   23.0
   33936745 1620.0 1680.0 0.0415 2.5974    6.5 2000.0 1995.0   23.0
   33937745 1860.0 1920.0 0.0476 2.9685    6.5 2000.0 1995.0   23.0
   33938747 1380.0 1860.0 0.0353 2.8757    6.2 2000.0 1995.0   23.0
   33939748 1260.0 1800.0 0.0323 2.7829    6.2 2000.0 1994.0   23.0
   33940748  960.0 2160.0 0.0246 3.3395    5.9 2000.0 1995.0   23.0
   33941748 1560.0 2460.0   0.04 3.8033    6.1 2000.0 1994.0   23.0
   33942751 1140.0 1980.0 0.0292 3.0612    6.0 2000.0 1994.0   23.0
   33943752 1620.0 2280.0 0.0415  3.525    6.2 2000.0 1994.0   23.0
   33944753 1500.0 1440.0 0.0384 2.2263    6.6 2000.0 1995.0   23.0
   33945755  840.0 1800.0 0.0215 2.7829    5.9 2000.0 1995.0   23.0
   33946756 1200.0 1740.0 0.0307 2.6902    6.2 2000.0 1995.0   23.0
   33947757 1260.0 1140.0 0.0323 1.7625    6.7 2000.0 1995.0   23.0
   33948761 1620.0 2340.0 0.0415 3.6178    6.2 2000.0 1994.0   23.0
   33949759 1620.0 2640.0 0.0415 4.0816    6.1 2000.0 1995.0   23.0
   33950760 1200.0 1860.0 0.0307 2.8757    6.1 2000.0 1995.0   23.0
   33951762 1500.0 2280.0 0.0384  3.525    6.1 2000.0 1994.0   23.0
   33952764 1800.0 2100.0 0.0461 3.2468    6.4 2000.0 1995.0   23.0
   33953764 1680.0 2040.0  0.043  3.154    6.3 2000.0 1994.0   23.0
   33954765 1500.0 1860.0 0.0384 2.8757    6.3 2000.0 1994.0   23.0
   33955768 1200.0 2280.0 0.0307  3.525    6.0 2000.0 1994.0   23.0
   33956771 1200.0 2460.0 0.0307 3.8033    5.9 2000.0 1995.0   23.0
   33957769 1200.0 2460.0 0.0307 3.8033    5.9 2000.0 1994.0   23.0
   33958769 1440.0 1920.0 0.0369 2.9685    6.2 2000.0 1995.0   23.0
   33959770 1740.0 2340.0 0.0446 3.6178    6.2 2000.0 1995.0   23.0
   33960771 1380.0 2280.0 0.0353  3.525    6.1 2000.0 1994.0   23.0
   33961772 1320.0 1500.0 0.0338 2.3191    6.4 2000.0 1994.0   23.0
   33962774 1380.0 2100.0 0.0353 3.2468    6.1 2000.0 1994.0   23.0
   33963774 1440.0 2340.0 0.0369 3.6178    6.1 2000.0 1995.0   23.0
   33964775 1260.0 1740.0 0.0323 2.6902    6.2 2000.0 1995.0   24.0
   33965776 1260.0 1560.0 0.0323 2.4119    6.3 2000.0 1995.0   23.0
   33966777 1320.0 1500.0 0.0338 2.3191    6.4 2000.0 1995.0   23.0
   33967779 1740.0 2340.0 0.0446 3.6178    6.2 2000.0 1994.0   24.0
   33968779 1020.0 2340.0 0.0261 3.6178    5.8 2000.0 1995.0   23.0
   33969780 1620.0 1980.0 0.0415 3.0612    6.3 2000.0 1994.0   24.0
   33970781 1740.0 1740.0 0.0446 2.6902    6.5 2000.0 1994.0   24.0
   33971782 1560.0 1740.0   0.04 2.6902    6.4 2000.0 1995.0   24.0
   33972784 1500.0 1920.0 0.0384 2.9685    6.3 2000.0 1994.0   24.0
   33973785 1440.0 2460.0 0.0369 3.8033    6.0 2000.0 1995.0   23.0
   33974786 1560.0 1980.0   0.04 3.0612    6.3 2000.0 1995.0   24.0
   33975787 1260.0 1620.0 0.0323 2.5046    6.3 2000.0 1995.0   24.0
   33976786 1200.0 2640.0 0.0307 4.0816    5.9 2000.0 1995.0   24.0
   33977788 1080.0 1800.0 0.0277 2.7829    6.1 2000.0 1994.0   24.0
   33978788 1260.0 1800.0 0.0323 2.7829    6.2 2000.0 1994.0   24.0
   33979790 1140.0 1620.0 0.0292 2.5046    6.2 2000.0 1994.0   24.0
   33980790  780.0 1740.0   0.02 2.6902    5.9 2000.0 1995.0   24.0
   33981793 1380.0 1980.0 0.0353 3.0612    6.2 2000.0 1994.0   24.0
   33982793 1200.0 1680.0 0.0307 2.5974    6.2 2000.0 1995.0   24.0
   33983794 1620.0 1680.0 0.0415 2.5974    6.5 2000.0 1995.0   24.0
   33984796 1200.0 1800.0 0.0307 2.7829    6.1 2000.0 1995.0   24.0
   33985797 1200.0 2280.0 0.0307  3.525    6.0 2000.0 1994.0   24.0
   33986797 1320.0 2040.0 0.0338  3.154    6.1 2000.0 1995.0   24.0
   33987798 1200.0 2220.0 0.0307 3.4323    6.0 2000.0 1994.0   23.0
   33988799 1440.0 1560.0 0.0369 2.4119    6.5 2000.0 1994.0   24.0
   33989799 2220.0 2400.0 0.0569 3.7106    6.5 2000.0 1995.0   24.0
   33990802 1080.0 1980.0 0.0277 3.0612    6.0 2000.0 1994.0   24.0
   33991803 1560.0 2100.0   0.04 3.2468    6.2 2000.0 1995.0   24.0
   33992806 1680.0 1320.0  0.043 2.0408    6.9 2000.0 1994.0   24.0
   33993806  840.0 2100.0 0.0215 3.2468    5.8 2000.0 1995.0   24.0
   33994807 1740.0 2040.0 0.0446  3.154    6.4 2000.0 1994.0   24.0
   33995807 1560.0 1800.0   0.04 2.7829    6.4 2000.0 1994.0   24.0
   33996810  960.0 1920.0 0.0246 2.9685    5.9 2000.0 1994.0   24.0
   33997814 1740.0 2640.0 0.0446 4.0816    6.1 2000.0 1995.0   24.0
   33998811 1260.0 1560.0 0.0323 2.4119    6.3 2000.0 1995.0   24.0
   33999812  840.0 2100.0 0.0215 3.2468    5.8 2000.0 1995.0   24.0
   34000814 1500.0 2640.0 0.0384 4.0816    6.0 2000.0 1994.0   24.0
   34001814 1380.0 2040.0 0.0353  3.154    6.1 2000.0 1994.0   24.0
   34002817 1620.0 1680.0 0.0415 2.5974    6.5 2000.0 1995.0   24.0
   34003819 1200.0 1980.0 0.0307 3.0612    6.1 2000.0 1995.0   24.0
   34004818 1620.0 2100.0 0.0415 3.2468    6.3 2000.0 1994.0   24.0
   34005820 1320.0 2040.0 0.0338  3.154    6.1 2000.0 1995.0   24.0
   34006822 1200.0 2040.0 0.0307  3.154    6.0 2000.0 1995.0   24.0
   34007822 2340.0 1320.0 0.0599 2.0408    7.5 2000.0 1994.0   24.0
   34008824 1500.0 1860.0 0.0384 2.8757    6.3 2000.0 1994.0   24.0
   34009825 1440.0 1920.0 0.0369 2.9685    6.2 2000.0 1995.0   24.0
   34010825 1680.0 2040.0  0.043  3.154    6.3 2000.0 1995.0   24.0
   34011827 1560.0 2160.0   0.04 3.3395    6.2 2000.0 1995.0   24.0
   34012827 1320.0 2100.0 0.0338 3.2468    6.1 2000.0 1995.0   24.0
   34013828 1380.0 1740.0 0.0353 2.6902    6.3 2000.0 1995.0   24.0
   34014829 1440.0 2640.0 0.0369 4.0816    6.0 2000.0 1995.0   24.0
   34015830 1200.0 2880.0 0.0307 4.4527    5.8 2000.0 1995.0   24.0
   34016831  960.0 1920.0 0.0246 2.9685    5.9 2000.0 1995.0   24.0
   34017833 1740.0 2100.0 0.0446 3.2468    6.3 2000.0 1995.0   24.0
   34018834 1260.0 2460.0 0.0323 3.8033    5.9 2000.0 1995.0   24.0
   34019834 2100.0 1680.0 0.0538 2.5974    6.9 2000.0 1995.0   24.0
   34020835 1620.0 1920.0 0.0415 2.9685    6.4 2000.0 1994.0   24.0
   34021837 1500.0 2040.0 0.0384  3.154    6.2 2000.0 1994.0   24.0
   34022837 1440.0 1320.0 0.0369 2.0408    6.7 2000.0 1995.0   24.0
   34023837 1260.0 2880.0 0.0323 4.4527    5.8 2000.0 1995.0   24.0
   34024838 1920.0 1500.0 0.0492 2.3191    6.9 2000.0 1995.0   24.0
   34025839 1800.0 1980.0 0.0461 3.0612    6.4 2000.0 1995.0   24.0
   34026839 1320.0 1440.0 0.0338 2.2263    6.4 2000.0 1995.0   24.0
   34027841 1200.0 1560.0 0.0307 2.4119    6.3 2000.0 1995.0   24.0
   34028842 1860.0 2760.0 0.0476 4.2672    6.1 2000.0 1994.0   24.0
   34029842 1680.0 2220.0  0.043 3.4323    6.2 2000.0 1994.0   24.0
   34030844 1380.0 2220.0 0.0353 3.4323    6.1 2000.0 1994.0   24.0
