# 
~VERSION INFORMATION
     VERS.                              2.0:Версия формата LAS
     WRAP.                               NO:Режим одной строчки на временной отчет
~WELL INFORMATION
     STRT.ms                       33913720:Время первой записи в файле
     STOP.ms                       56658382:Время последней записи в файле
     STEP.ms                              0:Шаг времени, 0 - переменный шаг
     NULL.                          -999.25:Метка, нет значения
     DATE.                       09.10.2024:Дата каротажа
      DRV.                                 :Наименование драйвера прибора
     NAME.                          ННКТ(б):Название прибора
     SNUM.                         23613003:Серийный номер прибора
     FRMW.                        0.23.10.2:Версия прошивки на контроллере прибора
~CURVE INFORMATION
     TIME.ms                       {0,11:0}:Время, количество миллисекунд от начало суток
     NTNC.имп/мин                          :Счёт, ближний зонд ННКТ
     FTNC.у.е.                             :Счёт, дальний зонд ННКТ
     NTNL.имп/мин                          :Счёт нормированный на счёт в воде, ближний зонд ННКТ
     FTNL.у.е.                             :Счёт нормированный на счёт в воде, дальний зонд ННКТ
     TRNP.%                                :Пористость по водородосодержанию ННКТ
     UHVS.В                                :Установленное напряжение на высоковольтнике
     UHVM.В                                :Измеренное напряжение на высоковольтнике
       MT.°C                               :Температура
~OTHER INFORMATION


~A     TIME   NTNC   FTNC   NTNL   FTNL   TRNP   UHVS   UHVM     MT
# ...
   53521204 7620.0   60.0 0.1952 0.0928  163.5 2000.0 1994.0   16.0
   53522204 8340.0  180.0 0.2136 0.2783   63.0 2000.0 1994.0   16.0
   53523206 7440.0  180.0 0.1906 0.2783   56.8 2000.0 1995.0   16.0
   53524208 9060.0  180.0 0.2321 0.2783   68.0 2000.0 1994.0   16.0
   53525209 7920.0  180.0 0.2029 0.2783   60.1 2000.0 1995.0   16.0
   53526211 7320.0  120.0 0.1875 0.1855   81.3 2000.0 1994.0   16.0
   53527212 6960.0  180.0 0.1783 0.2783   53.5 2000.0 1994.0   16.0
   53528213 8220.0  300.0 0.2105 0.4638   39.4 2000.0 1994.0   16.0
   53529214 9060.0  120.0 0.2321 0.1855   99.3 2000.0 1994.0   16.0
   53530215 8880.0  240.0 0.2274 0.3711   51.4 2000.0 1994.0   16.0
   53531217 6660.0  180.0 0.1706 0.2783   51.4 2000.0 1994.0   16.0
   53532219 8460.0  240.0 0.2167 0.3711   49.2 2000.0 1995.0   16.0
   53533220 7680.0  180.0 0.1967 0.2783   58.4 2000.0 1994.0   16.0
   53534222 7020.0  120.0 0.1798 0.1855   78.2 2000.0 1994.0   16.0
   53535221 7920.0    0.0 0.2029    0.0    5.3 2000.0 1994.0   16.0
   53536223 8580.0  120.0 0.2198 0.1855   94.4 2000.0 1994.0   16.0
   53537222 8220.0  240.0 0.2105 0.3711   48.0 2000.0 1995.0   16.0
   53538223 7620.0  240.0 0.1952 0.3711   44.8 2000.0 1994.0   16.0
   53539225 8520.0  300.0 0.2182 0.4638   40.7 2000.0 1995.0   16.0
   53540227 8280.0  120.0 0.2121 0.1855   91.2 2000.0 1995.0   16.0
   53541227 7560.0  120.0 0.1936 0.1855   83.8 2000.0 1995.0   16.0
   53542228 8700.0  300.0 0.2228 0.4638   41.4 2000.0 1995.0   16.0
   53543230 8940.0  120.0  0.229 0.1855   98.1 2000.0 1995.0   16.0
   53544230 8100.0  180.0 0.2075 0.2783   61.4 2000.0 1994.0   16.0
   53545231 8700.0  360.0 0.2228 0.5566   35.4 2000.0 1995.0   16.0
   53546232 8640.0  120.0 0.2213 0.1855   95.0 2000.0 1995.0   16.0
   53547234 8040.0    0.0 0.2059    0.0    5.3 2000.0 1994.0   16.0
   53548234 8280.0   60.0 0.2121 0.0928  177.2 2000.0 1994.0   16.0
   53549235 7620.0  120.0 0.1952 0.1855   84.4 2000.0 1994.0   16.0
   53550237 7560.0  180.0 0.1936 0.2783   57.6 2000.0 1995.0   16.0
   53551239 8520.0  300.0 0.2182 0.4638   40.7 2000.0 1994.0   16.0
   53552239 8580.0   60.0 0.2198 0.0928  183.4 2000.0 1995.0   16.0
   53553241 8340.0  120.0 0.2136 0.1855   91.9 2000.0 1995.0   16.0
   53554242 7680.0  240.0 0.1967 0.3711   45.2 2000.0 1995.0   16.0
   53555242 7740.0  120.0 0.1982 0.1855   85.6 2000.0 1995.0   16.0
   53556244 8640.0  240.0 0.2213 0.3711   50.1 2000.0 1995.0   16.0
   53557245 8520.0  120.0 0.2182 0.1855   93.7 2000.0 1994.0   16.0
   53558245 7980.0    0.0 0.2044    0.0    5.3 2000.0 1994.0   16.0
   53559246 8160.0   60.0  0.209 0.0928  183.4 2000.0 1994.0   16.0
   53560247 9180.0    0.0 0.2351    0.0    5.3 2000.0 1994.0   16.0
   53561248 7080.0  120.0 0.1813 0.1855   78.8 2000.0 1995.0   16.0
   53562247 6720.0    0.0 0.1721    0.0    5.3 2000.0 1995.0   16.0
   53563249 8040.0    0.0 0.2059    0.0    5.3 2000.0 1995.0   16.0
   53564250 7680.0  120.0 0.1967 0.1855   85.0 2000.0 1995.0   16.0
   53565252 7920.0   60.0 0.2029 0.0928  169.7 2000.0 1995.0   16.0
   53566253 8220.0   60.0 0.2105 0.0928  175.9 2000.0 1995.0   16.0
   53567253 7620.0  240.0 0.1952 0.3711   44.8 2000.0 1994.0   16.0
   53568254 8760.0  180.0 0.2244 0.2783   65.9 2000.0 1994.0   16.0
   53569256 7560.0    0.0 0.1936    0.0    5.3 2000.0 1995.0   16.0
   53570257 9060.0    0.0 0.2321    0.0    5.3 2000.0 1994.0   16.0
   53571258 8160.0  120.0  0.209 0.1855   90.0 2000.0 1994.0   16.0
   53572261 8340.0   60.0 0.2136 0.0928  178.4 2000.0 1994.0   16.0
   53573260 6960.0    0.0 0.1783    0.0    5.3 2000.0 1994.0   16.0
   53574261 7860.0  240.0 0.2013 0.3711   46.1 2000.0 1994.0   16.0
   53575262 7440.0    0.0 0.1906    0.0    5.3 2000.0 1994.0   16.0
   53576263 7260.0   60.0  0.186 0.0928  156.0 2000.0 1994.0   16.0
   53577264 7860.0  120.0 0.2013 0.1855   86.9 2000.0 1994.0   16.0
   53578266 8880.0  180.0 0.2274 0.2783   66.7 2000.0 1994.0   16.0
   53579268 8880.0   60.0 0.2274 0.0928  189.6 2000.0 1995.0   16.0
   53580269 8760.0   60.0 0.2244 0.0928  187.1 2000.0 1995.0   16.0
   53581268 6420.0  240.0 0.1644 0.3711   38.6 2000.0 1995.0   16.0
   53582270 9540.0  120.0 0.2444 0.1855  104.3 2000.0 1995.0   16.0
   53583270 10320.0  180.0 0.2643 0.2783   76.7 2000.0 1994.0   16.0
   53584272 8460.0  120.0 0.2167 0.1855   93.1 2000.0 1994.0   16.0
   53585273 9000.0  240.0 0.2305 0.3711   52.0 2000.0 1995.0   16.0
   53586274 8820.0  240.0 0.2259 0.3711   51.1 2000.0 1995.0   16.0
   53587274 8100.0  300.0 0.2075 0.4638   38.9 2000.0 1994.0   16.0
   53588275 8820.0   60.0 0.2259 0.0928  188.4 2000.0 1994.0   16.0
   53589278 8880.0  180.0 0.2274 0.2783   66.7 2000.0 1994.0   16.0
   53590278 7920.0  480.0 0.2029 0.7421   25.9 2000.0 1994.0   16.0
   53591279 7980.0    0.0 0.2044    0.0    5.3 2000.0 1994.0   16.0
   53592281 8040.0  240.0 0.2059 0.3711   47.0 2000.0 1994.0   16.0
   53593283 8760.0  120.0 0.2244 0.1855   96.2 2000.0 1994.0   16.0
   53594284 8400.0  180.0 0.2152 0.2783   63.4 2000.0 1994.0   16.0
   53595284 8400.0  180.0 0.2152 0.2783   63.4 2000.0 1995.0   16.0
   53596286 8520.0  180.0 0.2182 0.2783   64.3 2000.0 1995.0   16.0
   53597286 8040.0  120.0 0.2059 0.1855   88.8 2000.0 1995.0   16.0
   53598287 8460.0  240.0 0.2167 0.3711   49.2 2000.0 1994.0   16.0
   53599288 9900.0    0.0 0.2536    0.0    5.3 2000.0 1995.0   16.0
   53600290 7980.0  180.0 0.2044 0.2783   60.5 2000.0 1994.0   16.0
   53601289 7680.0  120.0 0.1967 0.1855   85.0 2000.0 1994.0   16.0
   53602292 8520.0  300.0 0.2182 0.4638   40.7 2000.0 1994.0   16.0
   53603291 9180.0  120.0 0.2351 0.1855  100.6 2000.0 1994.0   16.0
   53604294 7500.0  240.0 0.1921 0.3711   44.2 2000.0 1995.0   16.0
   53605293 7500.0   60.0 0.1921 0.0928  161.0 2000.0 1995.0   16.0
   53606295 7800.0  120.0 0.1998 0.1855   90.6 2000.0 1995.0   16.0
   53607296 8760.0  240.0 0.2244 0.3711   50.8 2000.0 1994.0   16.0
   53608296 7500.0   60.0 0.1921 0.0928  161.0 2000.0 1994.0   16.0
   53609299 9540.0  120.0 0.2444 0.1855  104.3 2000.0 1994.0   16.0
   53610299 8640.0  120.0 0.2213 0.1855   95.0 2000.0 1995.0   16.0
   53611299 9960.0  180.0 0.2551 0.2783   74.2 2000.0 1995.0   16.0
   53612298 8340.0   60.0 0.2136 0.0928  178.4 2000.0 1994.0   16.0
   53613301 7080.0  120.0 0.1813 0.1855   78.8 2000.0 1995.0   16.0
   53614302 8880.0  180.0 0.2274 0.2783   66.7 2000.0 1995.0   16.0
   53615302 8880.0   60.0 0.2274 0.0928  189.6 2000.0 1994.0   16.0
   53616304 7080.0  240.0 0.1813 0.3711   42.0 2000.0 1994.0   16.0
   53617306 6060.0   60.0 0.1552 0.0928  131.1 2000.0 1995.0   16.0
   53618306 8400.0  240.0 0.2152 0.3711   48.9 2000.0 1994.0   16.0
   53619307 8760.0  240.0 0.2244 0.3711   50.8 2000.0 1994.0   16.0
   53620308 9240.0  120.0 0.2367 0.1855  101.2 2000.0 1994.0   16.0
   53621308 7620.0  120.0 0.1952 0.1855   84.4 2000.0 1994.0   16.0
   53622309 9240.0  300.0 0.2367 0.4638   43.7 2000.0 1994.0   16.0
   53623310 7140.0  240.0 0.1829 0.3711   42.4 2000.0 1995.0   16.0
   53624310 8820.0  120.0 0.2259 0.1855   96.8 2000.0 1995.0   16.0
   53625312 8460.0  120.0 0.2167 0.1855   93.1 2000.0 1994.0   16.0
   53626313 8700.0  180.0 0.2228 0.2783   65.5 2000.0 1994.0   16.0
   53627314 8040.0  180.0 0.2059 0.2783   60.9 2000.0 1994.0   16.0
   53628315 6660.0  120.0 0.1706 0.1855   74.4 2000.0 1994.0   16.0
   53629316 8040.0  120.0 0.2059 0.1855   88.8 2000.0 1994.0   16.0
   53630317 8340.0  120.0 0.2136 0.1855   91.9 2000.0 1995.0   16.0
   53631317 7080.0  180.0 0.1813 0.2783   54.3 2000.0 1995.0   16.0
   53632318 7560.0  180.0 0.1936 0.2783   57.6 2000.0 1994.0   16.0
   53633321 8580.0    0.0 0.2198    0.0    5.3 2000.0 1995.0   16.0
   53634321 8880.0  120.0 0.2274 0.1855   97.5 2000.0 1995.0   16.0
   53635322 7620.0  180.0 0.1952 0.2783   58.0 2000.0 1994.0   16.0
   53636323 7020.0  240.0 0.1798 0.3711   41.7 2000.0 1994.0   16.0
   53637324 9300.0  120.0 0.2382 0.1855  101.8 2000.0 1994.0   16.0
   53638326 8100.0  120.0 0.2075 0.1855   89.4 2000.0 1994.0   16.0
