# 
~VERSION INFORMATION
     VERS.                              2.0:Версия формата LAS
     WRAP.                               NO:Режим одной строчки на временной отчет
~WELL INFORMATION
     STRT.ms                       33913720:Время первой записи в файле
     STOP.ms                       56658382:Время последней записи в файле
     STEP.ms                              0:Шаг времени, 0 - переменный шаг
     NULL.                          -999.25:Метка, нет значения
     DATE.                       09.10.2024:Дата каротажа
      DRV.                                 :Наименование драйвера прибора
     NAME.                          ННКТ(б):Название прибора
     SNUM.                         23613003:Серийный номер прибора
     FRMW.                        0.23.10.2:Версия прошивки на контроллере прибора
~CURVE INFORMATION
     TIME.ms                       {0,11:0}:Время, количество миллисекунд от начало суток
     NTNC.имп/мин                          :Счёт, ближний зонд ННКТ
     FTNC.у.е.                             :Счёт, дальний зонд ННКТ
     NTNL.имп/мин                          :Счёт нормированный на счёт в воде, ближний зонд ННКТ
     FTNL.у.е.                             :Счёт нормированный на счёт в воде, дальний зонд ННКТ
     TRNP.%                                :Пористость по водородосодержанию ННКТ
     UHVS.В                                :Установленное напряжение на высоковольтнике
     UHVM.В                                :Измеренное напряжение на высоковольтнике
       MT.°C                               :Температура
~OTHER INFORMATION


~A     TIME   NTNC   FTNC   NTNL   FTNL   TRNP   UHVS   UHVM     MT
# ...
   44544225 8880.0  240.0 0.2274 0.3711   51.4 2000.0 1995.0   15.0
   44545227 7980.0    0.0 0.2044    0.0    5.3 2000.0 1994.0   15.0
   44546228 7980.0  180.0 0.2044 0.2783   60.5 2000.0 1995.0   15.0
   44547228 9300.0  240.0 0.2382 0.3711   53.6 2000.0 1994.0   15.0
   44548229 9120.0  120.0 0.2336 0.1855  100.0 2000.0 1995.0   15.0
   44549230 8220.0  360.0 0.2105 0.5566   33.7 2000.0 1995.0   15.0
   44550232 9780.0  120.0 0.2505 0.1855  106.8 2000.0 1995.0   15.0
   44551233 9000.0  240.0 0.2305 0.3711   52.0 2000.0 1994.0   15.0
   44552234 8940.0  180.0  0.229 0.2783   67.2 2000.0 1994.0   15.0
   44553235 9240.0   60.0 0.2367 0.0928  197.1 2000.0 1995.0   15.0
   44554237 6720.0  240.0 0.1721 0.3711   40.2 2000.0 1995.0   15.0
   44555237 8520.0  480.0 0.2182 0.7421   27.4 2000.0 1995.0   15.0
   44556239 7920.0   60.0 0.2029 0.0928  169.7 2000.0 1995.0   15.0
   44557241 9060.0  120.0 0.2321 0.1855   99.3 2000.0 1995.0   15.0
   44558241 9000.0  120.0 0.2305 0.1855   98.7 2000.0 1994.0   15.0
   44559242 9060.0  300.0 0.2321 0.4638   42.9 2000.0 1995.0   15.0
   44560243 8940.0  120.0  0.229 0.1855   98.1 2000.0 1995.0   15.0
   44561244 8520.0  180.0 0.2182 0.2783   64.3 2000.0 1995.0   15.0
   44562245 8640.0  120.0 0.2213 0.1855   95.0 2000.0 1995.0   15.0
   44563246 9840.0  120.0  0.252 0.1855  107.4 2000.0 1995.0   15.0
   44564247 7860.0  180.0 0.2013 0.2783   59.7 2000.0 1995.0   15.0
   44565247 8760.0   60.0 0.2244 0.0928  187.1 2000.0 1994.0   15.0
   44566249 7800.0  180.0 0.1998 0.2783   59.3 2000.0 1995.0   15.0
   44567250 8520.0  120.0 0.2182 0.1855   93.7 2000.0 1995.0   15.0
   44568251 8640.0   60.0 0.2213 0.0928  184.7 2000.0 1995.0   15.0
   44569252 7440.0   60.0 0.1906 0.0928  159.7 2000.0 1995.0   15.0
   44570252 7980.0    0.0 0.2044    0.0    5.3 2000.0 1995.0   15.0
   44571253 9060.0  300.0 0.2321 0.4638   42.9 2000.0 1995.0   15.0
   44572256 8280.0  180.0 0.2121 0.2783   62.6 2000.0 1995.0   15.0
   44573256 9360.0   60.0 0.2397 0.0928  199.6 2000.0 1994.0   15.0
   44574256 8820.0  180.0 0.2259 0.2783   66.3 2000.0 1994.0   15.0
   44575258 8220.0  180.0 0.2105 0.2783   62.2 2000.0 1995.0   15.0
   44576259 8280.0  120.0 0.2121 0.1855   95.6 2000.0 1995.0   15.0
   44577259 8520.0    0.0 0.2182    0.0    5.3 2000.0 1995.0   15.0
   44578261 9660.0  120.0 0.2474 0.1855  105.6 2000.0 1995.0   15.0
   44579262 8400.0  120.0 0.2152 0.1855   92.5 2000.0 1995.0   15.0
   44580263 8520.0  180.0 0.2182 0.2783   64.3 2000.0 1995.0   15.0
   44581263 9120.0  240.0 0.2336 0.3711   52.6 2000.0 1995.0   15.0
   44582264 9600.0  180.0 0.2459 0.2783   71.7 2000.0 1995.0   15.0
   44583266 7920.0   60.0 0.2029 0.0928  169.7 2000.0 1995.0   15.0
   44584266 9480.0  120.0 0.2428 0.1855  103.7 2000.0 1995.0   15.0
   44585267 6960.0   60.0 0.1783 0.0928  149.8 2000.0 1995.0   15.0
   44586269 8340.0  180.0 0.2136 0.2783   63.0 2000.0 1995.0   15.0
   44587270 9240.0    0.0 0.2367    0.0    5.3 2000.0 1995.0   15.0
   44588272 8040.0   60.0 0.2059 0.0928  172.2 2000.0 1995.0   15.0
   44589271 8340.0  120.0 0.2136 0.1855   91.9 2000.0 1995.0   15.0
   44590272 8880.0  180.0 0.2274 0.2783   66.7 2000.0 1995.0   15.0
   44591273 8640.0  240.0 0.2213 0.3711   50.1 2000.0 1995.0   15.0
   44592273 7860.0   60.0 0.2013 0.0928  168.5 2000.0 1995.0   15.0
   44593274 8940.0  300.0  0.229 0.4638   42.4 2000.0 1995.0   15.0
   44594275 9180.0  180.0 0.2351 0.2783   68.8 2000.0 1995.0   15.0
   44595276 8580.0  180.0 0.2198 0.2783   64.7 2000.0 1995.0   15.0
   44596278 9480.0   60.0 0.2428 0.0928  202.1 2000.0 1995.0   15.0
   44597279 9420.0   60.0 0.2413 0.0928  200.8 2000.0 1995.0   15.0
   44598280 8220.0  120.0 0.2105 0.1855   90.6 2000.0 1995.0   15.0
   44599281 8640.0    0.0 0.2213    0.0    5.3 2000.0 1995.0   15.0
   44600282 9300.0   60.0 0.2382 0.0928  198.4 2000.0 1995.0   15.0
   44601284 9900.0    0.0 0.2536    0.0    5.3 2000.0 1995.0   15.0
   44602284 9600.0   60.0 0.2459 0.0928  204.6 2000.0 1994.0   15.0
   44603286 9060.0   60.0 0.2321 0.0928  193.4 2000.0 1994.0   15.0
   44604286 9060.0  240.0 0.2321 0.3711   52.3 2000.0 1995.0   15.0
   44605287 10080.0    0.0 0.2582    0.0    5.3 2000.0 1995.0   15.0
   44606289 8640.0   60.0 0.2213 0.0928  184.7 2000.0 1995.0   15.0
   44607289 8760.0  180.0 0.2244 0.2783   65.9 2000.0 1995.0   15.0
   44608289 10080.0  240.0 0.2582 0.3711   57.6 2000.0 1995.0   15.0
   44609291 7080.0  120.0 0.1813 0.1855   78.8 2000.0 1995.0   15.0
   44610291 8940.0   60.0  0.229 0.0928  190.9 2000.0 1995.0   15.0
   44611292 8640.0  180.0 0.2213 0.2783   65.1 2000.0 1994.0   15.0
   44612294 8760.0  120.0 0.2244 0.1855   96.2 2000.0 1995.0   15.0
   44613294 8940.0  180.0  0.229 0.2783   67.2 2000.0 1995.0   15.0
   44614295 7260.0  420.0  0.186 0.6494   26.8 2000.0 1995.0   15.0
   44615296 8760.0   60.0 0.2244 0.0928  187.1 2000.0 1995.0   15.0
   44616297 9120.0  180.0 0.2336 0.2783   68.4 2000.0 1995.0   15.0
   44617298 9300.0   60.0 0.2382 0.0928  198.4 2000.0 1995.0   15.0
   44618299 8280.0   60.0 0.2121 0.0928  177.2 2000.0 1995.0   15.0
   44619301 8160.0  360.0  0.209 0.5566   33.5 2000.0 1995.0   15.0
   44620303 7680.0   60.0 0.1967 0.0928  164.7 2000.0 1995.0   15.0
   44621304 8220.0  120.0 0.2105 0.1855   90.6 2000.0 1995.0   15.0
   44622305 9960.0   60.0 0.2551 0.0928  212.1 2000.0 1995.0   15.0
   44623306 8700.0  120.0 0.2228 0.1855   95.6 2000.0 1994.0   15.0
   44624307 8100.0  120.0 0.2075 0.1855   89.4 2000.0 1994.0   15.0
   44625306 9000.0  300.0 0.2305 0.4638   44.7 2000.0 1994.0   15.0
   44626308 8040.0  300.0 0.2059 0.4638   38.7 2000.0 1995.0   15.0
   44627309 8400.0   60.0 0.2152 0.0928  179.7 2000.0 1995.0   15.0
   44628310 8820.0  180.0 0.2259 0.2783   66.3 2000.0 1995.0   15.0
   44629311 8880.0  120.0 0.2274 0.1855   97.5 2000.0 1995.0   15.0
   44630312 8760.0   60.0 0.2244 0.0928  187.1 2000.0 1995.0   15.0
   44631312 7320.0  120.0 0.1875 0.1855   81.3 2000.0 1995.0   15.0
   44632314 8760.0   60.0 0.2244 0.0928  187.1 2000.0 1994.0   15.0
   44633314 7320.0  180.0 0.1875 0.2783   56.0 2000.0 1995.0   15.0
   44634314 8520.0    0.0 0.2182    0.0    5.3 2000.0 1995.0   15.0
   44635316 8280.0  180.0 0.2121 0.2783   62.6 2000.0 1995.0   15.0
   44636317 9420.0    0.0 0.2413    0.0    5.3 2000.0 1995.0   15.0
   44637318 9540.0    0.0 0.2444    0.0    5.3 2000.0 1994.0   15.0
   44638318 8820.0    0.0 0.2259    0.0    5.3 2000.0 1995.0   15.0
   44639320 8820.0  180.0 0.2259 0.2783   66.3 2000.0 1995.0   15.0
   44640321 8880.0  120.0 0.2274 0.1855   97.5 2000.0 1995.0   15.0
   44641323 10140.0   60.0 0.2597 0.0928  215.8 2000.0 1995.0   15.0
   44642323 7380.0  120.0  0.189 0.1855   81.9 2000.0 1995.0   15.0
   44643325 8820.0  180.0 0.2259 0.2783   66.3 2000.0 1995.0   15.0
   44644324 7860.0  120.0 0.2013 0.1855   86.9 2000.0 1995.0   15.0
   44645325 8700.0  240.0 0.2228 0.3711   50.5 2000.0 1995.0   15.0
   44646326 7980.0  360.0 0.2044 0.5566   32.9 2000.0 1995.0   15.0
   44647327 7860.0   60.0 0.2013 0.0928  168.5 2000.0 1995.0   15.0
   44648328 7860.0  180.0 0.2013 0.2783   59.7 2000.0 1995.0   15.0
   44649329 8880.0   60.0 0.2274 0.0928  189.6 2000.0 1994.0   15.0
   44650329 8160.0  180.0  0.209 0.2783   61.8 2000.0 1995.0   15.0
   44651330 10020.0  180.0 0.2566 0.2783   74.6 2000.0 1995.0   15.0
   44652332 8760.0  240.0 0.2244 0.3711   50.8 2000.0 1995.0   15.0
   44653332 7500.0    0.0 0.1921    0.0    5.3 2000.0 1994.0   15.0
   44654334 7620.0   60.0 0.1952 0.0928  163.5 2000.0 1995.0   15.0
   44655334 7920.0    0.0 0.2029    0.0    5.3 2000.0 1995.0   15.0
   44656335 9840.0  180.0  0.252 0.2783   73.4 2000.0 1995.0   15.0
   44657336 7260.0  120.0  0.186 0.1855   80.7 2000.0 1995.0   15.0
   44658337 9120.0   60.0 0.2336 0.0928  194.6 2000.0 1994.0   15.0
   44659338 8640.0  120.0 0.2213 0.1855   95.0 2000.0 1995.0   15.0
   44660339 9540.0  180.0 0.2444 0.2783   71.3 2000.0 1994.0   15.0
   44661340 9060.0  120.0 0.2321 0.1855   99.3 2000.0 1995.0   15.0
