# 
~VERSION INFORMATION
     VERS.                              2.0:Версия формата LAS
     WRAP.                               NO:Режим одной строчки на временной отчет
~WELL INFORMATION
     STRT.ms                       33913720:Время первой записи в файле
     STOP.ms                       56658382:Время последней записи в файле
     STEP.ms                              0:Шаг времени, 0 - переменный шаг
     NULL.                          -999.25:Метка, нет значения
     DATE.                       09.10.2024:Дата каротажа
      DRV.                                 :Наименование драйвера прибора
     NAME.                          ННКТ(б):Название прибора
     SNUM.                         23613003:Серийный номер прибора
     FRMW.                        0.23.10.2:Версия прошивки на контроллере прибора
~CURVE INFORMATION
     TIME.ms                       {0,11:0}:Время, количество миллисекунд от начало суток
     NTNC.имп/мин                          :Счёт, ближний зонд ННКТ
     FTNC.у.е.                             :Счёт, дальний зонд ННКТ
     NTNL.имп/мин                          :Счёт нормированный на счёт в воде, ближний зонд ННКТ
     FTNL.у.е.                             :Счёт нормированный на счёт в воде, дальний зонд ННКТ
     TRNP.%                                :Пористость по водородосодержанию ННКТ
     UHVS.В                                :Установленное напряжение на высоковольтнике
     UHVM.В                                :Измеренное напряжение на высоковольтнике
       MT.°C                               :Температура
~OTHER INFORMATION


~A     TIME   NTNC   FTNC   NTNL   FTNL   TRNP   UHVS   UHVM     MT
# ...
   56592314 8280.0  120.0 0.2121 0.1855   91.2 2000.0 1994.0   16.0
   56593315 9480.0   60.0 0.2428 0.0928  202.1 2000.0 1995.0   16.0
   56594314 9540.0  120.0 0.2444 0.1855  104.3 2000.0 1994.0   16.0
   56595315 8340.0  180.0 0.2136 0.2783   63.0 2000.0 1994.0   16.0
   56596317 9060.0   60.0 0.2321 0.0928  193.4 2000.0 1994.0   16.0
   56597318 8340.0  180.0 0.2136 0.2783   63.0 2000.0 1995.0   16.0
   56598319 8940.0  120.0  0.229 0.1855   98.1 2000.0 1995.0   16.0
   56599320 8280.0  180.0 0.2121 0.2783   62.6 2000.0 1995.0   16.0
   56600321 7800.0  180.0 0.1998 0.2783   59.3 2000.0 1994.0   16.0
   56601321 8700.0  240.0 0.2228 0.3711   50.5 2000.0 1994.0   16.0
   56602325 7860.0   60.0 0.2013 0.0928  168.5 2000.0 1994.0   16.0
   56603324 7620.0  120.0 0.1952 0.1855   84.4 2000.0 1995.0   16.0
   56604326 9180.0   60.0 0.2351 0.0928  195.9 2000.0 1995.0   16.0
   56605328 8160.0  120.0  0.209 0.1855   90.0 2000.0 1995.0   16.0
   56606328 8340.0    0.0 0.2136    0.0    5.3 2000.0 1995.0   16.0
   56607331 9000.0  180.0 0.2305 0.2783   67.6 2000.0 1994.0   16.0
   56608330 7440.0  180.0 0.1906 0.2783   56.8 2000.0 1995.0   16.0
   56609331 8580.0   60.0 0.2198 0.0928  183.4 2000.0 1995.0   16.0
   56610333 7740.0  180.0 0.1982 0.2783   58.9 2000.0 1995.0   16.0
   56611335 7980.0  120.0 0.2044 0.1855   88.1 2000.0 1995.0   16.0
   56612337 9360.0  120.0 0.2397 0.1855  102.5 2000.0 1995.0   16.0
   56613337 8580.0  180.0 0.2198 0.2783   64.7 2000.0 1995.0   16.0
   56614337 9060.0  180.0 0.2321 0.2783   68.0 2000.0 1995.0   16.0
   56615338 8880.0  180.0 0.2274 0.2783   66.7 2000.0 1994.0   16.0
   56616340 8820.0  240.0 0.2259 0.3711   51.1 2000.0 1995.0   16.0
   56617341 8100.0  240.0 0.2075 0.3711   49.5 2000.0 1995.0   16.0
   56618342 7380.0    0.0  0.189    0.0    5.3 2000.0 1995.0   16.0
   56619343 8400.0  240.0 0.2152 0.3711   48.9 2000.0 1995.0   16.0
   56620345 9180.0  120.0 0.2351 0.1855  100.6 2000.0 1995.0   16.0
   56621346 8040.0  180.0 0.2059 0.2783   60.9 2000.0 1995.0   16.0
   56622347 8640.0  180.0 0.2213 0.2783   65.1 2000.0 1994.0   16.0
   56623348 8760.0   60.0 0.2244 0.0928  187.1 2000.0 1995.0   16.0
   56624351 8640.0  180.0 0.2213 0.2783   65.1 2000.0 1994.0   16.0
   56625350 7800.0  300.0 0.1998 0.4638   37.7 2000.0 1994.0   16.0
   56626352 8700.0    0.0 0.2228    0.0    5.3 2000.0 1995.0   16.0
   56627352 7620.0    0.0 0.1952    0.0    5.3 2000.0 1995.0   16.0
   56628353 8700.0   60.0 0.2228 0.0928  185.9 2000.0 1995.0   16.0
   56629354 8040.0  120.0 0.2059 0.1855   88.8 2000.0 1995.0   16.0
   56630355 9480.0  360.0 0.2428 0.5566   38.1 2000.0 1995.0   16.0
   56631355 7980.0  120.0 0.2044 0.1855   88.1 2000.0 1994.0   16.0
   56632356 8280.0  240.0 0.2121 0.3711   48.3 2000.0 1995.0   16.0
   56633358 9300.0   60.0 0.2382 0.0928  198.4 2000.0 1995.0   16.0
   56634360 8220.0  180.0 0.2105 0.2783   62.2 2000.0 1995.0   16.0
   56635359 9240.0   60.0 0.2367 0.0928  197.1 2000.0 1995.0   16.0
   56636362 10320.0  240.0 0.2643 0.3711   58.9 2000.0 1995.0   16.0
   56637361 8280.0  120.0 0.2121 0.1855   91.2 2000.0 1995.0   16.0
   56638363 7800.0  360.0 0.1998 0.5566   32.3 2000.0 1995.0   16.0
   56639363 7860.0  180.0 0.2013 0.2783   59.7 2000.0 1995.0   16.0
   56640364 7740.0   60.0 0.1982 0.0928  166.0 2000.0 1995.0   16.0
   56641365 9720.0  180.0  0.249 0.2783   72.6 2000.0 1995.0   16.0
   56642366 8520.0  120.0 0.2182 0.1855   93.7 2000.0 1995.0   16.0
   56643368 10980.0    0.0 0.2812    0.0    5.3 2000.0 1995.0   16.0
   56644367 7620.0  180.0 0.1952 0.2783   58.0 2000.0 1995.0   16.0
   56645369 8100.0  300.0 0.2075 0.4638   38.9 2000.0 1995.0   16.0
   56646369 8700.0  300.0 0.2228 0.4638   41.4 2000.0 1994.0   16.0
   56647371 8280.0  180.0 0.2121 0.2783   62.6 2000.0 1994.0   16.0
   56648372 8220.0  180.0 0.2105 0.2783   62.2 2000.0 1994.0   16.0
   56649372 7500.0   60.0 0.1921 0.0928  161.0 2000.0 1995.0   16.0
   56650373 8160.0    0.0  0.209    0.0    5.3 2000.0 1994.0   16.0
   56651374 8220.0  300.0 0.2105 0.4638   39.4 2000.0 1995.0   16.0
   56652376 9000.0  180.0 0.2305 0.2783   67.6 2000.0 1994.0   16.0
   56653376 7860.0  180.0 0.2013 0.2783   59.7 2000.0 1994.0   16.0
   56654377 7560.0  120.0 0.1936 0.1855   83.8 2000.0 1994.0   16.0
   56655377 8820.0  240.0 0.2259 0.3711   51.1 2000.0 1994.0   16.0
   56656379 8040.0    0.0 0.2059    0.0    5.3 2000.0 1994.0   16.0
   56657380 9120.0  180.0 0.2336 0.2783   68.4 2000.0 1995.0   16.0
   56658382 8580.0  120.0 0.2198 0.1855   94.4 2000.0 1995.0   16.0
