# 
~VERSION INFORMATION
     VERS.                              2.0:Версия формата LAS
     WRAP.                               NO:Режим одной строчки на временной отчет
~WELL INFORMATION
     STRT.ms                       33913720:Время первой записи в файле
     STOP.ms                       56658382:Время последней записи в файле
     STEP.ms                              0:Шаг времени, 0 - переменный шаг
     NULL.                          -999.25:Метка, нет значения
     DATE.                       09.10.2024:Дата каротажа
      DRV.                                 :Наименование драйвера прибора
     NAME.                          ННКТ(б):Название прибора
     SNUM.                         23613003:Серийный номер прибора
     FRMW.                        0.23.10.2:Версия прошивки на контроллере прибора
~CURVE INFORMATION
     TIME.ms                       {0,11:0}:Время, количество миллисекунд от начало суток
     NTNC.имп/мин                          :Счёт, ближний зонд ННКТ
     FTNC.у.е.                             :Счёт, дальний зонд ННКТ
     NTNL.имп/мин                          :Счёт нормированный на счёт в воде, ближний зонд ННКТ
     FTNL.у.е.                             :Счёт нормированный на счёт в воде, дальний зонд ННКТ
     TRNP.%                                :Пористость по водородосодержанию ННКТ
     UHVS.В                                :Установленное напряжение на высоковольтнике
     UHVM.В                                :Измеренное напряжение на высоковольтнике
       MT.°C                               :Температура
~OTHER INFORMATION


~A     TIME   NTNC   FTNC   NTNL   FTNL   TRNP   UHVS   UHVM     MT
# ...
   55056749 8640.0   60.0 0.2213 0.0928  184.7 2000.0 1995.0   16.0
   55057751 7500.0   60.0 0.1921 0.0928  161.0 2000.0 1994.0   16.0
   55058752 7980.0   60.0 0.2044 0.0928  171.0 2000.0 1994.0   16.0
   55059751 7080.0  180.0 0.1813 0.2783   54.3 2000.0 1994.0   16.0
   55060753 8940.0   60.0  0.229 0.0928  190.9 2000.0 1995.0   16.0
   55061753 8520.0    0.0 0.2182    0.0    5.3 2000.0 1995.0   16.0
   55062754 9420.0  120.0 0.2413 0.1855  103.1 2000.0 1994.0   16.0
   55063756 9240.0  180.0 0.2367 0.2783   69.2 2000.0 1995.0   16.0
   55064757 8880.0   60.0 0.2274 0.0928  189.6 2000.0 1994.0   16.0
   55065758 7980.0  240.0 0.2044 0.3711   46.7 2000.0 1995.0   16.0
   55066759 9720.0   60.0  0.249 0.0928  207.1 2000.0 1995.0   16.0
   55067761 6540.0  420.0 0.1675 0.6494   24.7 2000.0 1995.0   16.0
   55068761 9000.0  300.0 0.2305 0.4638   42.7 2000.0 1995.0   16.0
   55069762 7800.0  120.0 0.1998 0.1855   86.3 2000.0 1995.0   16.0
   55070764 8520.0   60.0 0.2182 0.0928  182.2 2000.0 1995.0   16.0
   55071764 8100.0   60.0 0.2075 0.0928  173.4 2000.0 1995.0   16.0
   55072764 8400.0    0.0 0.2152    0.0    5.3 2000.0 1995.0   16.0
   55073766 8340.0    0.0 0.2136    0.0    5.3 2000.0 1995.0   16.0
   55074766 7380.0  120.0  0.189 0.1855   81.9 2000.0 1995.0   16.0
   55075767 8280.0  240.0 0.2121 0.3711   48.3 2000.0 1995.0   16.0
   55076769 8100.0  360.0 0.2075 0.5566   33.3 2000.0 1995.0   16.0
   55077769 7500.0  120.0 0.1921 0.1855   83.1 2000.0 1995.0   16.0
   55078770 8880.0  120.0 0.2274 0.1855   97.5 2000.0 1995.0   16.0
   55079772 8040.0  240.0 0.2059 0.3711   47.0 2000.0 1995.0   16.0
   55080772 7680.0  180.0 0.1967 0.2783   58.4 2000.0 1995.0   16.0
   55081774 7620.0  240.0 0.1952 0.3711   44.8 2000.0 1995.0   16.0
   55082774 7980.0  120.0 0.2044 0.1855   88.1 2000.0 1995.0   16.0
   55083775 7920.0  120.0 0.2029 0.1855   87.5 2000.0 1995.0   16.0
   55084777 8700.0  120.0 0.2228 0.1855   95.6 2000.0 1995.0   16.0
   55085777 8160.0   60.0  0.209 0.0928  174.7 2000.0 1995.0   16.0
   55086778 8880.0  120.0 0.2274 0.1855   97.5 2000.0 1995.0   16.0
   55087779 7140.0  360.0 0.1829 0.5566   30.0 2000.0 1995.0   16.0
   55088779 9600.0   60.0 0.2459 0.0928  204.6 2000.0 1995.0   16.0
   55089781 8700.0  240.0 0.2228 0.3711   50.5 2000.0 1995.0   16.0
   55090781 7260.0  120.0  0.186 0.1855   80.7 2000.0 1995.0   16.0
   55091782 7260.0  120.0  0.186 0.1855   80.7 2000.0 1995.0   16.0
   55092783 8820.0   60.0 0.2259 0.0928  188.4 2000.0 1994.0   16.0
   55093784 8700.0  300.0 0.2228 0.4638   41.4 2000.0 1995.0   16.0
   55094786 8460.0  120.0 0.2167 0.1855   93.1 2000.0 1995.0   16.0
   55095786 7320.0   60.0 0.1875 0.0928  157.3 2000.0 1995.0   16.0
   55096786 7800.0  120.0 0.1998 0.1855   86.3 2000.0 1995.0   16.0
   55097788 8340.0  240.0 0.2136 0.3711   48.6 2000.0 1995.0   16.0
   55098789 8520.0  180.0 0.2182 0.2783   64.3 2000.0 1995.0   16.0
   55099791 7800.0  240.0 0.1998 0.3711   45.8 2000.0 1995.0   16.0
   55100794 8340.0   60.0 0.2136 0.0928  178.4 2000.0 1995.0   16.0
   55101794 8520.0  180.0 0.2182 0.2783   67.2 2000.0 1995.0   16.0
   55102795 7800.0  180.0 0.1998 0.2783   59.3 2000.0 1995.0   16.0
   55103795 8880.0   60.0 0.2274 0.0928  189.6 2000.0 1995.0   16.0
   55104796 8100.0  180.0 0.2075 0.2783   61.4 2000.0 1995.0   16.0
   55105797 8340.0    0.0 0.2136    0.0    5.3 2000.0 1995.0   16.0
   55106798 8460.0  180.0 0.2167 0.2783   63.8 2000.0 1995.0   16.0
   55107799 8100.0  240.0 0.2075 0.3711   47.3 2000.0 1995.0   16.0
   55108802 7560.0  180.0 0.1936 0.2783   57.6 2000.0 1995.0   16.0
   55109803 8760.0  180.0 0.2244 0.2783   65.9 2000.0 1994.0   16.0
   55110805 9120.0  180.0 0.2336 0.2783   68.4 2000.0 1994.0   16.0
   55111807 8460.0  360.0 0.2167 0.5566   34.6 2000.0 1994.0   16.0
   55112807 8760.0  120.0 0.2244 0.1855   96.2 2000.0 1994.0   16.0
   55113810 8520.0  180.0 0.2182 0.2783   64.3 2000.0 1995.0   16.0
   55114810 10140.0   60.0 0.2597 0.0928  215.8 2000.0 1995.0   16.0
   55115810 7680.0  180.0 0.1967 0.2783   58.4 2000.0 1995.0   16.0
   55116811 8460.0  120.0 0.2167 0.1855   93.1 2000.0 1995.0   16.0
   55117813 8280.0  180.0 0.2121 0.2783   62.6 2000.0 1995.0   16.0
   55118815 9180.0  120.0 0.2351 0.1855  100.6 2000.0 1995.0   16.0
   55119814 8160.0  240.0  0.209 0.3711   47.7 2000.0 1995.0   16.0
   55120815 8100.0  180.0 0.2075 0.2783   61.4 2000.0 1995.0   16.0
   55121816 8220.0  300.0 0.2105 0.4638   39.4 2000.0 1995.0   16.0
   55122817 8100.0   60.0 0.2075 0.0928  173.4 2000.0 1995.0   16.0
   55123818 8640.0  240.0 0.2213 0.3711   50.1 2000.0 1994.0   16.0
   55124820 10260.0  120.0 0.2628 0.1855  111.8 2000.0 1995.0   16.0
   55125823 8520.0  180.0 0.2182 0.2783   64.3 2000.0 1995.0   16.0
   55126822 8520.0  240.0 0.2182 0.3711   49.5 2000.0 1995.0   16.0
   55127824 8340.0  180.0 0.2136 0.2783   63.0 2000.0 1995.0   16.0
   55128824 7560.0  300.0 0.1936 0.4638   36.7 2000.0 1995.0   16.0
   55129826 7500.0  240.0 0.1921 0.3711   44.2 2000.0 1995.0   16.0
   55130829 8340.0    0.0 0.2136    0.0    5.3 2000.0 1995.0   16.0
   55131827 7380.0  120.0  0.189 0.1855   81.9 2000.0 1994.0   16.0
   55132829 9480.0   60.0 0.2428 0.0928  202.1 2000.0 1995.0   16.0
   55133829 7920.0  120.0 0.2029 0.1855   87.5 2000.0 1994.0   16.0
   55134830 7680.0  120.0 0.1967 0.1855   85.0 2000.0 1995.0   16.0
   55135830 8100.0  180.0 0.2075 0.2783   61.4 2000.0 1995.0   16.0
   55136831 8160.0  120.0  0.209 0.1855   90.0 2000.0 1995.0   16.0
   55137833 9000.0  180.0 0.2305 0.2783   67.6 2000.0 1995.0   16.0
   55138834 9000.0  300.0 0.2305 0.4638   42.7 2000.0 1994.0   16.0
   55139836 8160.0   60.0  0.209 0.0928  174.7 2000.0 1995.0   16.0
   55140836 8340.0  120.0 0.2136 0.1855   91.9 2000.0 1995.0   16.0
   55141836 8220.0  120.0 0.2105 0.1855   90.6 2000.0 1995.0   16.0
   55142837 7860.0  300.0 0.2013 0.4638   37.9 2000.0 1995.0   16.0
   55143839 7200.0    0.0 0.1844    0.0    5.3 2000.0 1995.0   16.0
   55144840 9480.0  240.0 0.2428 0.3711   54.5 2000.0 1995.0   16.0
   55145840 8520.0  120.0 0.2182 0.1855   93.7 2000.0 1995.0   16.0
   55146842 7560.0  120.0 0.1936 0.1855   87.5 2000.0 1994.0   16.0
   55147842 7260.0  180.0  0.186 0.2783   55.5 2000.0 1994.0   16.0
   55148843 8220.0  120.0 0.2105 0.1855   90.6 2000.0 1995.0   16.0
   55149843 8160.0   60.0  0.209 0.0928  174.7 2000.0 1995.0   16.0
   55150844 8400.0    0.0 0.2152    0.0    5.3 2000.0 1995.0   16.0
   55151845 8220.0  180.0 0.2105 0.2783   62.2 2000.0 1994.0   16.0
   55152846 8520.0    0.0 0.2182    0.0    5.3 2000.0 1995.0   16.0
   55153848 6900.0    0.0 0.1767    0.0    5.3 2000.0 1994.0   16.0
   55154848 7440.0  240.0 0.1906 0.3711   43.9 2000.0 1995.0   16.0
   55155849 9240.0  180.0 0.2367 0.2783   69.2 2000.0 1995.0   16.0
   55156849 8640.0  180.0 0.2213 0.2783   65.1 2000.0 1994.0   16.0
   55157851 8640.0  120.0 0.2213 0.1855   95.0 2000.0 1995.0   16.0
   55158852 9180.0   60.0 0.2351 0.0928  195.9 2000.0 1994.0   16.0
   55159853 9420.0    0.0 0.2413    0.0    5.3 2000.0 1995.0   16.0
   55160854 7920.0   60.0 0.2029 0.0928  169.7 2000.0 1995.0   16.0
   55161856 8220.0  120.0 0.2105 0.1855   90.6 2000.0 1995.0   16.0
   55162856 8880.0   60.0 0.2274 0.0928  189.6 2000.0 1995.0   16.0
   55163856 8460.0  120.0 0.2167 0.1855   93.1 2000.0 1995.0   16.0
   55164857 8160.0   60.0  0.209 0.0928  174.7 2000.0 1995.0   16.0
   55165857 8400.0  240.0 0.2152 0.3711   48.9 2000.0 1994.0   16.0
   55166858 7020.0   60.0 0.1798 0.0928  151.0 2000.0 1995.0   16.0
   55167859 8280.0  240.0 0.2121 0.3711   48.3 2000.0 1994.0   16.0
   55168860 8640.0  120.0 0.2213 0.1855   95.0 2000.0 1994.0   16.0
   55169863 8460.0  180.0 0.2167 0.2783   63.8 2000.0 1994.0   16.0
   55170862 8460.0  240.0 0.2167 0.3711   49.2 2000.0 1994.0   16.0
   55171863 9060.0  240.0 0.2321 0.3711   52.3 2000.0 1994.0   16.0
   55172863 8820.0  300.0 0.2259 0.4638   41.9 2000.0 1994.0   16.0
   55173865 8880.0  120.0 0.2274 0.1855   97.5 2000.0 1995.0   16.0
