# 
~VERSION INFORMATION
     VERS.                              2.0:Версия формата LAS
     WRAP.                               NO:Режим одной строчки на временной отчет
~WELL INFORMATION
     STRT.ms                       33913720:Время первой записи в файле
     STOP.ms                       56658382:Время последней записи в файле
     STEP.ms                              0:Шаг времени, 0 - переменный шаг
     NULL.                          -999.25:Метка, нет значения
     DATE.                       09.10.2024:Дата каротажа
      DRV.                                 :Наименование драйвера прибора
     NAME.                          ННКТ(б):Название прибора
     SNUM.                         23613003:Серийный номер прибора
     FRMW.                        0.23.10.2:Версия прошивки на контроллере прибора
~CURVE INFORMATION
     TIME.ms                       {0,11:0}:Время, количество миллисекунд от начало суток
     NTNC.имп/мин                          :Счёт, ближний зонд ННКТ
     FTNC.у.е.                             :Счёт, дальний зонд ННКТ
     NTNL.имп/мин                          :Счёт нормированный на счёт в воде, ближний зонд ННКТ
     FTNL.у.е.                             :Счёт нормированный на счёт в воде, дальний зонд ННКТ
     TRNP.%                                :Пористость по водородосодержанию ННКТ
     UHVS.В                                :Установленное напряжение на высоковольтнике
     UHVM.В                                :Измеренное напряжение на высоковольтнике
       MT.°C                               :Температура
~OTHER INFORMATION


~A     TIME   NTNC   FTNC   NTNL   FTNL   TRNP   UHVS   UHVM     MT
# ...
   36984799 8220.0  180.0 0.2105 0.2783   62.2 2000.0 1994.0   15.0
   36985801 7800.0  120.0 0.1998 0.1855   86.3 2000.0 1995.0   15.0
   36986800 8460.0   60.0 0.2167 0.0928  180.9 2000.0 1994.0   15.0
   36987803 6840.0   60.0 0.1752 0.0928  147.3 2000.0 1994.0   15.0
   36988803 9660.0  240.0 0.2474 0.3711   55.4 2000.0 1995.0   15.0
   36989803 7860.0  120.0 0.2013 0.1855   86.9 2000.0 1995.0   15.0
   36990806 8400.0   60.0 0.2152 0.0928  179.7 2000.0 1995.0   15.0
   36991806 8460.0  180.0 0.2167 0.2783   63.8 2000.0 1995.0   15.0
   36992807 9300.0    0.0 0.2382    0.0    5.3 2000.0 1994.0   15.0
   36993808 8700.0  180.0 0.2228 0.2783   65.5 2000.0 1995.0   15.0
   36994807 8220.0  180.0 0.2105 0.2783   62.2 2000.0 1995.0   15.0
   36995807 8940.0   60.0  0.229 0.0928  190.9 2000.0 1995.0   15.0
   36996810 8760.0  180.0 0.2244 0.2783   65.9 2000.0 1994.0   15.0
   36997810 8520.0   60.0 0.2182 0.0928  182.2 2000.0 1994.0   15.0
   36998811 9060.0  120.0 0.2321 0.1855   99.3 2000.0 1995.0   15.0
   36999813 8880.0  120.0 0.2274 0.1855   97.5 2000.0 1994.0   15.0
   37000814 8160.0  120.0  0.209 0.1855   90.0 2000.0 1995.0   15.0
   37001816 9240.0  180.0 0.2367 0.2783   69.2 2000.0 1994.0   15.0
   37002817 9300.0   60.0 0.2382 0.0928  198.4 2000.0 1995.0   15.0
   37003817 7620.0  180.0 0.1952 0.2783   58.0 2000.0 1995.0   15.0
   37004819 8880.0  120.0 0.2274 0.1855   97.5 2000.0 1994.0   15.0
   37005820 7740.0  180.0 0.1982 0.2783   58.9 2000.0 1995.0   15.0
   37006822 8220.0  300.0 0.2105 0.4638   39.4 2000.0 1995.0   15.0
   37007823 8820.0  120.0 0.2259 0.1855  101.2 2000.0 1995.0   15.0
   37008824 8640.0  300.0 0.2213 0.4638   41.2 2000.0 1994.0   15.0
   37009824 9420.0  240.0 0.2413 0.3711   54.2 2000.0 1994.0   15.0
   37010825 9240.0  180.0 0.2367 0.2783   69.2 2000.0 1994.0   15.0
   37011826 8700.0  240.0 0.2228 0.3711   50.5 2000.0 1994.0   15.0
   37012827 8640.0  120.0 0.2213 0.1855   95.0 2000.0 1995.0   15.0
   37013828 8100.0  120.0 0.2075 0.1855   89.4 2000.0 1995.0   15.0
   37014829 8640.0    0.0 0.2213    0.0    5.3 2000.0 1995.0   15.0
   37015830 9540.0  240.0 0.2444 0.3711   54.8 2000.0 1994.0   15.0
   37016830 8640.0  120.0 0.2213 0.1855   95.0 2000.0 1994.0   15.0
   37017832 7980.0  120.0 0.2044 0.1855   88.1 2000.0 1995.0   15.0
   37018833 8820.0   60.0 0.2259 0.0928  188.4 2000.0 1994.0   15.0
   37019834 7380.0  120.0  0.189 0.1855   81.9 2000.0 1995.0   15.0
   37020836 6780.0   60.0 0.1737 0.0928  146.0 2000.0 1995.0   15.0
   37021836 8520.0   60.0 0.2182 0.0928  182.2 2000.0 1995.0   15.0
   37022838 9840.0   60.0  0.252 0.0928  209.6 2000.0 1994.0   15.0
   37023838 8220.0   60.0 0.2105 0.0928  175.9 2000.0 1994.0   15.0
   37024839 7740.0   60.0 0.1982 0.0928  166.0 2000.0 1995.0   15.0
   37025840 7800.0  180.0 0.1998 0.2783   59.3 2000.0 1995.0   15.0
   37026840 7620.0  120.0 0.1952 0.1855   84.4 2000.0 1995.0   15.0
   37027841 8700.0  120.0 0.2228 0.1855   95.6 2000.0 1994.0   15.0
   37028842 8100.0  240.0 0.2075 0.3711   47.3 2000.0 1995.0   15.0
   37029845 9000.0  180.0 0.2305 0.2783   67.6 2000.0 1994.0   15.0
   37030846 7980.0   60.0 0.2044 0.0928  171.0 2000.0 1995.0   15.0
   37031847 8340.0  120.0 0.2136 0.1855   91.9 2000.0 1995.0   15.0
   37032847 8460.0  180.0 0.2167 0.2783   63.8 2000.0 1995.0   15.0
   37033849 9540.0  120.0 0.2444 0.1855  104.3 2000.0 1994.0   15.0
   37034849 8040.0  120.0 0.2059 0.1855   88.8 2000.0 1995.0   15.0
   37035851 8640.0  180.0 0.2213 0.2783   65.1 2000.0 1995.0   15.0
   37036852 7980.0   60.0 0.2044 0.0928  171.0 2000.0 1995.0   15.0
   37037853 7560.0  240.0 0.1936 0.3711   44.5 2000.0 1995.0   15.0
   37038855 9600.0   60.0 0.2459 0.0928  204.6 2000.0 1995.0   15.0
   37039855 8760.0    0.0 0.2244    0.0    5.3 2000.0 1995.0   15.0
   37040855 8460.0  180.0 0.2167 0.2783   63.8 2000.0 1994.0   15.0
   37041857 9060.0  180.0 0.2321 0.2783   68.0 2000.0 1994.0   15.0
   37042857 8280.0  180.0 0.2121 0.2783   62.6 2000.0 1994.0   15.0
   37043861 7560.0    0.0 0.1936    0.0    5.3 2000.0 1995.0   15.0
   37044859 8880.0  120.0 0.2274 0.1855   97.5 2000.0 1995.0   15.0
   37045861 8760.0  120.0 0.2244 0.1855   96.2 2000.0 1994.0   15.0
   37046862 9420.0  180.0 0.2413 0.2783   70.5 2000.0 1995.0   15.0
   37047861 7860.0  180.0 0.2013 0.2783   59.7 2000.0 1995.0   15.0
   37048862 8220.0  240.0 0.2105 0.3711   48.0 2000.0 1995.0   15.0
   37049863 8160.0    0.0  0.209    0.0    5.3 2000.0 1995.0   15.0
   37050866 8880.0  120.0 0.2274 0.1855   97.5 2000.0 1995.0   15.0
   37051866 8160.0   60.0  0.209 0.0928  174.7 2000.0 1995.0   15.0
   37052866 8580.0  180.0 0.2198 0.2783   64.7 2000.0 1995.0   15.0
   37053867 8220.0   60.0 0.2105 0.0928  175.9 2000.0 1995.0   15.0
   37054868 8820.0   60.0 0.2259 0.0928  188.4 2000.0 1995.0   15.0
   37055870 8280.0  180.0 0.2121 0.2783   62.6 2000.0 1995.0   15.0
   37056871 10560.0  120.0 0.2705 0.1855  114.9 2000.0 1995.0   15.0
   37057871 9840.0  120.0  0.252 0.1855  107.4 2000.0 1995.0   15.0
   37058871 7800.0  240.0 0.1998 0.3711   47.7 2000.0 1994.0   15.0
   37059873 8280.0  180.0 0.2121 0.2783   62.6 2000.0 1994.0   15.0
   37060874 9300.0  120.0 0.2382 0.1855  101.8 2000.0 1994.0   15.0
   37061875 8100.0    0.0 0.2075    0.0    5.3 2000.0 1995.0   15.0
   37062877 8820.0  300.0 0.2259 0.4638   41.9 2000.0 1995.0   15.0
   37063877 8460.0  120.0 0.2167 0.1855   93.1 2000.0 1995.0   15.0
   37064877 8160.0  120.0  0.209 0.1855   90.0 2000.0 1995.0   15.0
   37065878 8340.0  120.0 0.2136 0.1855   91.9 2000.0 1995.0   15.0
   37066880 8100.0  180.0 0.2075 0.2783   61.4 2000.0 1995.0   15.0
   37067880 8280.0   60.0 0.2121 0.0928  177.2 2000.0 1994.0   15.0
   37068881 9240.0  120.0 0.2367 0.1855  101.2 2000.0 1995.0   15.0
   37069883 9900.0  120.0 0.2536 0.1855  108.1 2000.0 1995.0   15.0
   37070883 8700.0  180.0 0.2228 0.2783   65.5 2000.0 1994.0   15.0
   37071883 6960.0  180.0 0.1783 0.2783   53.5 2000.0 1995.0   15.0
   37072884 9300.0    0.0 0.2382    0.0    5.3 2000.0 1995.0   15.0
   37073885 8100.0  120.0 0.2075 0.1855   89.4 2000.0 1995.0   15.0
   37074886 9420.0    0.0 0.2413    0.0    5.3 2000.0 1994.0   15.0
   37075887 8520.0   60.0 0.2182 0.0928  182.2 2000.0 1994.0   15.0
   37076889 9180.0   60.0 0.2351 0.0928  195.9 2000.0 1995.0   15.0
   37077889 8820.0  120.0 0.2259 0.1855   96.8 2000.0 1994.0   15.0
   37078890 8820.0  180.0 0.2259 0.2783   66.3 2000.0 1995.0   15.0
   37079889 8640.0  240.0 0.2213 0.3711   50.1 2000.0 1994.0   15.0
   37080891 8820.0  180.0 0.2259 0.2783   66.3 2000.0 1995.0   15.0
   37081891 9360.0  300.0 0.2397 0.4638   44.2 2000.0 1995.0   15.0
   37082893 9000.0  180.0 0.2305 0.2783   67.6 2000.0 1995.0   15.0
   37083894 8580.0  120.0 0.2198 0.1855   94.4 2000.0 1995.0   15.0
   37084896 8220.0  180.0 0.2105 0.2783   62.2 2000.0 1994.0   15.0
   37085898 8640.0   60.0 0.2213 0.0928  184.7 2000.0 1994.0   15.0
   37086899 8160.0  120.0  0.209 0.1855   90.0 2000.0 1995.0   15.0
   37087900 9240.0  180.0 0.2367 0.2783   69.2 2000.0 1994.0   15.0
   37088900 9240.0  180.0 0.2367 0.2783   69.2 2000.0 1995.0   15.0
   37089901 9600.0  420.0 0.2459 0.6494   33.8 2000.0 1995.0   15.0
   37090903 9000.0  240.0 0.2305 0.3711   52.0 2000.0 1995.0   15.0
   37091903 8100.0  180.0 0.2075 0.2783   61.4 2000.0 1995.0   15.0
   37092904 9540.0  120.0 0.2444 0.1855  104.3 2000.0 1995.0   15.0
   37093905 9000.0   60.0 0.2305 0.0928  192.1 2000.0 1995.0   15.0
   37094906 9060.0  120.0 0.2321 0.1855   99.3 2000.0 1995.0   15.0
   37095907 9000.0  300.0 0.2305 0.4638   42.7 2000.0 1994.0   15.0
   37096908 8280.0  240.0 0.2121 0.3711   48.3 2000.0 1994.0   15.0
   37097910 8880.0  240.0 0.2274 0.3711   51.4 2000.0 1995.0   15.0
   37098910 8160.0  180.0  0.209 0.2783   61.8 2000.0 1994.0   15.0
   37099911 8340.0   60.0 0.2136 0.0928  178.4 2000.0 1995.0   15.0
   37100912 8160.0  300.0  0.209 0.4638   39.2 2000.0 1995.0   15.0
   37101913 9540.0  180.0 0.2444 0.2783   71.3 2000.0 1994.0   15.0
