# 
~VERSION INFORMATION
     VERS.                              2.0:Версия формата LAS
     WRAP.                               NO:Режим одной строчки на временной отчет
~WELL INFORMATION
     STRT.ms                       33913720:Время первой записи в файле
     STOP.ms                       56658382:Время последней записи в файле
     STEP.ms                              0:Шаг времени, 0 - переменный шаг
     NULL.                          -999.25:Метка, нет значения
     DATE.                       09.10.2024:Дата каротажа
      DRV.                                 :Наименование драйвера прибора
     NAME.                          ННКТ(б):Название прибора
     SNUM.                         23613003:Серийный номер прибора
     FRMW.                        0.23.10.2:Версия прошивки на контроллере прибора
~CURVE INFORMATION
     TIME.ms                       {0,11:0}:Время, количество миллисекунд от начало суток
     NTNC.имп/мин                          :Счёт, ближний зонд ННКТ
     FTNC.у.е.                             :Счёт, дальний зонд ННКТ
     NTNL.имп/мин                          :Счёт нормированный на счёт в воде, ближний зонд ННКТ
     FTNL.у.е.                             :Счёт нормированный на счёт в воде, дальний зонд ННКТ
     TRNP.%                                :Пористость по водородосодержанию ННКТ
     UHVS.В                                :Установленное напряжение на высоковольтнике
     UHVM.В                                :Измеренное напряжение на высоковольтнике
       MT.°C                               :Температура
~OTHER INFORMATION


~A     TIME   NTNC   FTNC   NTNL   FTNL   TRNP   UHVS   UHVM     MT
# ...
   52103841 8580.0  240.0 0.2198 0.3711   49.8 2000.0 1995.0   15.0
   52104840 8340.0  300.0 0.2136 0.4638   39.9 2000.0 1994.0   15.0
   52105843 9060.0  240.0 0.2321 0.3711   52.3 2000.0 1994.0   15.0
   52106843 5580.0  180.0 0.1429 0.2783   43.9 2000.0 1994.0   15.0
   52107844 6720.0   60.0 0.1721 0.0928  144.8 2000.0 1994.0   15.0
   52108845 7620.0  120.0 0.1952 0.1855   84.4 2000.0 1994.0   15.0
   52109846 7020.0  240.0 0.1798 0.3711   43.6 2000.0 1995.0   15.0
   52110848 7980.0   60.0 0.2044 0.0928  171.0 2000.0 1995.0   15.0
   52111847 7140.0  180.0 0.1829 0.2783   54.7 2000.0 1995.0   15.0
   52112849 9360.0  120.0 0.2397 0.1855  102.5 2000.0 1994.0   15.0
   52113849 8460.0  360.0 0.2167 0.5566   34.6 2000.0 1994.0   15.0
   52114850 8880.0  180.0 0.2274 0.2783   66.7 2000.0 1994.0   15.0
   52115852 7380.0  180.0  0.189 0.2783   56.4 2000.0 1995.0   15.0
   52116852 7440.0  180.0 0.1906 0.2783   56.8 2000.0 1995.0   15.0
   52117853 7440.0   60.0 0.1906 0.0928  159.7 2000.0 1994.0   15.0
   52118854 7920.0   60.0 0.2029 0.0928  169.7 2000.0 1994.0   15.0
   52119856 8160.0  120.0  0.209 0.1855   90.0 2000.0 1994.0   15.0
   52120856 7800.0  240.0 0.1998 0.3711   45.8 2000.0 1995.0   15.0
   52121857 7860.0  240.0 0.2013 0.3711   46.1 2000.0 1994.0   15.0
   52122857 8460.0  240.0 0.2167 0.3711   49.2 2000.0 1994.0   15.0
   52123858 8340.0  180.0 0.2136 0.2783   63.0 2000.0 1994.0   15.0
   52124860 7740.0    0.0 0.1982    0.0    5.3 2000.0 1994.0   15.0
   52125859 8100.0  240.0 0.2075 0.3711   47.3 2000.0 1994.0   15.0
   52126862 6480.0  180.0  0.166 0.2783   50.1 2000.0 1995.0   15.0
   52127862 8040.0  240.0 0.2059 0.3711   47.0 2000.0 1994.0   15.0
   52128864 8460.0  180.0 0.2167 0.2783   63.8 2000.0 1995.0   15.0
   52129863 9360.0   60.0 0.2397 0.0928  199.6 2000.0 1994.0   15.0
   52130865 7560.0   60.0 0.1936 0.0928  162.2 2000.0 1995.0   15.0
   52131864 8040.0  300.0 0.2059 0.4638   38.7 2000.0 1994.0   15.0
   52132866 8040.0  180.0 0.2059 0.2783   60.9 2000.0 1994.0   15.0
   52133867 8820.0  360.0 0.2259 0.5566   35.8 2000.0 1995.0   15.0
   52134868 7560.0  120.0 0.1936 0.1855   83.8 2000.0 1994.0   15.0
   52135869 7800.0  240.0 0.1998 0.3711   45.8 2000.0 1994.0   15.0
   52136870 8520.0  360.0 0.2182 0.5566   34.8 2000.0 1995.0   15.0
   52137871 8520.0  300.0 0.2182 0.4638   40.7 2000.0 1994.0   15.0
   52138872 8100.0  180.0 0.2075 0.2783   61.4 2000.0 1994.0   15.0
   52139874 7920.0  120.0 0.2029 0.1855   87.5 2000.0 1995.0   15.0
   52140876 7680.0   60.0 0.1967 0.0928  164.7 2000.0 1994.0   15.0
   52141875 10080.0  180.0 0.2582 0.2783   75.1 2000.0 1994.0   15.0
   52142876 7980.0   60.0 0.2044 0.0928  171.0 2000.0 1995.0   15.0
   52143877 6540.0  240.0 0.1675 0.3711   39.2 2000.0 1995.0   15.0
   52144877 8280.0    0.0 0.2121    0.0    5.3 2000.0 1994.0   15.0
   52145878 8520.0  180.0 0.2182 0.2783   64.3 2000.0 1994.0   16.0
   52146879 7740.0   60.0 0.1982 0.0928  166.0 2000.0 1994.0   15.0
   52147880 8760.0    0.0 0.2244    0.0    5.3 2000.0 1994.0   15.0
   52148881 8040.0   60.0 0.2059 0.0928  172.2 2000.0 1994.0   15.0
   52149882 8520.0  120.0 0.2182 0.1855   93.7 2000.0 1994.0   15.0
   52150883 7560.0    0.0 0.1936    0.0    5.3 2000.0 1994.0   15.0
   52151884 8580.0  300.0 0.2198 0.4638   40.9 2000.0 1994.0   15.0
   52152885 7500.0  120.0 0.1921 0.1855   83.1 2000.0 1994.0   15.0
   52153885 7080.0    0.0 0.1813    0.0    5.3 2000.0 1994.0   15.0
   52154886 7800.0  240.0 0.1998 0.3711   45.8 2000.0 1994.0   15.0
   52155886 7740.0  180.0 0.1982 0.2783   58.9 2000.0 1994.0   15.0
   52156889 8460.0  180.0 0.2167 0.2783   63.8 2000.0 1994.0   15.0
   52157889 6780.0   60.0 0.1737 0.0928  146.0 2000.0 1995.0   15.0
   52158889 9960.0  240.0 0.2551 0.3711   57.0 2000.0 1994.0   15.0
   52159892 7800.0  360.0 0.1998 0.5566   32.3 2000.0 1995.0   15.0
   52160892 8160.0  180.0  0.209 0.2783   61.8 2000.0 1994.0   15.0
   52161894 8340.0  180.0 0.2136 0.2783   63.0 2000.0 1994.0   15.0
   52162895 7920.0  540.0 0.2029 0.8349   24.5 2000.0 1995.0   15.0
   52163895 8220.0  180.0 0.2105 0.2783   62.2 2000.0 1995.0   15.0
   52164896 8340.0  420.0 0.2136 0.6494   30.0 2000.0 1994.0   15.0
   52165897 8580.0  540.0 0.2198 0.8349   25.1 2000.0 1994.0   15.0
   52166898 8880.0  120.0 0.2274 0.1855   97.5 2000.0 1995.0   15.0
   52167899 7800.0    0.0 0.1998    0.0    5.3 2000.0 1995.0   15.0
   52168901 8760.0  360.0 0.2244 0.5566   35.6 2000.0 1995.0   15.0
   52169902 7200.0   60.0 0.1844 0.0928  154.8 2000.0 1995.0   15.0
   52170902 8520.0  180.0 0.2182 0.2783   64.3 2000.0 1995.0   15.0
   52171902 6900.0    0.0 0.1767    0.0    5.3 2000.0 1995.0   15.0
   52172903 7620.0  420.0 0.1952 0.6494   27.9 2000.0 1994.0   15.0
   52173905 7440.0  480.0 0.1906 0.7421   24.6 2000.0 1994.0   15.0
   52174906 7380.0  240.0  0.189 0.3711   43.6 2000.0 1994.0   16.0
   52175907 7740.0  180.0 0.1982 0.2783   58.9 2000.0 1995.0   15.0
   52176908 7980.0    0.0 0.2044    0.0    5.3 2000.0 1995.0   15.0
   52177908 8760.0   60.0 0.2244 0.0928  187.1 2000.0 1994.0   15.0
   52178909 7560.0  180.0 0.1936 0.2783   57.6 2000.0 1995.0   15.0
   52179910 7380.0  120.0  0.189 0.1855   81.9 2000.0 1994.0   15.0
   52180912 8040.0  120.0 0.2059 0.1855   88.8 2000.0 1995.0   15.0
   52181912 8880.0  180.0 0.2274 0.2783   66.7 2000.0 1994.0   15.0
   52182912 8280.0  240.0 0.2121 0.3711   48.3 2000.0 1994.0   15.0
   52183913 7620.0  180.0 0.1952 0.2783   58.0 2000.0 1995.0   15.0
   52184913 9120.0   60.0 0.2336 0.0928  194.6 2000.0 1995.0   15.0
   52185915 8100.0   60.0 0.2075 0.0928  173.4 2000.0 1994.0   15.0
   52186915 7620.0  240.0 0.1952 0.3711   44.8 2000.0 1995.0   15.0
   52187918 8520.0  300.0 0.2182 0.4638   40.7 2000.0 1994.0   15.0
   52188918 8820.0  120.0 0.2259 0.1855   96.8 2000.0 1994.0   16.0
   52189919 8340.0   60.0 0.2136 0.0928  178.4 2000.0 1995.0   15.0
   52190922 5940.0  120.0 0.1521 0.1855   67.0 2000.0 1994.0   15.0
   52191922 7980.0   60.0 0.2044 0.0928  171.0 2000.0 1995.0   15.0
   52192923 8160.0  300.0  0.209 0.4638   39.2 2000.0 1994.0   15.0
   52193924 8640.0  120.0 0.2213 0.1855   95.0 2000.0 1995.0   15.0
   52194925 8700.0  120.0 0.2228 0.1855   95.6 2000.0 1995.0   16.0
   52195925 7680.0   60.0 0.1967 0.0928  164.7 2000.0 1994.0   15.0
   52196926 9240.0  120.0 0.2367 0.1855  101.2 2000.0 1994.0   15.0
   52197927 7260.0  240.0  0.186 0.3711   43.0 2000.0 1995.0   15.0
   52198928 7860.0    0.0 0.2013    0.0    5.3 2000.0 1994.0   16.0
   52199930 7320.0  180.0 0.1875 0.2783   56.0 2000.0 1994.0   15.0
   52200931 7440.0  240.0 0.1906 0.3711   43.9 2000.0 1994.0   15.0
   52201932 8040.0  180.0 0.2059 0.2783   60.9 2000.0 1994.0   15.0
   52202932 7560.0  300.0 0.1936 0.4638   36.7 2000.0 1994.0   16.0
   52203933 8580.0    0.0 0.2198    0.0    5.3 2000.0 1995.0   16.0
   52204935 7920.0   60.0 0.2029 0.0928  169.7 2000.0 1994.0   15.0
   52205935 7500.0   60.0 0.1921 0.0928  161.0 2000.0 1994.0   15.0
   52206935 9120.0    0.0 0.2336    0.0    5.3 2000.0 1994.0   15.0
   52207935 7800.0  120.0 0.1998 0.1855   86.3 2000.0 1994.0   15.0
   52208937 9060.0   60.0 0.2321 0.0928  193.4 2000.0 1994.0   15.0
   52209938 8280.0  300.0 0.2121 0.4638   39.7 2000.0 1994.0   15.0
   52210939 9180.0  180.0 0.2351 0.2783   68.8 2000.0 1994.0   16.0
   52211940 8280.0  180.0 0.2121 0.2783   62.6 2000.0 1994.0   15.0
   52212941 7860.0  120.0 0.2013 0.1855   86.9 2000.0 1995.0   15.0
   52213941 8820.0  120.0 0.2259 0.1855   96.8 2000.0 1994.0   15.0
   52214942 7080.0   60.0 0.1813 0.0928  159.7 2000.0 1994.0   15.0
   52215944 8400.0  240.0 0.2152 0.3711   48.9 2000.0 1994.0   15.0
   52216945 8040.0  180.0 0.2059 0.2783   60.9 2000.0 1995.0   15.0
   52217945 7500.0  120.0 0.1921 0.1855   83.1 2000.0 1994.0   15.0
   52218946 7680.0  120.0 0.1967 0.1855   85.0 2000.0 1994.0   15.0
   52219946 7980.0  180.0 0.2044 0.2783   60.5 2000.0 1994.0   15.0
   52220947 7980.0   60.0 0.2044 0.0928  171.0 2000.0 1994.0   15.0
