# 
~VERSION INFORMATION
     VERS.                              2.0:Версия формата LAS
     WRAP.                               NO:Режим одной строчки на временной отчет
~WELL INFORMATION
     STRT.ms                       57116818:Время первой записи в файле
     STOP.ms                       76626414:Время последней записи в файле
     STEP.ms                              0:Шаг времени, 0 - переменный шаг
     NULL.                          -999.25:Метка, нет значения
     DATE.                       02.10.2024:Дата каротажа
      DRV.                                 :Наименование драйвера прибора
     NAME.                          ННКТ(б):Название прибора
     SNUM.                         23613012:Серийный номер прибора
     FRMW.                        0.23.10.2:Версия прошивки на контроллере прибора
~CURVE INFORMATION
     TIME.ms                       {0,11:0}:Время, количество миллисекунд от начало суток
     NTNC.имп/мин                          :Счёт, ближний зонд ННКТ
     FTNC.у.е.                             :Счёт, дальний зонд ННКТ
     NTNL.имп/мин                          :Счёт нормированный на счёт в воде, ближний зонд ННКТ
     FTNL.у.е.                             :Счёт нормированный на счёт в воде, дальний зонд ННКТ
     TRNP.%                                :Пористость по водородосодержанию ННКТ
     UHVS.В                                :Установленное напряжение на высоковольтнике
     UHVM.В                                :Измеренное напряжение на высоковольтнике
       MT.°C                               :Температура
~OTHER INFORMATION


~A     TIME   NTNC   FTNC   NTNL   FTNL   TRNP   UHVS   UHVM     MT
# ...
   58416077  420.0  720.0 0.0117 1.2158    6.2 2000.0 1998.0   23.0
   58417077  720.0  240.0   0.02 0.4053    9.2 2000.0 1998.0   23.0
   58418078  120.0  420.0 0.0033 0.7092    5.9 2000.0 1998.0   23.0
   58419079  660.0  360.0 0.0183 0.6079    7.8 2000.0 1998.0   23.0
   58420081  480.0  960.0 0.0133 1.6211    6.1 2000.0 1998.0   23.0
   58421082  300.0  840.0 0.0083 1.4184    5.9 2000.0 1998.0   23.0
   58422082  480.0  480.0 0.0133 0.8105    6.7 2000.0 1998.0   23.0
   58423084  420.0  600.0 0.0117 1.0132    6.4 2000.0 1997.0   23.0
   58424085  960.0  600.0 0.0267 1.0132    7.5 2000.0 1998.0   23.0
   58425086  480.0  600.0 0.0133 1.0132    6.5 2000.0 1998.0   23.0
   58426087  480.0  900.0 0.0133 1.5198    6.2 2000.0 1998.0   23.0
   58427088  300.0  660.0 0.0083 1.1145    6.1 2000.0 1998.0   23.0
   58428089  600.0  540.0 0.0167 0.9119    6.9 2000.0 1998.0   23.0
   58429090  600.0  540.0 0.0167 0.9119    6.9 2000.0 1998.0   23.0
   58430091  480.0  480.0 0.0133 0.8105    6.7 2000.0 1998.0   23.0
   58431091  540.0  600.0  0.015 1.0132    6.6 2000.0 1998.0   23.0
   58432093  180.0  660.0  0.005 1.1145    5.8 2000.0 1998.0   23.0
   58433094  120.0  480.0 0.0033 0.8105    5.8 2000.0 1998.0   23.0
   58434095  600.0  900.0 0.0167 1.5198    6.3 2000.0 1998.0   23.0
   58435096  600.0  960.0 0.0167 1.6211    6.3 2000.0 1999.0   23.0
   58436098  240.0  900.0 0.0067 1.5198    5.8 2000.0 1998.0   23.0
   58437099  540.0  360.0  0.015 0.6079    7.4 2000.0 1998.0   23.0
   58438100  240.0  600.0 0.0067 1.0132    6.0 2000.0 1998.0   23.0
   58439101  840.0  660.0 0.0233 1.1145    7.1 2000.0 1998.0   23.0
   58440101  840.0  840.0 0.0233 1.4184    6.7 2000.0 1998.0   23.0
   58441103  300.0  540.0 0.0083 0.9119    6.2 2000.0 1998.0   23.0
   58442104  600.0  720.0 0.0167 1.2158    6.5 2000.0 1997.0   23.0
   58443104  360.0  660.0   0.01 1.1145    6.2 2000.0 1997.0   23.0
   58444104  840.0  900.0 0.0233 1.5198    6.7 2000.0 1998.0   23.0
   58445106  420.0  480.0 0.0117 0.8105    6.6 2000.0 1998.0   23.0
   58446106  480.0  720.0 0.0133 1.2158    6.3 2000.0 1998.0   23.0
   58447107  420.0  720.0 0.0117 1.2158    6.2 2000.0 1998.0   23.0
   58448108  660.0  540.0 0.0183 0.9119    7.0 2000.0 1998.0   23.0
   58449111  840.0  840.0 0.0233 1.4184    6.7 2000.0 1998.0   23.0
   58450111  600.0  840.0 0.0167 1.4184    6.4 2000.0 1997.0   23.0
   58451112  780.0  780.0 0.0217 1.3171    6.7 2000.0 1998.0   23.0
   58452112  660.0  480.0 0.0183 0.8105    7.2 2000.0 1998.0   23.0
   58453114  240.0  720.0 0.0067 1.2158    5.9 2000.0 1998.0   23.0
   58454115  300.0 1080.0 0.0083 1.8237    5.8 2000.0 1998.0   23.0
   58455116  420.0  360.0 0.0117 0.6079    6.9 2000.0 1998.0   23.0
   58456118  240.0  480.0 0.0067 0.8105    6.1 2000.0 1998.0   23.0
   58457117  180.0  780.0  0.005 1.3171    5.8 2000.0 1998.0   23.0
   58458119  420.0 1080.0 0.0117 1.8237    6.0 2000.0 1997.0   23.0
   58459119  840.0  480.0 0.0233 0.8105    7.7 2000.0 1997.0   23.0
   58460119  600.0  840.0 0.0167 1.4184    6.4 2000.0 1998.0   23.0
   58461120  480.0  420.0 0.0133 0.7092    6.9 2000.0 1998.0   23.0
   58462120  360.0  960.0   0.01 1.6211    6.0 2000.0 1998.0   23.0
   58463121  780.0  420.0 0.0217 0.7092    7.8 2000.0 1998.0   23.0
   58464121 1020.0  720.0 0.0283 1.2158    7.3 2000.0 1998.0   23.0
   58465122  720.0  660.0   0.02 1.1145    6.9 2000.0 1998.0   23.0
   58466124  540.0  840.0  0.015 1.4184    6.3 2000.0 1998.0   23.0
   58467125  420.0  840.0 0.0117 1.4184    6.1 2000.0 1998.0   23.0
   58468125  180.0  600.0  0.005 1.0132    5.9 2000.0 1998.0   23.0
   58469127  600.0  660.0 0.0167 1.1145    6.6 2000.0 1998.0   23.0
   58470127  300.0  660.0 0.0083 1.1145    6.1 2000.0 1998.0   23.0
   58471127  240.0  420.0 0.0067 0.7092    6.2 2000.0 1998.0   23.0
   58472128  360.0  840.0   0.01 1.4184    6.0 2000.0 1998.0   23.0
   58473128  360.0  240.0   0.01 0.4053    7.4 2000.0 1997.0   23.0
   58474129  360.0  720.0   0.01 1.2158    6.1 2000.0 1997.0   23.0
   58475130  480.0  840.0 0.0133 1.4184    6.2 2000.0 1998.0   23.0
   58476131  420.0  420.0 0.0117 0.7092    6.7 2000.0 1998.0   23.0
   58477132  540.0  660.0  0.015 1.1145    6.5 2000.0 1998.0   23.0
   58478132  540.0  300.0  0.015 0.5066    7.7 2000.0 1998.0   23.0
   58479133  720.0  660.0   0.02 1.1145    6.9 2000.0 1997.0   23.0
   58480134  540.0  780.0  0.015 1.3171    6.4 2000.0 1998.0   23.0
   58481135  420.0  720.0 0.0117 1.2158    6.2 2000.0 1997.0   23.0
   58482136  780.0  780.0 0.0217 1.3171    6.7 2000.0 1998.0   23.0
   58483137  480.0  600.0 0.0133 1.0132    6.5 2000.0 1998.0   23.0
   58484138  720.0  660.0   0.02 1.1145    6.9 2000.0 1998.0   23.0
   58485139  360.0  600.0   0.01 1.0132    6.2 2000.0 1997.0   23.0
   58486140  480.0  360.0 0.0133 0.6079    7.2 2000.0 1998.0   23.0
   58487141  300.0  720.0 0.0083 1.2158    6.0 2000.0 1998.0   23.0
   58488141  660.0  600.0 0.0183 1.0132    6.9 2000.0 1997.0   23.0
   58489142  360.0  420.0   0.01 0.7092    6.6 2000.0 1998.0   23.0
   58490144  360.0  300.0   0.01 0.5066    7.0 2000.0 1998.0   23.0
   58491145  600.0  480.0 0.0167 0.8105    7.1 2000.0 1997.0   23.0
   58492146  540.0  660.0  0.015 1.1145    6.5 2000.0 1998.0   23.0
   58493147  120.0  240.0 0.0033 0.4053    6.1 2000.0 1998.0   23.0
   58494148  540.0  960.0  0.015 1.6211    6.2 2000.0 1997.0   23.0
   58495148  480.0  360.0 0.0133 0.6079    7.2 2000.0 1998.0   23.0
   58496149  720.0  480.0   0.02 0.8105    7.4 2000.0 1998.0   23.0
   58497151  240.0  660.0 0.0067 1.1145    5.9 2000.0 1997.0   23.0
   58498152  480.0  780.0 0.0133 1.3171    6.3 2000.0 1998.0   23.0
   58499153  360.0  600.0   0.01 1.0132    6.2 2000.0 1998.0   23.0
   58500155  420.0  300.0 0.0117 0.5066    7.2 2000.0 1998.0   23.0
   58501155  420.0  720.0 0.0117 1.2158    6.2 2000.0 1998.0   23.0
   58502156  240.0  600.0 0.0067 1.0132    6.0 2000.0 1998.0   23.0
   58503157  660.0  300.0 0.0183 0.5066    8.2 2000.0 1998.0   23.0
   58504159  480.0  720.0 0.0133 1.2158    6.3 2000.0 1998.0   23.0
   58505160  300.0  540.0 0.0083 0.9119    6.2 2000.0 1998.0   23.0
   58506161  240.0  660.0 0.0067 1.1145    5.9 2000.0 1997.0   23.0
   58507162  600.0  600.0 0.0167 1.0132    6.7 2000.0 1998.0   23.0
   58508163  300.0  180.0 0.0083  0.304    7.6 2000.0 1998.0   23.0
   58509163  600.0  600.0 0.0167 1.0132    6.7 2000.0 1998.0   23.0
   58510166  600.0  540.0 0.0167 0.9119    6.9 2000.0 1998.0   23.0
   58511167  480.0  600.0 0.0133 1.0132    6.5 2000.0 1997.0   23.0
   58512169  480.0  600.0 0.0133 1.0132    6.5 2000.0 1997.0   23.0
   58513168  540.0  540.0  0.015 0.9119    6.7 2000.0 1997.0   23.0
   58514169  480.0  600.0 0.0133 1.0132    6.5 2000.0 1997.0   23.0
   58515170  540.0  720.0  0.015 1.2158    6.4 2000.0 1998.0   23.0
   58516170  420.0 1020.0 0.0117 1.7224    6.0 2000.0 1998.0   23.0
   58517171  300.0  600.0 0.0083 1.0132    6.1 2000.0 1998.0   23.0
   58518172  360.0  420.0   0.01 0.7092    6.6 2000.0 1998.0   23.0
   58519173  360.0  540.0   0.01 0.9119    6.3 2000.0 1998.0   23.0
   58520174  600.0  360.0 0.0167 0.6079    7.6 2000.0 1998.0   23.0
   58521175  120.0  540.0 0.0033 0.9119    5.8 2000.0 1998.0   23.0
   58522176  660.0  540.0 0.0183 0.9119    7.0 2000.0 1998.0   23.0
   58523177  420.0  300.0 0.0117 0.5066    7.2 2000.0 1998.0   23.0
   58524178  480.0  540.0 0.0133 0.9119    6.6 2000.0 1998.0   23.0
   58525179  600.0  240.0 0.0167 0.4053    8.6 2000.0 1998.0   23.0
   58526180  600.0  600.0 0.0167 1.0132    6.7 2000.0 1998.0   23.0
   58527181  780.0  720.0 0.0217 1.2158    6.8 2000.0 1998.0   23.0
   58528182  180.0  480.0  0.005 0.8105    6.0 2000.0 1998.0   23.0
   58529184  540.0  300.0  0.015 0.5066    7.7 2000.0 1998.0   23.0
   58530185  180.0  600.0  0.005 1.0132    5.8 2000.0 1998.0   23.0
   58531186  480.0  780.0 0.0133 1.3171    6.3 2000.0 1998.0   23.0
   58532186  540.0  720.0  0.015 1.2158    6.4 2000.0 1998.0   23.0
   58533188  660.0  420.0 0.0183 0.7092    7.4 2000.0 1998.0   23.0
