# 
~VERSION INFORMATION
     VERS.                              2.0:Версия формата LAS
     WRAP.                               NO:Режим одной строчки на временной отчет
~WELL INFORMATION
     STRT.ms                       57116818:Время первой записи в файле
     STOP.ms                       76626414:Время последней записи в файле
     STEP.ms                              0:Шаг времени, 0 - переменный шаг
     NULL.                          -999.25:Метка, нет значения
     DATE.                       02.10.2024:Дата каротажа
      DRV.                                 :Наименование драйвера прибора
     NAME.                          ННКТ(б):Название прибора
     SNUM.                         23613012:Серийный номер прибора
     FRMW.                        0.23.10.2:Версия прошивки на контроллере прибора
~CURVE INFORMATION
     TIME.ms                       {0,11:0}:Время, количество миллисекунд от начало суток
     NTNC.имп/мин                          :Счёт, ближний зонд ННКТ
     FTNC.у.е.                             :Счёт, дальний зонд ННКТ
     NTNL.имп/мин                          :Счёт нормированный на счёт в воде, ближний зонд ННКТ
     FTNL.у.е.                             :Счёт нормированный на счёт в воде, дальний зонд ННКТ
     TRNP.%                                :Пористость по водородосодержанию ННКТ
     UHVS.В                                :Установленное напряжение на высоковольтнике
     UHVM.В                                :Измеренное напряжение на высоковольтнике
       MT.°C                               :Температура
~OTHER INFORMATION


~A     TIME   NTNC   FTNC   NTNL   FTNL   TRNP   UHVS   UHVM     MT
   57116818  300.0  540.0 0.0083 0.9119    6.2 2000.0 1997.0   22.0
   57117807  180.0  360.0  0.005 0.6079    6.1 2000.0 1997.0   22.0
   57118808  240.0  600.0 0.0067 1.0132    6.0 2000.0 1998.0   22.0
   57119809  420.0  480.0 0.0117 0.8105    6.6 2000.0 1997.0   22.0
   57120809  420.0  420.0 0.0117 0.7092    6.7 2000.0 1998.0   22.0
   57121812  360.0  780.0   0.01 1.3171    6.1 2000.0 1998.0   22.0
   57122814  540.0 1140.0  0.015  1.925    6.1 2000.0 1998.0   22.0
   57123815  840.0 1380.0 0.0233 2.3303    6.3 2000.0 1998.0   22.0
   57124816  720.0 1080.0   0.02 1.8237    6.3 2000.0 1998.0   22.0
   57125818 1200.0  840.0 0.0333 1.4184    7.3 2000.0 1998.0   22.0
   57126818  480.0 1140.0 0.0133  1.925    6.0 2000.0 1998.0   22.0
   57127819  600.0 1320.0 0.0167  2.229    6.1 2000.0 1997.0   22.0
   57128819  780.0 1260.0 0.0217 2.1277    6.3 2000.0 1998.0   22.0
   57129823  660.0  960.0 0.0183 1.6211    6.4 2000.0 1998.0   22.0
   57130822 1080.0 1260.0   0.03 2.1277    6.6 2000.0 1997.0   22.0
   57131824  480.0 1080.0 0.0133 1.8237    6.0 2000.0 1998.0   22.0
   57132825  660.0 1320.0 0.0183  2.229    6.1 2000.0 1998.0   22.0
   57133826 1200.0  720.0 0.0333 1.2158    7.6 2000.0 1998.0   22.0
   57134827 1020.0  900.0 0.0283 1.5198    6.9 2000.0 1998.0   22.0
   57135828  480.0  360.0 0.0133 0.6079    7.2 2000.0 1997.0   22.0
   57136829  600.0  540.0 0.0167 0.9119    6.9 2000.0 1998.0   22.0
   57137830  480.0  120.0 0.0133 0.2026   10.5 2000.0 1998.0   22.0
   57138831  480.0  960.0 0.0133 1.6211    6.1 2000.0 1998.0   22.0
   57139832  300.0  360.0 0.0083 0.6079    6.5 2000.0 1998.0   22.0
   57140833  480.0  720.0 0.0133 1.2158    6.3 2000.0 1998.0   22.0
   57141834  360.0  420.0   0.01 0.7092    6.6 2000.0 1998.0   22.0
   57142835  480.0  840.0 0.0133 1.4184    6.2 2000.0 1998.0   22.0
   57143835  420.0  360.0 0.0117 0.6079    6.9 2000.0 1998.0   22.0
   57144836  300.0  240.0 0.0083 0.4053    7.1 2000.0 1997.0   22.0
   57145837  360.0  840.0   0.01 1.4184    6.0 2000.0 1998.0   22.0
   57146838  180.0  660.0  0.005 1.1145    5.8 2000.0 1998.0   22.0
   57147839  420.0  600.0 0.0117 1.0132    6.4 2000.0 1997.0   22.0
   57148840  480.0  360.0 0.0133 0.6079    7.2 2000.0 1998.0   22.0
   57149841  600.0  540.0 0.0167 0.9119    6.9 2000.0 1998.0   22.0
   57150842  360.0  540.0   0.01 0.9119    6.3 2000.0 1998.0   22.0
   57151843  360.0  720.0   0.01 1.2158    6.1 2000.0 1998.0   22.0
   57152844  360.0  720.0   0.01 1.2158    6.1 2000.0 1998.0   22.0
   57153845  300.0  120.0 0.0083 0.2026    8.6 2000.0 1998.0   22.0
   57154848  240.0  720.0 0.0067 1.2158    5.9 2000.0 1998.0   22.0
   57155846  480.0  660.0 0.0133 1.1145    6.4 2000.0 1998.0   22.0
   57156847  300.0  660.0 0.0083 1.1145    6.1 2000.0 1998.0   22.0
   57157848  240.0  240.0 0.0067 0.4053    6.7 2000.0 1998.0   22.0
   57158848  120.0  420.0 0.0033 0.7092    5.9 2000.0 1998.0   22.0
   57159851  300.0  240.0 0.0083 0.4053    7.1 2000.0 1998.0   22.0
   57160850  180.0  360.0  0.005 0.6079    6.1 2000.0 1998.0   22.0
   57161853  420.0  540.0 0.0117 0.9119    6.5 2000.0 1998.0   22.0
   57162854  300.0  840.0 0.0083 1.4184    5.9 2000.0 1998.0   22.0
   57163855  180.0  360.0  0.005 0.6079    6.1 2000.0 1998.0   22.0
   57164854  420.0  660.0 0.0117 1.1145    6.3 2000.0 1998.0   22.0
   57165855  120.0  720.0 0.0033 1.2158    5.7 2000.0 1998.0   22.0
   57166857  360.0  540.0   0.01 0.9119    6.3 2000.0 1998.0   22.0
   57167857  420.0  360.0 0.0117 0.6079    6.9 2000.0 1998.0   22.0
   57168858  180.0  300.0  0.005 0.5066    6.2 2000.0 1998.0   22.0
   57169859  480.0  240.0 0.0133 0.4053    8.0 2000.0 1998.0   22.0
   57170861  240.0  480.0 0.0067 0.8105    6.1 2000.0 1998.0   22.0
   57171861  540.0  480.0  0.015 0.8105    6.9 2000.0 1998.0   22.0
   57172861  240.0  780.0 0.0067 1.3171    5.9 2000.0 1998.0   22.0
   57173862  420.0  360.0 0.0117 0.6079    6.9 2000.0 1998.0   22.0
   57174862  360.0  300.0   0.01 0.5066    7.0 2000.0 1998.0   22.0
   57175864  240.0  780.0 0.0067 1.3171    5.9 2000.0 1998.0   22.0
   57176864  300.0 1020.0 0.0083 1.7224    5.9 2000.0 1998.0   22.0
   57177866  300.0  360.0 0.0083 0.6079    6.5 2000.0 1997.0   22.0
   57178867  900.0  300.0  0.025 0.5066    9.2 2000.0 1997.0   22.0
   57179868  300.0  180.0 0.0083  0.304    7.6 2000.0 1997.0   22.0
   57180867  300.0  360.0 0.0083 0.6079    6.5 2000.0 1998.0   22.0
   57181869  360.0  720.0   0.01 1.2158    6.1 2000.0 1998.0   22.0
   57182870  300.0  540.0 0.0083 0.9119    6.2 2000.0 1998.0   22.0
   57183870  480.0  600.0 0.0133 1.0132    6.5 2000.0 1998.0   22.0
   57184872  180.0  720.0  0.005 1.2158    5.8 2000.0 1998.0   22.0
   57185874  360.0  540.0   0.01 0.9119    6.3 2000.0 1998.0   22.0
   57186876  420.0  540.0 0.0117 0.9119    6.5 2000.0 1998.0   22.0
   57187876  360.0  300.0   0.01 0.5066    7.0 2000.0 1997.0   22.0
   57188877  180.0  720.0  0.005 1.2158    5.8 2000.0 1998.0   22.0
   57189878  180.0  660.0  0.005 1.1145    5.8 2000.0 1998.0   22.0
   57190879  420.0  960.0 0.0117 1.6211    6.0 2000.0 1998.0   22.0
   57191880  120.0  420.0 0.0033 0.7092    5.9 2000.0 1997.0   22.0
   57192880  180.0  540.0  0.005 0.9119    5.9 2000.0 1998.0   22.0
   57193880  480.0  480.0 0.0133 0.8105    6.7 2000.0 1998.0   22.0
   57194881  360.0  480.0   0.01 0.8105    6.4 2000.0 1997.0   22.0
   57195882  240.0  480.0 0.0067 0.8105    6.1 2000.0 1998.0   22.0
   57196883  360.0  480.0   0.01 0.8105    6.4 2000.0 1998.0   22.0
   57197884  180.0  360.0  0.005 0.6079    6.1 2000.0 1998.0   22.0
   57198886   60.0  360.0 0.0017 0.6079    5.7 2000.0 1998.0   22.0
   57199888  480.0  600.0 0.0133 1.0132    6.5 2000.0 1997.0   22.0
   57200889  360.0  540.0   0.01 0.9119    6.3 2000.0 1998.0   22.0
   57201890  420.0  660.0 0.0117 1.1145    6.3 2000.0 1997.0   22.0
   57202889  240.0  540.0 0.0067 0.9119    6.0 2000.0 1998.0   22.0
   57203891  180.0  300.0  0.005 0.5066    6.2 2000.0 1997.0   22.0
   57204892  360.0  720.0   0.01 1.2158    6.1 2000.0 1998.0   22.0
   57205892  360.0  780.0   0.01 1.3171    6.1 2000.0 1998.0   22.0
   57206894  420.0  420.0 0.0117 0.7092    6.7 2000.0 1998.0   22.0
   57207895  120.0  300.0 0.0033 0.5066    6.0 2000.0 1998.0   22.0
   57208895  240.0  420.0 0.0067 0.7092    6.2 2000.0 1998.0   22.0
   57209898  180.0  420.0  0.005 0.7092    6.0 2000.0 1998.0   22.0
   57210899  480.0  540.0 0.0133 0.9119    6.6 2000.0 1998.0   22.0
   57211900  240.0  360.0 0.0067 0.6079    6.3 2000.0 1998.0   23.0
   57212901  180.0  540.0  0.005 0.9119    5.9 2000.0 1998.0   22.0
   57213901  360.0  720.0   0.01 1.2158    6.1 2000.0 1998.0   22.0
   57214903  420.0  360.0 0.0117 0.6079    6.9 2000.0 1998.0   23.0
   57215904  180.0  240.0  0.005 0.4053    6.4 2000.0 1998.0   23.0
   57216905  540.0  360.0  0.015 0.6079    7.4 2000.0 1998.0   23.0
   57217907  540.0  660.0  0.015 1.1145    6.5 2000.0 1998.0   23.0
   57218907  480.0  600.0 0.0133 1.0132    6.5 2000.0 1998.0   23.0
   57219908  420.0  600.0 0.0117 1.0132    6.4 2000.0 1998.0   23.0
   57220909  240.0  360.0 0.0067 0.6079    6.3 2000.0 1998.0   23.0
   57221910  300.0  360.0 0.0083 0.6079    6.5 2000.0 1998.0   23.0
   57222910  420.0  420.0 0.0117 0.7092    6.7 2000.0 1998.0   23.0
   57223911  420.0  360.0 0.0117 0.6079    6.9 2000.0 1998.0   23.0
   57224912  600.0  360.0 0.0167 0.6079    7.6 2000.0 1998.0   23.0
   57225915  360.0  600.0   0.01 1.0132    6.2 2000.0 1998.0   23.0
   57226914  240.0  600.0 0.0067 1.0132    6.0 2000.0 1998.0   23.0
   57227916  480.0  180.0 0.0133  0.304    8.8 2000.0 1998.0   23.0
   57228918  300.0  180.0 0.0083  0.304    7.6 2000.0 1998.0   23.0
   57229918  360.0  540.0   0.01 0.9119    6.3 2000.0 1998.0   23.0
   57230919  720.0  660.0   0.02 1.1145    6.9 2000.0 1998.0   23.0
   57231919  360.0  960.0   0.01 1.6211    6.0 2000.0 1998.0   23.0
   57232920  300.0  480.0 0.0083 0.8105    6.3 2000.0 1998.0   23.0
   57233921  480.0  660.0 0.0133 1.1145    6.4 2000.0 1998.0   23.0
