# 
~VERSION INFORMATION
     VERS.                              2.0:Версия формата LAS
     WRAP.                               NO:Режим одной строчки на временной отчет
~WELL INFORMATION
     STRT.ms                       57116818:Время первой записи в файле
     STOP.ms                       76626414:Время последней записи в файле
     STEP.ms                              0:Шаг времени, 0 - переменный шаг
     NULL.                          -999.25:Метка, нет значения
     DATE.                       02.10.2024:Дата каротажа
      DRV.                                 :Наименование драйвера прибора
     NAME.                          ННКТ(б):Название прибора
     SNUM.                         23613012:Серийный номер прибора
     FRMW.                        0.23.10.2:Версия прошивки на контроллере прибора
~CURVE INFORMATION
     TIME.ms                       {0,11:0}:Время, количество миллисекунд от начало суток
     NTNC.имп/мин                          :Счёт, ближний зонд ННКТ
     FTNC.у.е.                             :Счёт, дальний зонд ННКТ
     NTNL.имп/мин                          :Счёт нормированный на счёт в воде, ближний зонд ННКТ
     FTNL.у.е.                             :Счёт нормированный на счёт в воде, дальний зонд ННКТ
     TRNP.%                                :Пористость по водородосодержанию ННКТ
     UHVS.В                                :Установленное напряжение на высоковольтнике
     UHVM.В                                :Измеренное напряжение на высоковольтнике
       MT.°C                               :Температура
~OTHER INFORMATION


~A     TIME   NTNC   FTNC   NTNL   FTNL   TRNP   UHVS   UHVM     MT
# ...
   62314677 2640.0  360.0 0.0733 0.6079   14.6 2000.0 1998.0   17.0
   62315677 1680.0  480.0 0.0466 0.8105    9.8 2000.0 1998.0   17.0
   62316677 2400.0  240.0 0.0666 0.4053   17.9 2000.0 1998.0   17.0
   62317678 2340.0  420.0  0.065 0.7092   12.4 2000.0 1998.0   17.0
   62318679 2340.0  360.0  0.065 0.6079   13.6 2000.0 1998.0   17.0
   62319680 2340.0  360.0  0.065 0.6079   13.6 2000.0 1998.0   17.0
   62320681 1980.0  300.0  0.055 0.5066   13.7 2000.0 1998.0   17.0
   62321684 1920.0  360.0 0.0533 0.6079   12.1 2000.0 1998.0   17.0
   62322683 2700.0  180.0  0.075  0.304   24.1 2000.0 1998.0   17.0
   62323684 2520.0  180.0   0.07  0.304   22.9 2000.0 1998.0   17.0
   62324685 2640.0  120.0 0.0733 0.2026   32.8 2000.0 1998.0   17.0
   62325686 2040.0  420.0 0.0566 0.7092   11.5 2000.0 1998.0   17.0
   62326688 1980.0  360.0  0.055 0.6079   12.3 2000.0 1999.0   17.0
   62327689 1980.0  360.0  0.055 0.6079   12.3 2000.0 1998.0   17.0
   62328690 2460.0  180.0 0.0683  0.304   22.5 2000.0 1998.0   17.0
   62329692 2340.0  480.0  0.065 0.8105   11.6 2000.0 1999.0   17.0
   62330693 1680.0  240.0 0.0466 0.4053   14.2 2000.0 1998.0   17.0
   62331693 2520.0  420.0   0.07 0.7092   13.0 2000.0 1998.0   17.0
   62332694 2220.0  420.0 0.0616 0.7092   12.1 2000.0 1998.0   17.0
   62333696 2400.0  300.0 0.0666 0.5066   15.4 2000.0 1998.0   17.0
   62334696 2160.0  300.0   0.06 0.5066   14.4 2000.0 1998.0   17.0
   62335697 2340.0  240.0  0.065 0.4053   17.6 2000.0 1998.0   17.0
   62336699 2280.0  660.0 0.0633 1.1145    9.8 2000.0 1998.0   17.0
   62337699 2040.0  240.0 0.0566 0.4053   16.1 2000.0 1998.0   17.0
   62338701 1800.0  540.0   0.05 0.9119    9.8 2000.0 1998.0   17.0
   62339702 2340.0  360.0  0.065 0.6079   13.2 2000.0 1998.0   17.0
   62340702 2040.0  360.0 0.0566 0.6079   12.5 2000.0 1998.0   17.0
   62341701 2700.0  240.0  0.075 0.4053   20.1 2000.0 1998.0   17.0
   62342703 2160.0  180.0   0.06  0.304   20.4 2000.0 1999.0   17.0
   62343704 2280.0  120.0 0.0633 0.2026   29.1 2000.0 1998.0   17.0
   62344705 2040.0  120.0 0.0566 0.2026   26.6 2000.0 1998.0   17.0
   62345705 1920.0  300.0 0.0533 0.5066   13.4 2000.0 1998.0   17.0
   62346708 2400.0  360.0 0.0666 0.6079   13.8 2000.0 1998.0   17.0
   62347708 2520.0  360.0   0.07 0.6079   14.2 2000.0 1998.0   17.0
   62348710 2760.0  180.0 0.0766  0.304   24.5 2000.0 1998.0   17.0
   62349711 1980.0  300.0  0.055 0.5066   13.7 2000.0 1998.0   17.0
   62350712 2160.0  480.0   0.06 0.8105   11.1 2000.0 1998.0   17.0
   62351712 2340.0  600.0  0.065 1.0132   10.3 2000.0 1998.0   17.0
   62352713 2220.0  300.0 0.0616 0.5066   14.7 2000.0 1998.0   17.0
   62353715 2400.0  660.0 0.0666 1.1145   10.0 2000.0 1998.0   17.0
   62354716 2280.0  360.0 0.0633 0.6079   13.4 2000.0 1998.0   17.0
   62355716 1860.0  360.0 0.0516 0.6079   11.9 2000.0 1998.0   17.0
   62356717 2400.0  420.0 0.0666 0.7092   12.6 2000.0 1998.0   17.0
   62357718 2100.0  240.0 0.0583 0.4053   16.4 2000.0 1998.0   17.0
   62358719 1020.0  180.0 0.0283  0.304   12.5 2000.0 1998.0   17.0
   62359719 2460.0  480.0 0.0683 0.8105   11.9 2000.0 1998.0   17.0
   62360720 2220.0  720.0 0.0616 1.2158    9.3 2000.0 1998.0   17.0
   62361720 2100.0  360.0 0.0583 0.6079   12.7 2000.0 1998.0   17.0
   62362722 2280.0  360.0 0.0633 0.6079   13.4 2000.0 1998.0   17.0
   62363722 2580.0  600.0 0.0716 1.0132   10.8 2000.0 1998.0   17.0
   62364723 2820.0  360.0 0.0783 0.6079   15.2 2000.0 1998.0   17.0
   62365724 1560.0  180.0 0.0433  0.304   16.3 2000.0 1998.0   17.0
   62366724 2220.0  480.0 0.0616 0.8105   11.2 2000.0 1998.0   17.0
   62367725 1860.0  360.0 0.0516 0.6079   11.9 2000.0 1998.0   17.0
   62368727 2100.0  240.0 0.0583 0.4053   16.4 2000.0 1998.0   17.0
   62369727 2160.0  300.0   0.06 0.5066   14.4 2000.0 1998.0   17.0
   62370728 2580.0  240.0 0.0716 0.4053   18.9 2000.0 1998.0   17.0
   62371728 1980.0  360.0  0.055 0.6079   12.3 2000.0 1998.0   17.0
   62372729 1440.0  120.0   0.04 0.2026   20.4 2000.0 1998.0   17.0
   62373730 1860.0  240.0 0.0516 0.4053   15.1 2000.0 1998.0   17.0
   62374731 2280.0  180.0 0.0633  0.304   21.2 2000.0 1998.0   17.0
   62375732 2640.0  300.0 0.0733 0.5066   16.4 2000.0 1998.0   17.0
   62376733 2520.0  360.0   0.07 0.6079   14.2 2000.0 1998.0   17.0
   62377734 2460.0  300.0 0.0683 0.5066   15.7 2000.0 1998.0   17.0
   62378735 2100.0  240.0 0.0583 0.4053   16.4 2000.0 1998.0   17.0
   62379736 2040.0  360.0 0.0566 0.6079   12.5 2000.0 1998.0   17.0
   62380737 2220.0  120.0 0.0616 0.2026   28.5 2000.0 1998.0   17.0
   62381737 2340.0  180.0  0.065  0.304   21.6 2000.0 1998.0   17.0
   62382738 1980.0  420.0  0.055 0.7092   11.4 2000.0 1998.0   17.0
   62383739 2220.0  180.0 0.0616  0.304   20.8 2000.0 1998.0   17.0
   62384740 2100.0  120.0 0.0583 0.2026   27.2 2000.0 1998.0   17.0
   62385741 2160.0  300.0   0.06 0.5066   14.4 2000.0 1998.0   17.0
   62386742 2940.0  480.0 0.0816 0.8105   13.1 2000.0 1998.0   17.0
   62387743 2160.0  240.0   0.06 0.4053   16.7 2000.0 1998.0   17.0
   62388745 2460.0  540.0 0.0683 0.9119   11.2 2000.0 1998.0   17.0
   62389745 1860.0  420.0 0.0516 0.7092   11.0 2000.0 1998.0   17.0
   62390746 2340.0  420.0  0.065 0.7092   12.4 2000.0 1998.0   17.0
   62391747 1920.0  480.0 0.0533 0.8105   10.8 2000.0 1998.0   17.0
   62392748 2760.0  480.0 0.0766 0.8105   12.6 2000.0 1998.0   17.0
   62393749 1560.0  240.0 0.0433 0.4053   13.3 2000.0 1998.0   17.0
   62394750 1620.0  300.0  0.045 0.5066   12.5 2000.0 1998.0   17.0
   62395752 2640.0  180.0 0.0733  0.304   23.7 2000.0 1998.0   17.0
   62396752 2400.0  300.0 0.0666 0.5066   15.4 2000.0 1998.0   17.0
   62397752 2700.0  240.0  0.075 0.4053   19.5 2000.0 1998.0   17.0
   62398753 2520.0   60.0   0.07 0.1013   57.7 2000.0 1998.0   17.0
   62399754 1860.0  480.0 0.0516 0.8105   10.3 2000.0 1998.0   17.0
   62400755 2520.0  420.0   0.07 0.7092   13.0 2000.0 1998.0   17.0
   62401756 2220.0  300.0 0.0616 0.5066   14.7 2000.0 1999.0   17.0
   62402757 2160.0  480.0   0.06 0.8105   11.1 2000.0 1999.0   17.0
   62403758 2220.0  540.0 0.0616 0.9119   10.6 2000.0 1998.0   17.0
   62404759 2100.0  360.0 0.0583 0.6079   12.7 2000.0 1998.0   17.0
   62405760 2220.0  120.0 0.0616 0.2026   28.5 2000.0 1998.0   17.0
   62406762 1980.0  360.0  0.055 0.6079   12.3 2000.0 1998.0   17.0
   62407763 2460.0  420.0 0.0683 0.7092   12.8 2000.0 1998.0   17.0
   62408763 1800.0  240.0   0.05 0.4053   14.8 2000.0 1998.0   17.0
   62409764 2220.0  420.0 0.0616 0.7092   12.1 2000.0 1998.0   17.0
   62410765 2100.0  240.0 0.0583 0.4053   16.4 2000.0 1997.0   17.0
   62411766 1920.0  300.0 0.0533 0.5066   13.4 2000.0 1998.0   17.0
   62412767 2460.0  480.0 0.0683 0.8105   11.9 2000.0 1998.0   17.0
   62413768 2640.0  360.0 0.0733 0.6079   14.6 2000.0 1999.0   17.0
   62414769 3120.0  240.0 0.0866 0.4053   21.6 2000.0 1998.0   17.0
   62415770 2460.0  480.0 0.0683 0.8105   11.9 2000.0 1998.0   17.0
   62416771 1980.0  360.0  0.055 0.6079   12.3 2000.0 1998.0   17.0
   62417772 2100.0  240.0 0.0583 0.4053   16.4 2000.0 1998.0   17.0
   62418773 2280.0  300.0 0.0633 0.5066   14.9 2000.0 1998.0   17.0
   62419774 3060.0  360.0  0.085 0.6079   16.1 2000.0 1998.0   17.0
   62420775 2520.0  120.0   0.07 0.2026   31.6 2000.0 1999.0   17.0
   62421776 1740.0  300.0 0.0483 0.5066   12.7 2000.0 1998.0   17.0
   62422776 1920.0   60.0 0.0533 0.1013   45.3 2000.0 1998.0   17.0
   62423777 2760.0  480.0 0.0766 0.8105   12.6 2000.0 1998.0   17.0
   62424779 1620.0  360.0  0.045 0.6079   11.1 2000.0 1998.0   17.0
   62425780 2340.0  480.0  0.065 0.8105   11.6 2000.0 1998.0   17.0
   62426780 2400.0  300.0 0.0666 0.5066   15.4 2000.0 1998.0   17.0
   62427781 2760.0  360.0 0.0766 0.6079   15.0 2000.0 1998.0   17.0
   62428782 2040.0  240.0 0.0566 0.4053   16.1 2000.0 1998.0   17.0
   62429783 2280.0  120.0 0.0633 0.2026   29.1 2000.0 1998.0   17.0
   62430784 1740.0  600.0 0.0483 1.0132    9.1 2000.0 1998.0   17.0
   62431785 1920.0  240.0 0.0533 0.4053   15.4 2000.0 1998.0   17.0
