# 
~VERSION INFORMATION
     VERS.                              2.0:Версия формата LAS
     WRAP.                               NO:Режим одной строчки на временной отчет
~WELL INFORMATION
     STRT.ms                       57116818:Время первой записи в файле
     STOP.ms                       76626414:Время последней записи в файле
     STEP.ms                              0:Шаг времени, 0 - переменный шаг
     NULL.                          -999.25:Метка, нет значения
     DATE.                       02.10.2024:Дата каротажа
      DRV.                                 :Наименование драйвера прибора
     NAME.                          ННКТ(б):Название прибора
     SNUM.                         23613012:Серийный номер прибора
     FRMW.                        0.23.10.2:Версия прошивки на контроллере прибора
~CURVE INFORMATION
     TIME.ms                       {0,11:0}:Время, количество миллисекунд от начало суток
     NTNC.имп/мин                          :Счёт, ближний зонд ННКТ
     FTNC.у.е.                             :Счёт, дальний зонд ННКТ
     NTNL.имп/мин                          :Счёт нормированный на счёт в воде, ближний зонд ННКТ
     FTNL.у.е.                             :Счёт нормированный на счёт в воде, дальний зонд ННКТ
     TRNP.%                                :Пористость по водородосодержанию ННКТ
     UHVS.В                                :Установленное напряжение на высоковольтнике
     UHVM.В                                :Измеренное напряжение на высоковольтнике
       MT.°C                               :Температура
~OTHER INFORMATION


~A     TIME   NTNC   FTNC   NTNL   FTNL   TRNP   UHVS   UHVM     MT
# ...
   63614799 6720.0  240.0 0.1866 0.4053   40.3 2000.0 1998.0   17.0
   63615801 7800.0  120.0 0.2166 0.2026   86.3 2000.0 1998.0   17.0
   63616801 6420.0  180.0 0.1782  0.304   49.8 2000.0 1998.0   17.0
   63617802 5880.0  120.0 0.1633 0.2026   66.4 2000.0 1998.0   17.0
   63618803 7320.0  180.0 0.2032  0.304   56.0 2000.0 1998.0   17.0
   63619805 7740.0    0.0 0.2149    0.0    5.5 2000.0 1998.0   17.0
   63620804 7200.0   60.0 0.1999 0.1013  162.1 2000.0 1998.0   17.0
   63621805 6960.0   60.0 0.1932 0.1013  142.2 2000.0 1998.0   17.0
   63622807 7200.0  240.0 0.1999 0.4053   42.8 2000.0 1998.0   17.0
   63623807 7560.0  120.0 0.2099 0.2026   87.5 2000.0 1998.0   17.0
   63624808 7020.0  120.0 0.1949 0.2026   78.2 2000.0 1998.0   17.0
   63625809 6660.0    0.0 0.1849    0.0    5.5 2000.0 1998.0   17.0
   63626810 6720.0  240.0 0.1866 0.4053   40.3 2000.0 1999.0   17.0
   63627811 6660.0    0.0 0.1849    0.0    5.5 2000.0 1999.0   17.0
   63628812 7620.0    0.0 0.2116    0.0    5.5 2000.0 1998.0   17.0
   63629814 6600.0  180.0 0.1832  0.304   51.1 2000.0 1998.0   17.0
   63630813 6840.0  180.0 0.1899  0.304   52.7 2000.0 1999.0   17.0
   63631814 7080.0  240.0 0.1966 0.4053   42.2 2000.0 1998.0   17.0
   63632815 7500.0  120.0 0.2082 0.2026   83.2 2000.0 1998.0   17.0
   63633816 6600.0  240.0 0.1832 0.4053   39.7 2000.0 1998.0   17.0
   63634817 7320.0   60.0 0.2032 0.1013  157.1 2000.0 1998.0   17.0
   63635818 8580.0  120.0 0.2382 0.2026   94.3 2000.0 1998.0   17.0
   63636819 7800.0  120.0 0.2166 0.2026   86.3 2000.0 1998.0   17.0
   63637820 7620.0  180.0 0.2116  0.304   58.1 2000.0 1998.0   17.0
   63638821 6600.0  180.0 0.1832  0.304   51.1 2000.0 1998.0   17.0
   63639822 6600.0  180.0 0.1832  0.304   51.1 2000.0 1998.0   17.0
   63640823 6660.0   60.0 0.1849 0.1013  143.4 2000.0 1998.0   17.0
   63641824 7500.0  120.0 0.2082 0.2026   83.2 2000.0 1998.0   17.0
   63642825 7620.0  240.0 0.2116 0.4053   44.9 2000.0 1999.0   17.0
   63643826 7260.0    0.0 0.2016    0.0    5.5 2000.0 1999.0   17.0
   63644827 6780.0  240.0 0.1882 0.4053   40.6 2000.0 1998.0   17.0
   63645827 7560.0    0.0 0.2099    0.0    5.5 2000.0 1998.0   17.0
   63646828 7740.0  120.0 0.2149 0.2026   85.6 2000.0 1998.0   17.0
   63647829 5880.0   60.0 0.1633 0.1013  127.3 2000.0 1998.0   17.0
   63648830 6060.0  420.0 0.1682 0.7092   23.4 2000.0 1998.0   17.0
   63649831 7380.0  120.0 0.2049 0.2026   81.9 2000.0 1998.0   17.0
   63650833 7260.0   60.0 0.2016 0.1013  155.8 2000.0 1998.0   17.0
   63651834 7080.0  180.0 0.1966  0.304   54.4 2000.0 1998.0   17.0
   63652835 8340.0  180.0 0.2316  0.304   63.1 2000.0 1998.0   17.0
   63653836 7320.0  180.0 0.2032  0.304   56.0 2000.0 1998.0   17.0
   63654837 7320.0   60.0 0.2032 0.1013  157.1 2000.0 1998.0   17.0
   63655838 7320.0  120.0 0.2032 0.2026   81.3 2000.0 1998.0   17.0
   63656839 7320.0  120.0 0.2032 0.2026   81.3 2000.0 1998.0   17.0
   63657840 7560.0   60.0 0.2099 0.1013  162.1 2000.0 1998.0   17.0
   63658840 7860.0  180.0 0.2182  0.304   59.8 2000.0 1998.0   17.0
   63659841 6420.0    0.0 0.1782    0.0    5.5 2000.0 1998.0   17.0
   63660842 7920.0   60.0 0.2199 0.1013  169.5 2000.0 1998.0   17.0
   63661843 7620.0  360.0 0.2116 0.6079   31.8 2000.0 1999.0   17.0
   63662843 8460.0  240.0 0.2349 0.4053   49.3 2000.0 1999.0   17.0
   63663844 8220.0  120.0 0.2282 0.2026   90.6 2000.0 1998.0   17.0
   63664845 7200.0  240.0 0.1999 0.4053   42.8 2000.0 1999.0   17.0
   63665846 8520.0   60.0 0.2365 0.1013  181.9 2000.0 1998.0   17.0
   63666847 7500.0  180.0 0.2082  0.304   57.3 2000.0 1998.0   17.0
   63667849 8760.0   60.0 0.2432 0.1013  186.9 2000.0 1998.0   17.0
   63668850 6420.0  180.0 0.1782  0.304   49.8 2000.0 1998.0   17.0
   63669850 7860.0    0.0 0.2182    0.0    5.5 2000.0 1998.0   17.0
   63670851 7920.0  300.0 0.2199 0.5066   38.3 2000.0 1998.0   17.0
   63671852 6660.0  120.0 0.1849 0.2026   74.5 2000.0 1998.0   17.0
   63672853 7440.0  120.0 0.2066 0.2026   82.5 2000.0 1998.0   17.0
   63673854 7560.0  240.0 0.2099 0.4053   46.5 2000.0 1998.0   17.0
   63674855 7860.0  180.0 0.2182  0.304   56.9 2000.0 1998.0   17.0
   63675855 8100.0    0.0 0.2249    0.0    5.5 2000.0 1998.0   17.0
   63676858 7500.0  180.0 0.2082  0.304   57.3 2000.0 1998.0   17.0
   63677858 8160.0  180.0 0.2266  0.304   61.8 2000.0 1998.0   17.0
   63678858 7860.0   60.0 0.2182 0.1013  168.3 2000.0 1998.0   17.0
   63679860 6060.0  300.0 0.1682 0.5066   30.6 2000.0 1998.0   17.0
   63680861 7380.0  240.0 0.2049 0.4053   43.7 2000.0 1998.0   17.0
   63681861 6840.0  180.0 0.1899  0.304   52.7 2000.0 1998.0   17.0
   63682862 6000.0  240.0 0.1666 0.4053   36.6 2000.0 1998.0   17.0
   63683863 6960.0   60.0 0.1932 0.1013  149.6 2000.0 1998.0   17.0
   63684863 7980.0  180.0 0.2216  0.304   60.6 2000.0 1999.0   17.0
   63685864 7560.0   60.0 0.2099 0.1013  162.1 2000.0 1998.0   17.0
   63686865 6360.0  120.0 0.1766 0.2026   71.3 2000.0 1998.0   17.0
   63687866 6420.0   60.0 0.1782 0.1013  138.4 2000.0 1998.0   17.0
   63688867 7320.0  120.0 0.2032 0.2026   81.3 2000.0 1998.0   17.0
   63689868 7680.0  540.0 0.2132 0.9119   23.2 2000.0 1998.0   17.0
   63690870 7680.0    0.0 0.2132    0.0    5.5 2000.0 1998.0   17.0
   63691871 7800.0   60.0 0.2166 0.1013  167.0 2000.0 1998.0   17.0
   63692872 7440.0    0.0 0.2066    0.0    5.5 2000.0 1998.0   17.0
   63693872 6540.0  180.0 0.1816  0.304   50.6 2000.0 1998.0   17.0
   63694874 7800.0  120.0 0.2166 0.2026   86.3 2000.0 1998.0   17.0
   63695875 7140.0  120.0 0.1982 0.2026   79.4 2000.0 1999.0   17.0
   63696877 8160.0  240.0 0.2266 0.4053   47.7 2000.0 1998.0   17.0
   63697878 6960.0  240.0 0.1932 0.4053   41.5 2000.0 1998.0   17.0
   63698879 10020.0   60.0 0.2782 0.1013  213.0 2000.0 1998.0   17.0
   63699880 7920.0  240.0 0.2199 0.4053   46.5 2000.0 1998.0   17.0
   63700880 6780.0   60.0 0.1882 0.1013  145.9 2000.0 1998.0   17.0
   63701881 7380.0  300.0 0.2049 0.5066   36.1 2000.0 1998.0   17.0
   63702882 7800.0  120.0 0.2166 0.2026   86.3 2000.0 1998.0   17.0
   63703883 5520.0  120.0 0.1533 0.2026   62.7 2000.0 1998.0   17.0
   63704884 8820.0  120.0 0.2449 0.2026   96.8 2000.0 1998.0   17.0
   63705886 7140.0  180.0 0.1982  0.304   54.8 2000.0 1998.0   17.0
   63706886 8520.0  300.0 0.2365 0.5066   40.8 2000.0 1998.0   17.0
   63707886 8760.0    0.0 0.2432    0.0    5.5 2000.0 1998.0   17.0
   63708887 7560.0  120.0 0.2099 0.2026   83.8 2000.0 1998.0   17.0
   63709888 6540.0  120.0 0.1816 0.2026   73.2 2000.0 1998.0   17.0
   63710889 8100.0   60.0 0.2249 0.1013  173.2 2000.0 1998.0   17.0
   63711891 7320.0    0.0 0.2032    0.0    5.5 2000.0 1998.0   17.0
   63712891 8580.0  120.0 0.2382 0.2026   94.3 2000.0 1998.0   17.0
   63713891 8460.0   60.0 0.2349 0.1013  180.7 2000.0 1998.0   17.0
   63714892 6780.0  300.0 0.1882 0.5066   33.6 2000.0 1998.0   17.0
   63715894 6480.0  180.0 0.1799  0.304   50.2 2000.0 1998.0   17.0
   63716894 8220.0  180.0 0.2282  0.304   62.2 2000.0 1998.0   17.0
   63717895 6420.0  300.0 0.1782 0.5066   32.1 2000.0 1998.0   17.0
   63718895 6240.0  180.0 0.1732  0.304   48.6 2000.0 1998.0   17.0
   63719896 6960.0  120.0 0.1932 0.2026   77.6 2000.0 1998.0   17.0
   63720899 6600.0  300.0 0.1832 0.5066   32.8 2000.0 1998.0   17.0
   63721899 7980.0  240.0 0.2216 0.4053   46.8 2000.0 1998.0   17.0
   63722900 7860.0  300.0 0.2182 0.5066   39.8 2000.0 1998.0   17.0
   63723901 7380.0  180.0 0.2049  0.304   54.0 2000.0 1998.0   17.0
   63724903 7800.0   60.0 0.2166 0.1013  167.0 2000.0 1998.0   17.0
   63725903 7140.0  120.0 0.1982 0.2026   83.2 2000.0 1999.0   17.0
   63726904 7920.0   60.0 0.2199 0.1013  169.5 2000.0 1998.0   17.0
   63727905 8820.0    0.0 0.2449    0.0    5.5 2000.0 1998.0   17.0
   63728907 6600.0   60.0 0.1832 0.1013  142.2 2000.0 1998.0   17.0
   63729907 8040.0    0.0 0.2232    0.0    5.5 2000.0 1998.0   17.0
   63730908 8640.0  120.0 0.2399 0.2026   95.0 2000.0 1998.0   17.0
   63731910 7500.0  180.0 0.2082  0.304   57.3 2000.0 1998.0   17.0
