# 
~VERSION INFORMATION
     VERS.                              2.0:Версия формата LAS
     WRAP.                               NO:Режим одной строчки на временной отчет
~WELL INFORMATION
     STRT.ms                       57116818:Время первой записи в файле
     STOP.ms                       76626414:Время последней записи в файле
     STEP.ms                              0:Шаг времени, 0 - переменный шаг
     NULL.                          -999.25:Метка, нет значения
     DATE.                       02.10.2024:Дата каротажа
      DRV.                                 :Наименование драйвера прибора
     NAME.                          ННКТ(б):Название прибора
     SNUM.                         23613012:Серийный номер прибора
     FRMW.                        0.23.10.2:Версия прошивки на контроллере прибора
~CURVE INFORMATION
     TIME.ms                       {0,11:0}:Время, количество миллисекунд от начало суток
     NTNC.имп/мин                          :Счёт, ближний зонд ННКТ
     FTNC.у.е.                             :Счёт, дальний зонд ННКТ
     NTNL.имп/мин                          :Счёт нормированный на счёт в воде, ближний зонд ННКТ
     FTNL.у.е.                             :Счёт нормированный на счёт в воде, дальний зонд ННКТ
     TRNP.%                                :Пористость по водородосодержанию ННКТ
     UHVS.В                                :Установленное напряжение на высоковольтнике
     UHVM.В                                :Измеренное напряжение на высоковольтнике
       MT.°C                               :Температура
~OTHER INFORMATION


~A     TIME   NTNC   FTNC   NTNL   FTNL   TRNP   UHVS   UHVM     MT
# ...
   68697139 6000.0  120.0 0.1666 0.2026   67.6 2000.0 1998.0   17.0
   68698141 6540.0   60.0 0.1816 0.1013  140.9 2000.0 1998.0   17.0
   68699141 5580.0   60.0 0.1549 0.1013  121.0 2000.0 1998.0   17.0
   68700142 6720.0  120.0 0.1866 0.2026   75.1 2000.0 1998.0   17.0
   68701143 6420.0   60.0 0.1782 0.1013  138.4 2000.0 1998.0   17.0
   68702144 5940.0  180.0 0.1649  0.304   46.5 2000.0 1998.0   17.0
   68703146 5160.0  180.0 0.1433  0.304   41.1 2000.0 1998.0   17.0
   68704145 6780.0  240.0 0.1882 0.4053   40.6 2000.0 1998.0   17.0
   68705147 6120.0   60.0 0.1699 0.1013  132.2 2000.0 1998.0   17.0
   68706148 6480.0  120.0 0.1799 0.2026   72.6 2000.0 1998.0   17.0
   68707149 6840.0  180.0 0.1899  0.304   52.7 2000.0 1998.0   17.0
   68708150 5640.0   60.0 0.1566 0.1013  122.3 2000.0 1998.0   17.0
   68709150 6300.0   60.0 0.1749 0.1013  136.0 2000.0 1998.0   17.0
   68710151 6480.0  180.0 0.1799  0.304   50.2 2000.0 1998.0   17.0
   68711152 7200.0  300.0 0.1999 0.5066   35.3 2000.0 1998.0   17.0
   68712152 5880.0  120.0 0.1633 0.2026   66.4 2000.0 1998.0   17.0
   68713153 5880.0  180.0 0.1633  0.304   46.1 2000.0 1998.0   17.0
   68714155 6480.0  120.0 0.1799 0.2026   72.6 2000.0 1998.0   17.0
   68715156 6060.0    0.0 0.1682    0.0    5.5 2000.0 1998.0   17.0
   68716157 5940.0   60.0 0.1649 0.1013  128.5 2000.0 1998.0   17.0
   68717158 5880.0  180.0 0.1633  0.304   46.1 2000.0 1998.0   17.0
   68718158 6180.0   60.0 0.1716 0.1013  133.5 2000.0 1998.0   17.0
   68719160 6720.0  180.0 0.1866  0.304   51.9 2000.0 1998.0   17.0
   68720160 5760.0  180.0 0.1599  0.304   45.3 2000.0 1998.0   17.0
   68721162 6180.0   60.0 0.1716 0.1013  133.5 2000.0 1998.0   17.0
   68722163 6360.0  180.0 0.1766  0.304   49.4 2000.0 1998.0   17.0
   68723163 5580.0   60.0 0.1549 0.1013  121.0 2000.0 1998.0   17.0
   68724164 6240.0  240.0 0.1732 0.4053   37.8 2000.0 1998.0   17.0
   68725165 7140.0  120.0 0.1982 0.2026   79.4 2000.0 1998.0   17.0
   68726166 7620.0  120.0 0.2116 0.2026   84.4 2000.0 1998.0   17.0
   68727168 6840.0  240.0 0.1899 0.4053   42.8 2000.0 1998.0   17.0
   68728170 4740.0   60.0 0.1316 0.1013   98.7 2000.0 1998.0   17.0
   68729170 7020.0  120.0 0.1949 0.2026   81.9 2000.0 1998.0   17.0
   68730171 6300.0  120.0 0.1749 0.2026   70.7 2000.0 1998.0   17.0
   68731171 7500.0  120.0 0.2082 0.2026   83.2 2000.0 1998.0   17.0
   68732172 5220.0   60.0 0.1449 0.1013  113.6 2000.0 1998.0   17.0
   68733174 6060.0  120.0 0.1682 0.2026   68.2 2000.0 1998.0   17.0
   68734174 5520.0  120.0 0.1533 0.2026   62.7 2000.0 1998.0   17.0
   68735174 6540.0  300.0 0.1816 0.5066   32.6 2000.0 1998.0   17.0
   68736176 6900.0  120.0 0.1916 0.2026   76.9 2000.0 1998.0   17.0
   68737177 6120.0  180.0 0.1699  0.304   47.7 2000.0 1998.0   17.0
   68738179 6060.0  120.0 0.1682 0.2026   68.2 2000.0 1998.0   17.0
   68739179 5580.0   60.0 0.1549 0.1013  121.0 2000.0 1998.0   17.0
   68740179 5580.0  120.0 0.1549 0.2026   63.3 2000.0 1998.0   17.0
   68741181 5160.0   60.0 0.1433 0.1013  112.4 2000.0 1998.0   17.0
   68742182 6240.0    0.0 0.1732    0.0    5.5 2000.0 1998.0   17.0
   68743183 5640.0  120.0 0.1566 0.2026   63.9 2000.0 1998.0   17.0
   68744184 6540.0  120.0 0.1816 0.2026   73.2 2000.0 1998.0   17.0
   68745185 4860.0  120.0 0.1349 0.2026   55.8 2000.0 1998.0   17.0
   68746186 5880.0   60.0 0.1633 0.1013  127.3 2000.0 1998.0   17.0
   68747187 6720.0  180.0 0.1866  0.304   51.9 2000.0 1998.0   17.0
   68748188 5520.0    0.0 0.1533    0.0    5.5 2000.0 1998.0   17.0
   68749189 6960.0  120.0 0.1932 0.2026   77.6 2000.0 1998.0   17.0
   68750190 5820.0  120.0 0.1616 0.2026   65.8 2000.0 1998.0   17.0
   68751191 6300.0  120.0 0.1749 0.2026   70.7 2000.0 1998.0   17.0
   68752192 6300.0   60.0 0.1749 0.1013  136.0 2000.0 1998.0   17.0
   68753193 6480.0  180.0 0.1799  0.304   50.2 2000.0 1998.0   17.0
   68754194 5520.0   60.0 0.1533 0.1013  119.8 2000.0 1998.0   17.0
   68755196 6960.0  120.0 0.1932 0.2026   77.6 2000.0 1998.0   17.0
   68756196 6540.0  300.0 0.1816 0.5066   32.6 2000.0 1998.0   17.0
   68757197 6180.0   60.0 0.1716 0.1013  133.5 2000.0 1998.0   17.0
   68758199 5880.0   60.0 0.1633 0.1013  127.3 2000.0 1998.0   17.0
   68759199 6480.0  180.0 0.1799  0.304   50.2 2000.0 1998.0   17.0
   68760200 5460.0  120.0 0.1516 0.2026   62.0 2000.0 1998.0   17.0
   68761201 6420.0   60.0 0.1782 0.1013  138.4 2000.0 1998.0   17.0
   68762203 5820.0  120.0 0.1616 0.2026   65.8 2000.0 1998.0   17.0
   68763203 6060.0   60.0 0.1682 0.1013  131.0 2000.0 1998.0   17.0
   68764204 6120.0  120.0 0.1699 0.2026   68.9 2000.0 1998.0   17.0
   68765205 6840.0    0.0 0.1899    0.0    5.5 2000.0 1998.0   17.0
   68766206 6120.0    0.0 0.1699    0.0    5.5 2000.0 1998.0   17.0
   68767207 6180.0    0.0 0.1716    0.0    5.5 2000.0 1998.0   17.0
   68768208 6480.0  120.0 0.1799 0.2026   72.6 2000.0 1998.0   17.0
   68769208 7740.0    0.0 0.2149    0.0    5.5 2000.0 1998.0   17.0
   68770210 6120.0  120.0 0.1699 0.2026   68.9 2000.0 1998.0   17.0
   68771210 6900.0   60.0 0.1916 0.1013  148.4 2000.0 1998.0   17.0
   68772211 6600.0    0.0 0.1832    0.0    5.5 2000.0 1998.0   17.0
   68773212 6240.0  180.0 0.1732  0.304   48.6 2000.0 1998.0   17.0
   68774212 5820.0    0.0 0.1616    0.0    5.5 2000.0 1998.0   17.0
   68775214 6960.0    0.0 0.1932    0.0    5.5 2000.0 1998.0   17.0
   68776215 5340.0  120.0 0.1483 0.2026   60.8 2000.0 1998.0   17.0
   68777216 6660.0  180.0 0.1849  0.304   51.5 2000.0 1998.0   17.0
   68778217 5820.0    0.0 0.1616    0.0    5.5 2000.0 1998.0   17.0
   68779218 5460.0  180.0 0.1516  0.304   41.1 2000.0 1998.0   17.0
   68780219 4920.0    0.0 0.1366    0.0    5.5 2000.0 1998.0   17.0
   68781219 7020.0   60.0 0.1949 0.1013  158.3 2000.0 1999.0   17.0
   68782220 7020.0  120.0 0.1949 0.2026   78.2 2000.0 1998.0   17.0
   68783222 6540.0  180.0 0.1816  0.304   50.6 2000.0 1998.0   17.0
   68784222 6060.0  180.0 0.1682  0.304   47.3 2000.0 1998.0   17.0
   68785223 7680.0   60.0 0.2132 0.1013  164.5 2000.0 1998.0   17.0
   68786224 5460.0   60.0 0.1516 0.1013  118.6 2000.0 1998.0   17.0
   68787225 6420.0   60.0 0.1782 0.1013  138.4 2000.0 1998.0   17.0
   68788226 5820.0    0.0 0.1616    0.0    5.5 2000.0 1998.0   17.0
   68789227 6480.0   60.0 0.1799 0.1013  139.7 2000.0 1998.0   17.0
   68790228 6600.0   60.0 0.1832 0.1013  142.2 2000.0 1998.0   17.0
   68791229 6840.0    0.0 0.1899    0.0    5.5 2000.0 1998.0   17.0
   68792231 5880.0  120.0 0.1633 0.2026   66.4 2000.0 1998.0   17.0
   68793230 5640.0  180.0 0.1566  0.304   44.4 2000.0 1998.0   17.0
   68794232 5160.0    0.0 0.1433    0.0    5.5 2000.0 1998.0   17.0
   68795233 6720.0   60.0 0.1866 0.1013  144.7 2000.0 1998.0   17.0
   68796233 6600.0  180.0 0.1832  0.304   51.1 2000.0 1998.0   17.0
   68797235 5820.0  120.0 0.1616 0.2026   65.8 2000.0 1998.0   17.0
   68798235 5640.0    0.0 0.1566    0.0    5.5 2000.0 1998.0   17.0
   68799237 6660.0   60.0 0.1849 0.1013  143.4 2000.0 1998.0   17.0
   68800238 6960.0  360.0 0.1932 0.6079   29.5 2000.0 1998.0   17.0
   68801239 6480.0    0.0 0.1799    0.0    5.5 2000.0 1998.0   17.0
   68802240 6600.0  180.0 0.1832  0.304   51.1 2000.0 1998.0   17.0
   68803241 6300.0  120.0 0.1749 0.2026   70.7 2000.0 1998.0   17.0
   68804242 5820.0  120.0 0.1616 0.2026   65.8 2000.0 1998.0   17.0
   68805244 5880.0    0.0 0.1633    0.0    5.5 2000.0 1998.0   17.0
   68806246 6900.0  120.0 0.1916 0.2026   76.9 2000.0 1998.0   17.0
   68807247 5520.0  180.0 0.1533  0.304   43.6 2000.0 1998.0   17.0
   68808247 5820.0  120.0 0.1616 0.2026   65.8 2000.0 1998.0   17.0
   68809249 6840.0  300.0 0.1899 0.5066   33.8 2000.0 1998.0   17.0
   68810249 6120.0   60.0 0.1699 0.1013  132.2 2000.0 1998.0   17.0
   68811250 5940.0  120.0 0.1649 0.2026   67.0 2000.0 1998.0   17.0
   68812252 6060.0   60.0 0.1682 0.1013  131.0 2000.0 1998.0   17.0
   68813253 5760.0    0.0 0.1599    0.0    5.5 2000.0 1998.0   17.0
   68814254 7080.0   60.0 0.1966 0.1013  152.1 2000.0 1998.0   17.0
