# 
~VERSION INFORMATION
     VERS.                              2.0:Версия формата LAS
     WRAP.                               NO:Режим одной строчки на временной отчет
~WELL INFORMATION
     STRT.ms                       57116818:Время первой записи в файле
     STOP.ms                       76626414:Время последней записи в файле
     STEP.ms                              0:Шаг времени, 0 - переменный шаг
     NULL.                          -999.25:Метка, нет значения
     DATE.                       02.10.2024:Дата каротажа
      DRV.                                 :Наименование драйвера прибора
     NAME.                          ННКТ(б):Название прибора
     SNUM.                         23613012:Серийный номер прибора
     FRMW.                        0.23.10.2:Версия прошивки на контроллере прибора
~CURVE INFORMATION
     TIME.ms                       {0,11:0}:Время, количество миллисекунд от начало суток
     NTNC.имп/мин                          :Счёт, ближний зонд ННКТ
     FTNC.у.е.                             :Счёт, дальний зонд ННКТ
     NTNL.имп/мин                          :Счёт нормированный на счёт в воде, ближний зонд ННКТ
     FTNL.у.е.                             :Счёт нормированный на счёт в воде, дальний зонд ННКТ
     TRNP.%                                :Пористость по водородосодержанию ННКТ
     UHVS.В                                :Установленное напряжение на высоковольтнике
     UHVM.В                                :Измеренное напряжение на высоковольтнике
       MT.°C                               :Температура
~OTHER INFORMATION


~A     TIME   NTNC   FTNC   NTNL   FTNL   TRNP   UHVS   UHVM     MT
# ...
   64914065 7560.0   60.0 0.2099 0.1013  162.1 2000.0 1998.0   17.0
   64915066 6600.0   60.0 0.1832 0.1013  142.2 2000.0 1998.0   17.0
   64916067 6420.0  120.0 0.1782 0.2026   72.0 2000.0 1998.0   17.0
   64917067 7920.0  120.0 0.2199 0.2026   87.5 2000.0 1998.0   17.0
   64918068 6900.0  180.0 0.1916  0.304   53.1 2000.0 1999.0   17.0
   64919069 7560.0  120.0 0.2099 0.2026   83.8 2000.0 1998.0   17.0
   64920070 7680.0  240.0 0.2132 0.4053   45.3 2000.0 1998.0   17.0
   64921070 7380.0  300.0 0.2049 0.5066   36.1 2000.0 1999.0   17.0
   64922071 6780.0  300.0 0.1882 0.5066   33.6 2000.0 1998.0   17.0
   64923073 8580.0  120.0 0.2382 0.2026   94.3 2000.0 1998.0   17.0
   64924073 7980.0  180.0 0.2216  0.304   60.6 2000.0 1998.0   17.0
   64925074 7500.0  120.0 0.2082 0.2026   83.2 2000.0 1998.0   17.0
   64926075 8280.0  300.0 0.2299 0.5066   39.8 2000.0 1998.0   17.0
   64927077 7680.0  180.0 0.2132  0.304   58.5 2000.0 1998.0   17.0
   64928076 6900.0   60.0 0.1916 0.1013  148.4 2000.0 1998.0   17.0
   64929077 7380.0   60.0 0.2049 0.1013  158.3 2000.0 1997.0   17.0
   64930078 7860.0  120.0 0.2182 0.2026   86.9 2000.0 1997.0   17.0
   64931080 7260.0   60.0 0.2016 0.1013  155.8 2000.0 1999.0   17.0
   64932081 7260.0  300.0 0.2016 0.5066   35.6 2000.0 1998.0   17.0
   64933083 6180.0  120.0 0.1716 0.2026   69.5 2000.0 1998.0   17.0
   64934084 7440.0  120.0 0.2066 0.2026   82.5 2000.0 1998.0   17.0
   64935084 7080.0  120.0 0.1966 0.2026   78.8 2000.0 1998.0   17.0
   64936086 7440.0  180.0 0.2066  0.304   56.9 2000.0 1998.0   17.0
   64937085 6540.0  120.0 0.1816 0.2026   73.2 2000.0 1999.0   17.0
   64938087 7560.0  180.0 0.2099  0.304   57.7 2000.0 1998.0   17.0
   64939087 7620.0  240.0 0.2116 0.4053   44.9 2000.0 1998.0   17.0
   64940089 7320.0  240.0 0.2032 0.4053   43.4 2000.0 1998.0   17.0
   64941090 7020.0   60.0 0.1949 0.1013  150.9 2000.0 1998.0   17.0
   64942092 6900.0  240.0 0.1916 0.4053   41.2 2000.0 1998.0   17.0
   64943091 6960.0    0.0 0.1932    0.0    5.5 2000.0 1998.0   17.0
   64944093 7260.0  360.0 0.2016 0.6079   30.6 2000.0 1998.0   17.0
   64945093 7380.0    0.0 0.2049    0.0    5.5 2000.0 1998.0   17.0
   64946094 7140.0   60.0 0.1982 0.1013  153.4 2000.0 1998.0   17.0
   64947096 8220.0   60.0 0.2282 0.1013  175.7 2000.0 1998.0   17.0
   64948096 7080.0  240.0 0.1966 0.4053   42.2 2000.0 1998.0   17.0
   64949099 7020.0   60.0 0.1949 0.1013  150.9 2000.0 1998.0   17.0
   64950099 7440.0  180.0 0.2066  0.304   56.9 2000.0 1998.0   17.0
   64951100 6120.0   60.0 0.1699 0.1013  132.2 2000.0 1998.0   17.0
   64952099 8460.0  180.0 0.2349  0.304   63.9 2000.0 1998.0   17.0
   64953101 8400.0  120.0 0.2332 0.2026   92.5 2000.0 1998.0   17.0
   64954101 8340.0  120.0 0.2316 0.2026   91.9 2000.0 1998.0   17.0
   64955103 7740.0  120.0 0.2149 0.2026   85.6 2000.0 1998.0   17.0
   64956103 8580.0   60.0 0.2382 0.1013  183.2 2000.0 1998.0   17.0
   64957104 7680.0  300.0 0.2132 0.5066   37.3 2000.0 1998.0   17.0
   64958104 7260.0  180.0 0.2016  0.304   55.6 2000.0 1998.0   17.0
   64959105 8280.0  240.0 0.2299 0.4053   48.4 2000.0 1998.0   17.0
   64960106 8040.0  180.0 0.2232  0.304   63.9 2000.0 1998.0   17.0
   64961109 8040.0   60.0 0.2232 0.1013  163.3 2000.0 1998.0   17.0
   64962109 7020.0  240.0 0.1949 0.4053   43.7 2000.0 1998.0   17.0
   64963109 7440.0  180.0 0.2066  0.304   56.9 2000.0 1998.0   17.0
   64964111 7080.0  120.0 0.1966 0.2026   78.8 2000.0 1998.0   17.0
   64965110 7140.0    0.0 0.1982    0.0    5.5 2000.0 1998.0   17.0
   64966112 6180.0   60.0 0.1716 0.1013  133.5 2000.0 1998.0   17.0
   64967113 7560.0   60.0 0.2099 0.1013  162.1 2000.0 1998.0   17.0
   64968112 6420.0  300.0 0.1782 0.5066   32.1 2000.0 1998.0   17.0
   64969113 7980.0  120.0 0.2216 0.2026   88.1 2000.0 1998.0   17.0
   64970116 7440.0  180.0 0.2066  0.304   56.9 2000.0 1998.0   17.0
   64971117 8280.0   60.0 0.2299 0.1013  177.0 2000.0 1998.0   17.0
   64972118 7260.0  120.0 0.2016 0.2026   80.7 2000.0 1998.0   17.0
   64973118 8100.0  120.0 0.2249 0.2026   89.4 2000.0 1998.0   17.0
   64974119 8460.0   60.0 0.2349 0.1013  180.7 2000.0 1998.0   17.0
   64975121 6840.0  120.0 0.1899 0.2026   76.3 2000.0 1998.0   17.0
   64976122 7080.0  300.0 0.1966 0.5066   34.8 2000.0 1998.0   17.0
   64977121 6540.0   60.0 0.1816 0.1013  140.9 2000.0 1998.0   17.0
   64978122 8580.0  240.0 0.2382 0.4053   49.9 2000.0 1998.0   17.0
   64979123 8940.0   60.0 0.2482 0.1013  190.6 2000.0 1998.0   17.0
   64980125 7200.0    0.0 0.1999    0.0    5.5 2000.0 1998.0   17.0
   64981124 7500.0   60.0 0.2082 0.1013  160.8 2000.0 1998.0   17.0
   64982126 7440.0  180.0 0.2066  0.304   56.9 2000.0 1998.0   17.0
   64983127 8340.0  120.0 0.2316 0.2026   91.9 2000.0 1998.0   17.0
   64984127 7380.0   60.0 0.2049 0.1013  158.3 2000.0 1998.0   17.0
   64985127 7320.0  120.0 0.2032 0.2026   81.3 2000.0 1998.0   17.0
   64986128 8100.0   60.0 0.2249 0.1013  173.2 2000.0 1998.0   17.0
   64987129 8280.0  180.0 0.2299  0.304   62.7 2000.0 1998.0   17.0
   64988132 5640.0  120.0 0.1566 0.2026   63.9 2000.0 1998.0   17.0
   64989132 7020.0  180.0 0.1949  0.304   54.0 2000.0 1998.0   17.0
   64990134 7380.0  240.0 0.2049 0.4053   43.7 2000.0 1998.0   17.0
   64991135 6300.0  120.0 0.1749 0.2026   70.7 2000.0 1998.0   17.0
   64992136 7140.0   60.0 0.1982 0.1013  153.4 2000.0 1998.0   17.0
   64993137 8940.0  180.0 0.2482  0.304   67.2 2000.0 1998.0   17.0
   64994137 6720.0    0.0 0.1866    0.0    5.5 2000.0 1998.0   17.0
   64995140 8460.0  120.0 0.2349 0.2026   93.1 2000.0 1998.0   17.0
   64996140 7740.0  360.0 0.2149 0.6079   32.2 2000.0 1998.0   17.0
   64997140 6660.0   60.0 0.1849 0.1013  143.4 2000.0 1998.0   17.0
   64998140 7020.0  120.0 0.1949 0.2026   78.2 2000.0 1998.0   17.0
   64999140 8040.0  120.0 0.2232 0.2026   88.7 2000.0 1998.0   17.0
   65000143 7140.0  180.0 0.1982  0.304   54.8 2000.0 1998.0   17.0
   65001142 8340.0  240.0 0.2316 0.4053   48.7 2000.0 1998.0   17.0
   65002144 7200.0  180.0 0.1999  0.304   55.2 2000.0 1998.0   17.0
   65003145 7560.0  180.0 0.2099  0.304   57.7 2000.0 1999.0   17.0
   65004146 7680.0  120.0 0.2132 0.2026   85.0 2000.0 1998.0   17.0
   65005147 7440.0  120.0 0.2066 0.2026   82.5 2000.0 1998.0   17.0
   65006149 7020.0   60.0 0.1949 0.1013  150.9 2000.0 1998.0   17.0
   65007149 8040.0   60.0 0.2232 0.1013  172.0 2000.0 1998.0   17.0
   65008149 6240.0  120.0 0.1732 0.2026   70.1 2000.0 1998.0   17.0
   65009151 6900.0   60.0 0.1916 0.1013  148.4 2000.0 1998.0   17.0
   65010151 7320.0  240.0 0.2032 0.4053   43.4 2000.0 1998.0   17.0
   65011152 6240.0  180.0 0.1732  0.304   48.6 2000.0 1998.0   17.0
   65012154 7980.0    0.0 0.2216    0.0    5.5 2000.0 1998.0   17.0
   65013156 7140.0  180.0 0.1982  0.304   54.8 2000.0 1998.0   17.0
   65014155 8100.0  120.0 0.2249 0.2026   85.0 2000.0 1998.0   17.0
   65015156 6660.0  420.0 0.1849 0.7092   25.2 2000.0 1998.0   17.0
   65016157 7200.0  120.0 0.1999 0.2026   83.8 2000.0 1999.0   17.0
   65017158 7620.0   60.0 0.2116 0.1013  163.3 2000.0 1998.0   17.0
   65018159 6540.0    0.0 0.1816    0.0    5.5 2000.0 1998.0   17.0
   65019160 8100.0  120.0 0.2249 0.2026   89.4 2000.0 1999.0   17.0
   65020161 7500.0  120.0 0.2082 0.2026   83.2 2000.0 1998.0   17.0
   65021163 8340.0  180.0 0.2316  0.304   63.1 2000.0 1998.0   17.0
   65022164 7500.0   60.0 0.2082 0.1013  160.8 2000.0 1999.0   17.0
   65023165 8460.0  120.0 0.2349 0.2026   93.1 2000.0 1999.0   17.0
   65024165 6660.0  180.0 0.1849  0.304   51.5 2000.0 1998.0   17.0
   65025166 7200.0   60.0 0.1999 0.1013  154.6 2000.0 1998.0   17.0
   65026168 8880.0  120.0 0.2465 0.2026   97.4 2000.0 1998.0   17.0
   65027168 7740.0  180.0 0.2149  0.304   58.9 2000.0 1998.0   17.0
   65028170 8160.0  180.0 0.2266  0.304   61.8 2000.0 1998.0   17.0
   65029170 6480.0   60.0 0.1799 0.1013  139.7 2000.0 1998.0   17.0
   65030171 7680.0   60.0 0.2132 0.1013  164.5 2000.0 1998.0   17.0
   65031173 8040.0   60.0 0.2232 0.1013  172.0 2000.0 1998.0   17.0
