# 
~VERSION INFORMATION
     VERS.                              2.0:Версия формата LAS
     WRAP.                               NO:Режим одной строчки на временной отчет
~WELL INFORMATION
     STRT.ms                       57116818:Время первой записи в файле
     STOP.ms                       76626414:Время последней записи в файле
     STEP.ms                              0:Шаг времени, 0 - переменный шаг
     NULL.                          -999.25:Метка, нет значения
     DATE.                       02.10.2024:Дата каротажа
      DRV.                                 :Наименование драйвера прибора
     NAME.                          ННКТ(б):Название прибора
     SNUM.                         23613012:Серийный номер прибора
     FRMW.                        0.23.10.2:Версия прошивки на контроллере прибора
~CURVE INFORMATION
     TIME.ms                       {0,11:0}:Время, количество миллисекунд от начало суток
     NTNC.имп/мин                          :Счёт, ближний зонд ННКТ
     FTNC.у.е.                             :Счёт, дальний зонд ННКТ
     NTNL.имп/мин                          :Счёт нормированный на счёт в воде, ближний зонд ННКТ
     FTNL.у.е.                             :Счёт нормированный на счёт в воде, дальний зонд ННКТ
     TRNP.%                                :Пористость по водородосодержанию ННКТ
     UHVS.В                                :Установленное напряжение на высоковольтнике
     UHVM.В                                :Измеренное напряжение на высоковольтнике
       MT.°C                               :Температура
~OTHER INFORMATION


~A     TIME   NTNC   FTNC   NTNL   FTNL   TRNP   UHVS   UHVM     MT
# ...
   71297339 6360.0  180.0 0.1766  0.304   49.4 2000.0 1998.0   17.0
   71298341 7620.0  120.0 0.2116 0.2026   84.4 2000.0 1998.0   17.0
   71299342 6240.0  120.0 0.1732 0.2026   70.1 2000.0 1998.0   17.0
   71300342 6180.0   60.0 0.1716 0.1013  133.5 2000.0 1998.0   17.0
   71301343 5640.0    0.0 0.1566    0.0    5.5 2000.0 1998.0   17.0
   71302345 6960.0   60.0 0.1932 0.1013  149.6 2000.0 1999.0   17.0
   71303345 5400.0  180.0 0.1499  0.304   42.8 2000.0 1998.0   17.0
   71304347 7500.0   60.0 0.2082 0.1013  160.8 2000.0 1998.0   17.0
   71305346 5820.0  180.0 0.1616  0.304   45.7 2000.0 1998.0   17.0
   71306347 5460.0  180.0 0.1516  0.304   43.2 2000.0 1998.0   17.0
   71307349 6660.0  240.0 0.1849 0.4053   40.0 2000.0 1998.0   17.0
   71308349 5820.0   60.0 0.1616 0.1013  126.0 2000.0 1998.0   17.0
   71309349 5340.0   60.0 0.1483 0.1013  116.1 2000.0 1998.0   17.0
   71310350 5760.0  120.0 0.1599 0.2026   65.1 2000.0 1998.0   17.0
   71311351 5400.0  180.0 0.1499  0.304   42.8 2000.0 1998.0   17.0
   71312352 6840.0  300.0 0.1899 0.5066   33.8 2000.0 1998.0   17.0
   71313353 5580.0   60.0 0.1549 0.1013  121.0 2000.0 1998.0   17.0
   71314354 6600.0  120.0 0.1832 0.2026   73.8 2000.0 1998.0   17.0
   71315356 6360.0    0.0 0.1766    0.0    5.5 2000.0 1998.0   17.0
   71316356 5580.0    0.0 0.1549    0.0    5.5 2000.0 1998.0   17.0
   71317357 5340.0    0.0 0.1483    0.0    5.5 2000.0 1998.0   17.0
   71318357 5460.0  120.0 0.1516 0.2026   62.0 2000.0 1998.0   17.0
   71319358 5940.0  120.0 0.1649 0.2026   67.0 2000.0 1998.0   17.0
   71320359 6300.0  180.0 0.1749  0.304   49.0 2000.0 1998.0   17.0
   71321360 6840.0  120.0 0.1899 0.2026   76.3 2000.0 1998.0   17.0
   71322362 6300.0   60.0 0.1749 0.1013  136.0 2000.0 1998.0   17.0
   71323362 7380.0    0.0 0.2049    0.0    5.5 2000.0 1998.0   17.0
   71324364 4440.0  300.0 0.1233 0.5066   23.9 2000.0 1998.0   17.0
   71325365 6360.0   60.0 0.1766 0.1013  137.2 2000.0 1998.0   17.0
   71326367 7140.0  180.0 0.1982  0.304   54.8 2000.0 1998.0   17.0
   71327369 6960.0  120.0 0.1932 0.2026   77.6 2000.0 1998.0   17.0
   71328369 6180.0   60.0 0.1716 0.1013  133.5 2000.0 1998.0   17.0
   71329369 8100.0  120.0 0.2249 0.2026   89.4 2000.0 1998.0   17.0
   71330372 7020.0   60.0 0.1949 0.1013  150.9 2000.0 1998.0   17.0
   71331373 6660.0  180.0 0.1849  0.304   51.5 2000.0 1998.0   17.0
   71332373 6300.0  180.0 0.1749  0.304   49.0 2000.0 1998.0   17.0
   71333374 6600.0   60.0 0.1832 0.1013  149.6 2000.0 1998.0   17.0
   71334375 5880.0  360.0 0.1633 0.6079   24.8 2000.0 1999.0   17.0
   71335377 6120.0   60.0 0.1699 0.1013  138.4 2000.0 1999.0   17.0
   71336377 6840.0  120.0 0.1899 0.2026   76.3 2000.0 1998.0   17.0
   71337379 5460.0  420.0 0.1516 0.7092   21.6 2000.0 1998.0   17.0
   71338380 5520.0    0.0 0.1533    0.0    5.5 2000.0 1998.0   17.0
   71339380 7020.0  180.0 0.1949  0.304   54.0 2000.0 1998.0   17.0
   71340381 6600.0   60.0 0.1832 0.1013  142.2 2000.0 1998.0   17.0
   71341382 6600.0   60.0 0.1832 0.1013  142.2 2000.0 1998.0   17.0
   71342383 6420.0    0.0 0.1782    0.0    5.5 2000.0 1998.0   17.0
   71343383 6360.0  240.0 0.1766 0.4053   38.4 2000.0 1998.0   17.0
   71344384 5640.0    0.0 0.1566    0.0    5.5 2000.0 1998.0   17.0
   71345385 7200.0  180.0 0.1999  0.304   55.2 2000.0 1998.0   17.0
   71346386 5700.0  300.0 0.1583 0.5066   29.1 2000.0 1998.0   17.0
   71347387 6840.0   60.0 0.1899 0.1013  147.1 2000.0 1998.0   17.0
   71348387 5820.0  180.0 0.1616  0.304   45.7 2000.0 1998.0   17.0
   71349389 6480.0   60.0 0.1799 0.1013  139.7 2000.0 1998.0   17.0
   71350391 6660.0   60.0 0.1849 0.1013  143.4 2000.0 1998.0   17.0
   71351391 5880.0    0.0 0.1633    0.0    5.5 2000.0 1998.0   17.0
   71352391 6000.0  120.0 0.1666 0.2026   67.6 2000.0 1998.0   17.0
   71353392 6540.0  180.0 0.1816  0.304   50.6 2000.0 1998.0   17.0
   71354393 6720.0  120.0 0.1866 0.2026   75.1 2000.0 1998.0   17.0
   71355394 6360.0   60.0 0.1766 0.1013  137.2 2000.0 1998.0   17.0
   71356395 7680.0  180.0 0.2132  0.304   58.5 2000.0 1998.0   17.0
   71357397 5400.0  180.0 0.1499  0.304   42.8 2000.0 1998.0   17.0
   71358398 5460.0  180.0 0.1516  0.304   43.2 2000.0 1998.0   17.0
   71359399 7560.0  240.0 0.2099 0.4053   44.6 2000.0 1998.0   17.0
   71360400 5640.0  120.0 0.1566 0.2026   63.9 2000.0 1998.0   17.0
   71361400 5880.0   60.0 0.1633 0.1013  127.3 2000.0 1998.0   17.0
   71362401 6420.0   60.0 0.1782 0.1013  138.4 2000.0 1998.0   17.0
   71363402 6900.0  120.0 0.1916 0.2026   76.9 2000.0 1998.0   17.0
   71364403 6060.0  180.0 0.1682  0.304   47.3 2000.0 1999.0   17.0
   71365405 6360.0   60.0 0.1766 0.1013  137.2 2000.0 1998.0   17.0
   71366404 6660.0  300.0 0.1849 0.5066   33.1 2000.0 1998.0   17.0
   71367406 6480.0  120.0 0.1799 0.2026   72.6 2000.0 1998.0   17.0
   71368407 6120.0   60.0 0.1699 0.1013  132.2 2000.0 1998.0   17.0
   71369410 6240.0  180.0 0.1732  0.304   48.6 2000.0 1998.0   17.0
   71370409 6720.0  240.0 0.1866 0.4053   40.3 2000.0 1998.0   17.0
   71371409 5700.0   60.0 0.1583 0.1013  123.5 2000.0 1998.0   17.0
   71372410 7500.0  120.0 0.2082 0.2026   83.2 2000.0 1998.0   17.0
   71373411 6480.0   60.0 0.1799 0.1013  139.7 2000.0 1998.0   17.0
   71374412 5880.0  300.0 0.1633 0.5066   29.8 2000.0 1998.0   17.0
   71375414 6720.0  120.0 0.1866 0.2026   75.1 2000.0 1998.0   17.0
   71376414 6780.0  120.0 0.1882 0.2026   75.7 2000.0 1998.0   17.0
   71377416 5100.0  120.0 0.1416 0.2026   58.3 2000.0 1998.0   17.0
   71378416 6000.0  120.0 0.1666 0.2026   67.6 2000.0 1998.0   17.0
   71379418 6480.0  240.0 0.1799 0.4053   39.0 2000.0 1998.0   17.0
   71380418 4920.0  300.0 0.1366 0.5066   25.9 2000.0 1998.0   17.0
   71381419 6600.0  240.0 0.1832 0.4053   39.7 2000.0 1998.0   17.0
   71382420 6420.0  420.0 0.1782 0.7092   24.5 2000.0 1998.0   17.0
   71383421 6780.0  120.0 0.1882 0.2026   75.7 2000.0 1998.0   17.0
   71384422 6300.0  180.0 0.1749  0.304   49.0 2000.0 1998.0   17.0
   71385422 6180.0   60.0 0.1716 0.1013  139.7 2000.0 1998.0   17.0
   71386424 5460.0  120.0 0.1516 0.2026   62.0 2000.0 1998.0   17.0
   71387425 6300.0  180.0 0.1749  0.304   49.0 2000.0 1999.0   17.0
   71388425 5820.0   60.0 0.1616 0.1013  126.0 2000.0 1998.0   17.0
   71389426 6180.0  180.0 0.1716  0.304   48.2 2000.0 1998.0   17.0
   71390427 6360.0  180.0 0.1766  0.304   49.4 2000.0 1998.0   17.0
   71391428 6000.0  120.0 0.1666 0.2026   67.6 2000.0 1998.0   17.0
   71392429 6720.0  240.0 0.1866 0.4053   40.3 2000.0 1998.0   17.0
   71393430 6180.0  180.0 0.1716  0.304   48.2 2000.0 1998.0   17.0
   71394431 5820.0  120.0 0.1616 0.2026   65.8 2000.0 1998.0   17.0
   71395432 6840.0  300.0 0.1899 0.5066   33.8 2000.0 1998.0   17.0
   71396434 5820.0   60.0 0.1616 0.1013  126.0 2000.0 1998.0   17.0
   71397434 5760.0  180.0 0.1599  0.304   45.3 2000.0 1998.0   17.0
   71398435 6120.0  240.0 0.1699 0.4053   37.2 2000.0 1998.0   17.0
   71399436 6240.0   60.0 0.1732 0.1013  134.7 2000.0 1998.0   17.0
   71400436 6120.0  180.0 0.1699  0.304   47.7 2000.0 1998.0   17.0
   71401437 5580.0    0.0 0.1549    0.0    5.5 2000.0 1998.0   17.0
   71402438 6120.0    0.0 0.1699    0.0    5.5 2000.0 1998.0   17.0
   71403439 6480.0  120.0 0.1799 0.2026   72.6 2000.0 1998.0   17.0
   71404440 5820.0  120.0 0.1616 0.2026   65.8 2000.0 1998.0   17.0
   71405442 6540.0  240.0 0.1816 0.4053   39.4 2000.0 1997.0   17.0
   71406443 7500.0  300.0 0.2082 0.5066   36.6 2000.0 1998.0   17.0
   71407444 7260.0  180.0 0.2016  0.304   55.6 2000.0 1998.0   17.0
   71408444 6060.0   60.0 0.1682 0.1013  131.0 2000.0 1998.0   17.0
   71409444 5760.0    0.0 0.1599    0.0    5.5 2000.0 1999.0   17.0
   71410446 5940.0  120.0 0.1649 0.2026   67.0 2000.0 1998.0   17.0
   71411447 6720.0   60.0 0.1866 0.1013  144.7 2000.0 1998.0   17.0
   71412449 6120.0  300.0 0.1699 0.5066   30.8 2000.0 1998.0   17.0
   71413449 6960.0  120.0 0.1932 0.2026   77.6 2000.0 1998.0   17.0
   71414449 5400.0  120.0 0.1499 0.2026   61.4 2000.0 1998.0   17.0
