# 
~VERSION INFORMATION
     VERS.                              2.0:Версия формата LAS
     WRAP.                               NO:Режим одной строчки на временной отчет
~WELL INFORMATION
     STRT.ms                       57116818:Время первой записи в файле
     STOP.ms                       76626414:Время последней записи в файле
     STEP.ms                              0:Шаг времени, 0 - переменный шаг
     NULL.                          -999.25:Метка, нет значения
     DATE.                       02.10.2024:Дата каротажа
      DRV.                                 :Наименование драйвера прибора
     NAME.                          ННКТ(б):Название прибора
     SNUM.                         23613012:Серийный номер прибора
     FRMW.                        0.23.10.2:Версия прошивки на контроллере прибора
~CURVE INFORMATION
     TIME.ms                       {0,11:0}:Время, количество миллисекунд от начало суток
     NTNC.имп/мин                          :Счёт, ближний зонд ННКТ
     FTNC.у.е.                             :Счёт, дальний зонд ННКТ
     NTNL.имп/мин                          :Счёт нормированный на счёт в воде, ближний зонд ННКТ
     FTNL.у.е.                             :Счёт нормированный на счёт в воде, дальний зонд ННКТ
     TRNP.%                                :Пористость по водородосодержанию ННКТ
     UHVS.В                                :Установленное напряжение на высоковольтнике
     UHVM.В                                :Измеренное напряжение на высоковольтнике
       MT.°C                               :Температура
~OTHER INFORMATION


~A     TIME   NTNC   FTNC   NTNL   FTNL   TRNP   UHVS   UHVM     MT
# ...
   61014590 1860.0  480.0 0.0516 0.8105   10.3 2000.0 1998.0   17.0
   61015591 1680.0  540.0 0.0466 0.9119    9.4 2000.0 1998.0   17.0
   61016592 1800.0  240.0   0.05 0.4053   14.8 2000.0 1998.0   17.0
   61017593 1440.0  300.0   0.04 0.5066   11.5 2000.0 1998.0   17.0
   61018594 2040.0  180.0 0.0566  0.304   19.6 2000.0 1998.0   17.0
   61019595 2100.0  240.0 0.0583 0.4053   16.4 2000.0 1999.0   17.0
   61020596 1500.0  300.0 0.0416 0.5066   12.0 2000.0 1998.0   17.0
   61021597 2040.0  120.0 0.0566 0.2026   26.6 2000.0 1998.0   17.0
   61022599 2100.0  360.0 0.0583 0.6079   12.7 2000.0 1998.0   17.0
   61023599 2280.0  120.0 0.0633 0.2026   27.9 2000.0 1998.0   17.0
   61024599 1860.0  360.0 0.0516 0.6079   12.3 2000.0 1998.0   17.0
   61025600 1740.0  300.0 0.0483 0.5066   12.7 2000.0 1998.0   17.0
   61026602 1380.0  480.0 0.0383 0.8105    9.1 2000.0 1998.0   17.0
   61027602 2580.0  300.0 0.0716 0.5066   16.2 2000.0 1998.0   17.0
   61028603 2340.0  300.0  0.065 0.5066   15.2 2000.0 1998.0   17.0
   61029603 2040.0  480.0 0.0566 0.8105   10.8 2000.0 1998.0   17.0
   61030605 1380.0  240.0 0.0383 0.4053   12.6 2000.0 1998.0   17.0
   61031606 2280.0  120.0 0.0633 0.2026   29.1 2000.0 1998.0   17.0
   61032606 2700.0  120.0  0.075 0.2026   33.5 2000.0 1998.0   17.0
   61033608 2820.0  360.0 0.0783 0.6079   15.2 2000.0 1998.0   17.0
   61034609 1740.0  180.0 0.0483  0.304   17.5 2000.0 1998.0   17.0
   61035610 2580.0  420.0 0.0716 0.7092   13.1 2000.0 1998.0   17.0
   61036610 1920.0  600.0 0.0533 1.0132    9.5 2000.0 1997.0   17.0
   61037611 2160.0  240.0   0.06 0.4053   16.7 2000.0 1998.0   17.0
   61038612 1920.0  360.0 0.0533 0.6079   12.1 2000.0 1998.0   17.0
   61039613 1860.0  420.0 0.0516 0.7092   11.0 2000.0 1998.0   17.0
   61040615 1980.0  180.0  0.055  0.304   19.2 2000.0 1998.0   17.0
   61041616 2460.0  300.0 0.0683 0.5066   15.7 2000.0 1998.0   17.0
   61042616 2580.0  240.0 0.0716 0.4053   18.9 2000.0 1998.0   17.0
   61043617 2460.0  180.0 0.0683  0.304   22.5 2000.0 1998.0   17.0
   61044617 2100.0  240.0 0.0583 0.4053   16.4 2000.0 1998.0   17.0
   61045617 2400.0  180.0 0.0666  0.304   22.1 2000.0 1998.0   17.0
   61046618 2340.0  480.0  0.065 0.8105   11.6 2000.0 1998.0   17.0
   61047618 1920.0  300.0 0.0533 0.5066   13.4 2000.0 1998.0   17.0
   61048621 2460.0  360.0 0.0683 0.6079   14.0 2000.0 1998.0   17.0
   61049622 2640.0  180.0 0.0733  0.304   23.7 2000.0 1998.0   17.0
   61050623 2640.0  180.0 0.0733  0.304   23.7 2000.0 1998.0   17.0
   61051625 2460.0  120.0 0.0683 0.2026   31.0 2000.0 1998.0   17.0
   61052626 3240.0  180.0   0.09  0.304   27.9 2000.0 1998.0   17.0
   61053626 1920.0  360.0 0.0533 0.6079   12.1 2000.0 1998.0   17.0
   61054627 2280.0   60.0 0.0633 0.1013   52.7 2000.0 1998.0   17.0
   61055628 2280.0  360.0 0.0633 0.6079   13.4 2000.0 1998.0   17.0
   61056629 2220.0  120.0 0.0616 0.2026   28.5 2000.0 1998.0   17.0
   61057630 2160.0  180.0   0.06  0.304   20.4 2000.0 1998.0   17.0
   61058630 1920.0  120.0 0.0533 0.2026   25.4 2000.0 1998.0   17.0
   61059631 1380.0  180.0 0.0383  0.304   15.0 2000.0 1998.0   17.0
   61060632 2040.0  240.0 0.0566 0.4053   16.1 2000.0 1998.0   17.0
   61061633 2100.0  360.0 0.0583 0.6079   12.7 2000.0 1998.0   17.0
   61062635 3000.0  240.0 0.0833 0.4053   21.0 2000.0 1998.0   17.0
   61063634 2460.0  420.0 0.0683 0.7092   12.8 2000.0 1998.0   17.0
   61064636 2100.0  600.0 0.0583 1.0132    9.8 2000.0 1998.0   17.0
   61065637 2520.0  180.0   0.07  0.304   22.9 2000.0 1998.0   17.0
   61066638 2400.0  120.0 0.0666 0.2026   30.3 2000.0 1998.0   17.0
   61067639 1800.0  360.0   0.05 0.6079   11.7 2000.0 1997.0   17.0
   61068640 2700.0  420.0  0.075 0.7092   13.5 2000.0 1998.0   17.0
   61069641 2040.0  300.0 0.0566 0.5066   13.9 2000.0 1998.0   17.0
   61070642 1440.0  360.0   0.04 0.6079   10.5 2000.0 1998.0   17.0
   61071643 2520.0  120.0   0.07 0.2026   31.6 2000.0 1998.0   17.0
   61072644 1980.0  360.0  0.055 0.6079   12.3 2000.0 1998.0   17.0
   61073645 2160.0  240.0   0.06 0.4053   17.3 2000.0 1998.0   17.0
   61074645 2520.0  360.0   0.07 0.6079   13.8 2000.0 1998.0   17.0
   61075646 2400.0  480.0 0.0666 0.8105   11.7 2000.0 1998.0   17.0
   61076647 1380.0  240.0 0.0383 0.4053   12.6 2000.0 1998.0   17.0
   61077648 2400.0  300.0 0.0666 0.5066   15.9 2000.0 1998.0   17.0
   61078649 1800.0  300.0   0.05 0.5066   13.0 2000.0 1998.0   17.0
   61079651 2160.0  180.0   0.06  0.304   20.4 2000.0 1998.0   17.0
   61080651 1860.0  840.0 0.0516 1.4184    8.2 2000.0 1998.0   17.0
   61081652 1980.0  300.0  0.055 0.5066   13.7 2000.0 1998.0   17.0
   61082652 2040.0  480.0 0.0566 0.8105   10.8 2000.0 1998.0   17.0
   61083654 2880.0  360.0   0.08 0.6079   15.4 2000.0 1998.0   17.0
   61084656 2040.0   60.0 0.0566 0.1013   47.7 2000.0 1998.0   17.0
   61085656 1980.0  360.0  0.055 0.6079   12.3 2000.0 1998.0   17.0
   61086658 1740.0  300.0 0.0483 0.5066   12.7 2000.0 1998.0   17.0
   61087658 2160.0  240.0   0.06 0.4053   16.7 2000.0 1998.0   17.0
   61088659 2340.0  480.0  0.065 0.8105   11.6 2000.0 1998.0   17.0
   61089660 2400.0  600.0 0.0666 1.0132   10.5 2000.0 1998.0   17.0
   61090661 2580.0  360.0 0.0716 0.6079   14.4 2000.0 1998.0   17.0
   61091662 2580.0  420.0 0.0716 0.7092   13.1 2000.0 1998.0   17.0
   61092663 1980.0  420.0  0.055 0.7092   11.4 2000.0 1998.0   17.0
   61093664 2160.0  420.0   0.06 0.7092   11.9 2000.0 1998.0   17.0
   61094666 1980.0  240.0  0.055 0.4053   15.7 2000.0 1998.0   17.0
   61095667 2040.0  300.0 0.0566 0.5066   13.9 2000.0 1998.0   17.0
   61096668 1680.0  360.0 0.0466 0.6079   11.3 2000.0 1998.0   17.0
   61097668 2220.0  360.0 0.0616 0.6079   13.2 2000.0 1998.0   17.0
   61098669 2220.0  300.0 0.0616 0.5066   14.7 2000.0 1998.0   17.0
   61099670 1920.0  180.0 0.0533  0.304   18.8 2000.0 1998.0   17.0
   61100671 1500.0  120.0 0.0416 0.2026   21.0 2000.0 1998.0   17.0
   61101672 2400.0  480.0 0.0666 0.8105   11.7 2000.0 1998.0   17.0
   61102672 1920.0   60.0 0.0533 0.1013   45.3 2000.0 1998.0   17.0
   61103674 2340.0  360.0  0.065 0.6079   13.6 2000.0 1998.0   17.0
   61104675 1980.0  420.0  0.055 0.7092   11.4 2000.0 1998.0   17.0
   61105676 2400.0  540.0 0.0666 0.9119   11.0 2000.0 1998.0   17.0
   61106677 1800.0  360.0   0.05 0.6079   11.7 2000.0 1998.0   17.0
   61107678 2880.0  300.0   0.08 0.5066   17.4 2000.0 1998.0   17.0
   61108680 1980.0  180.0  0.055  0.304   19.2 2000.0 1998.0   17.0
   61109681 2460.0  300.0 0.0683 0.5066   15.7 2000.0 1998.0   17.0
   61110682 2160.0  300.0   0.06 0.5066   14.4 2000.0 1999.0   17.0
   61111683 1920.0  180.0 0.0533  0.304   18.8 2000.0 1998.0   17.0
   61112685 2160.0  180.0   0.06  0.304   20.4 2000.0 1998.0   17.0
   61113684 2940.0  240.0 0.0816 0.4053   20.7 2000.0 1998.0   17.0
   61114685 2100.0  240.0 0.0583 0.4053   16.4 2000.0 1998.0   17.0
   61115686 2640.0  540.0 0.0733 0.9119   11.6 2000.0 1998.0   17.0
   61116687 1860.0  360.0 0.0516 0.6079   11.9 2000.0 1998.0   17.0
   61117687 3060.0  300.0  0.085 0.5066   18.2 2000.0 1998.0   17.0
   61118688 2100.0  300.0 0.0583 0.5066   14.2 2000.0 1998.0   17.0
   61119690 2100.0  420.0 0.0583 0.7092   11.7 2000.0 1998.0   17.0
   61120692 2640.0  420.0 0.0733 0.7092   13.3 2000.0 1998.0   17.0
   61121692 2220.0  540.0 0.0616 0.9119   10.6 2000.0 1998.0   17.0
   61122693 1800.0  180.0   0.05  0.304   18.3 2000.0 1998.0   17.0
   61123696 1740.0  360.0 0.0483 0.6079   11.3 2000.0 1998.0   17.0
   61124695 1680.0  420.0 0.0466 0.7092   10.5 2000.0 1998.0   17.0
   61125695 2220.0  480.0 0.0616 0.8105   11.6 2000.0 1998.0   17.0
   61126697 2040.0   60.0 0.0566 0.1013   47.7 2000.0 1998.0   17.0
   61127698 1680.0  420.0 0.0466 0.7092   10.5 2000.0 1998.0   17.0
   61128700 2100.0  120.0 0.0583 0.2026   27.2 2000.0 1998.0   17.0
   61129700 1620.0  360.0  0.045 0.6079   11.1 2000.0 1998.0   17.0
   61130701 2220.0  420.0 0.0616 0.7092   12.1 2000.0 1999.0   17.0
   61131703 2280.0  300.0 0.0633 0.5066   14.9 2000.0 1998.0   17.0
