# 
~VERSION INFORMATION
     VERS.                              2.0:Версия формата LAS
     WRAP.                               NO:Режим одной строчки на временной отчет
~WELL INFORMATION
     STRT.ms                       57116818:Время первой записи в файле
     STOP.ms                       76626414:Время последней записи в файле
     STEP.ms                              0:Шаг времени, 0 - переменный шаг
     NULL.                          -999.25:Метка, нет значения
     DATE.                       02.10.2024:Дата каротажа
      DRV.                                 :Наименование драйвера прибора
     NAME.                          ННКТ(б):Название прибора
     SNUM.                         23613012:Серийный номер прибора
     FRMW.                        0.23.10.2:Версия прошивки на контроллере прибора
~CURVE INFORMATION
     TIME.ms                       {0,11:0}:Время, количество миллисекунд от начало суток
     NTNC.имп/мин                          :Счёт, ближний зонд ННКТ
     FTNC.у.е.                             :Счёт, дальний зонд ННКТ
     NTNL.имп/мин                          :Счёт нормированный на счёт в воде, ближний зонд ННКТ
     FTNL.у.е.                             :Счёт нормированный на счёт в воде, дальний зонд ННКТ
     TRNP.%                                :Пористость по водородосодержанию ННКТ
     UHVS.В                                :Установленное напряжение на высоковольтнике
     UHVM.В                                :Измеренное напряжение на высоковольтнике
       MT.°C                               :Температура
~OTHER INFORMATION


~A     TIME   NTNC   FTNC   NTNL   FTNL   TRNP   UHVS   UHVM     MT
# ...
   59715343 2040.0  360.0 0.0566 0.6079   13.0 2000.0 1998.0   20.0
   59716344 2100.0  360.0 0.0583 0.6079   12.3 2000.0 1998.0   20.0
   59717346 1620.0  300.0  0.045 0.5066   12.5 2000.0 1998.0   20.0
   59718346 1980.0  360.0  0.055 0.6079   12.3 2000.0 1999.0   20.0
   59719347 2160.0  540.0   0.06 0.9119   10.5 2000.0 1998.0   20.0
   59720348 2280.0  600.0 0.0633 1.0132   10.2 2000.0 1998.0   20.0
   59721348 2400.0  660.0 0.0666 1.1145   10.0 2000.0 1998.0   20.0
   59722349 1620.0  120.0  0.045 0.2026   22.3 2000.0 1998.0   20.0
   59723350 1800.0  480.0   0.05 0.8105   10.2 2000.0 1998.0   20.0
   59724351 2340.0  480.0  0.065 0.8105   11.6 2000.0 1998.0   20.0
   59725353 2280.0  300.0 0.0633 0.5066   14.9 2000.0 1998.0   20.0
   59726353 1560.0  420.0 0.0433 0.7092   10.1 2000.0 1998.0   20.0
   59727354 1680.0  660.0 0.0466 1.1145    8.7 2000.0 1998.0   20.0
   59728354 1800.0   60.0   0.05 0.1013   42.8 2000.0 1998.0   20.0
   59729355 2700.0  120.0  0.075 0.2026   33.5 2000.0 1998.0   20.0
   59730356 2160.0  240.0   0.06 0.4053   16.7 2000.0 1998.0   20.0
   59731358 1680.0  240.0 0.0466 0.4053   14.2 2000.0 1998.0   20.0
   59732357 2400.0  300.0 0.0666 0.5066   15.4 2000.0 1998.0   20.0
   59733359 2220.0  240.0 0.0616 0.4053   17.0 2000.0 1998.0   20.0
   59734360 1500.0  360.0 0.0416 0.6079   10.7 2000.0 1998.0   20.0
   59735361 1560.0  420.0 0.0433 0.7092   10.1 2000.0 1998.0   20.0
   59736362 2580.0  180.0 0.0716  0.304   23.3 2000.0 1998.0   20.0
   59737364 2160.0  180.0   0.06  0.304   20.4 2000.0 1998.0   20.0
   59738364 2340.0  300.0  0.065 0.5066   15.2 2000.0 1998.0   20.0
   59739366 2100.0  420.0 0.0583 0.7092   11.7 2000.0 1998.0   20.0
   59740366 2460.0  300.0 0.0683 0.5066   15.7 2000.0 1998.0   20.0
   59741366 1980.0  360.0  0.055 0.6079   12.3 2000.0 1998.0   20.0
   59742369 2040.0  120.0 0.0566 0.2026   26.6 2000.0 1998.0   20.0
   59743369 2580.0  300.0 0.0716 0.5066   16.2 2000.0 1998.0   20.0
   59744371 2580.0  300.0 0.0716 0.5066   16.2 2000.0 1998.0   20.0
   59745371 3300.0  540.0 0.0916 0.9119   13.1 2000.0 1998.0   20.0
   59746372 2340.0  780.0  0.065 1.3171    9.2 2000.0 1998.0   20.0
   59747373 2040.0  300.0 0.0566 0.5066   13.9 2000.0 1998.0   20.0
   59748374 2040.0  120.0 0.0566 0.2026   26.6 2000.0 1998.0   20.0
   59749375 1860.0  780.0 0.0516 1.3171    8.5 2000.0 1998.0   20.0
   59750376 1740.0  420.0 0.0483 0.7092   10.6 2000.0 1998.0   20.0
   59751377 2040.0  300.0 0.0566 0.5066   13.9 2000.0 1998.0   20.0
   59752378 2040.0  360.0 0.0566 0.6079   12.5 2000.0 1998.0   20.0
   59753379 1860.0  300.0 0.0516 0.5066   13.2 2000.0 1998.0   20.0
   59754380 1920.0  300.0 0.0533 0.5066   13.4 2000.0 1998.0   20.0
   59755381 2820.0  360.0 0.0783 0.6079   15.2 2000.0 1998.0   20.0
   59756381 2400.0  540.0 0.0666 0.9119   11.0 2000.0 1998.0   20.0
   59757383 1860.0  480.0 0.0516 0.8105   10.3 2000.0 1998.0   20.0
   59758383 1860.0  180.0 0.0516  0.304   18.3 2000.0 1998.0   20.0
   59759384 2100.0  300.0 0.0583 0.5066   14.2 2000.0 1998.0   20.0
   59760386 2340.0  240.0  0.065 0.4053   17.6 2000.0 1998.0   20.0
   59761387 2340.0  360.0  0.065 0.6079   13.6 2000.0 1998.0   20.0
   59762387 3120.0  240.0 0.0866 0.4053   21.6 2000.0 1998.0   20.0
   59763390 1920.0  120.0 0.0533 0.2026   25.4 2000.0 1998.0   20.0
   59764389 2280.0  300.0 0.0633 0.5066   15.4 2000.0 1998.0   20.0
   59765390 2460.0  180.0 0.0683  0.304   21.6 2000.0 1998.0   20.0
   59766391 2640.0  360.0 0.0733 0.6079   14.6 2000.0 1998.0   20.0
   59767392 2280.0  540.0 0.0633 0.9119   10.7 2000.0 1998.0   20.0
   59768392 3240.0  240.0   0.09 0.4053   23.2 2000.0 1998.0   20.0
   59769394 2640.0  300.0 0.0733 0.5066   16.4 2000.0 1998.0   20.0
   59770395 2820.0  300.0 0.0783 0.5066   17.2 2000.0 1998.0   20.0
   59771396 2100.0  240.0 0.0583 0.4053   16.4 2000.0 1998.0   20.0
   59772396 2700.0  300.0  0.075 0.5066   16.7 2000.0 1998.0   20.0
   59773398 3120.0  180.0 0.0866  0.304   27.0 2000.0 1998.0   20.0
   59774398 1920.0  180.0 0.0533  0.304   18.8 2000.0 1998.0   20.0
   59775399 2280.0  660.0 0.0633 1.1145    9.8 2000.0 1998.0   20.0
   59776401 1980.0  420.0  0.055 0.7092   11.4 2000.0 1998.0   20.0
   59777401 2400.0  480.0 0.0666 0.8105   11.7 2000.0 1998.0   20.0
   59778403 1740.0  420.0 0.0483 0.7092   10.6 2000.0 1998.0   20.0
   59779403 2220.0  240.0 0.0616 0.4053   17.0 2000.0 1998.0   20.0
   59780404 2580.0  360.0 0.0716 0.6079   14.4 2000.0 1998.0   20.0
   59781405 2340.0  240.0  0.065 0.4053   17.6 2000.0 1998.0   20.0
   59782406 2760.0  180.0 0.0766  0.304   24.5 2000.0 1998.0   20.0
   59783407 2700.0  360.0  0.075 0.6079   14.8 2000.0 1998.0   20.0
   59784408 2100.0  240.0 0.0583 0.4053   16.4 2000.0 1998.0   20.0
   59785409 2760.0  180.0 0.0766  0.304   24.5 2000.0 1998.0   20.0
   59786410 1800.0  360.0   0.05 0.6079   11.7 2000.0 1998.0   20.0
   59787411 1980.0  240.0  0.055 0.4053   15.7 2000.0 1998.0   20.0
   59788412 2640.0  360.0 0.0733 0.6079   14.6 2000.0 1998.0   20.0
   59789414 2580.0  300.0 0.0716 0.5066   16.2 2000.0 1998.0   20.0
   59790413 1800.0  540.0   0.05 0.9119    9.6 2000.0 1998.0   20.0
   59791415 2580.0  300.0 0.0716 0.5066   16.2 2000.0 1998.0   20.0
   59792415 1920.0  360.0 0.0533 0.6079   12.1 2000.0 1998.0   20.0
   59793417 2700.0  420.0  0.075 0.7092   13.5 2000.0 1998.0   20.0
   59794417 2340.0  420.0  0.065 0.7092   12.4 2000.0 1998.0   20.0
   59795418 2580.0  360.0 0.0716 0.6079   14.4 2000.0 1998.0   20.0
   59796419 2520.0  360.0   0.07 0.6079   14.2 2000.0 1998.0   20.0
   59797420 1800.0  300.0   0.05 0.5066   13.0 2000.0 1998.0   20.0
   59798421 2040.0  420.0 0.0566 0.7092   11.5 2000.0 1998.0   20.0
   59799422 2640.0   60.0 0.0733 0.1013   60.2 2000.0 1998.0   20.0
   59800423 3420.0  480.0  0.095 0.8105   14.3 2000.0 1998.0   20.0
   59801424 1140.0  360.0 0.0317 0.6079    9.4 2000.0 1998.0   20.0
   59802425 1860.0  240.0 0.0516 0.4053   15.1 2000.0 1998.0   20.0
   59803426 2520.0  360.0   0.07 0.6079   14.2 2000.0 1998.0   20.0
   59804427 2100.0  540.0 0.0583 0.9119   10.3 2000.0 1998.0   20.0
   59805428 2880.0   60.0   0.08 0.1013   65.1 2000.0 1998.0   20.0
   59806429 3000.0  240.0 0.0833 0.4053   21.0 2000.0 1998.0   20.0
   59807429 1920.0  240.0 0.0533 0.4053   15.4 2000.0 1998.0   20.0
   59808430 2040.0  300.0 0.0566 0.5066   13.9 2000.0 1998.0   20.0
   59809431 2100.0  240.0 0.0583 0.4053   16.4 2000.0 1998.0   20.0
   59810433 2340.0  240.0  0.065 0.4053   17.6 2000.0 1998.0   20.0
   59811434 2340.0  300.0  0.065 0.5066   15.2 2000.0 1998.0   20.0
   59812434 2640.0   60.0 0.0733 0.1013   60.2 2000.0 1998.0   20.0
   59813435 2100.0  240.0 0.0583 0.4053   16.4 2000.0 1998.0   20.0
   59814436 1800.0  420.0   0.05 0.7092   10.8 2000.0 1998.0   20.0
   59815436 1980.0  360.0  0.055 0.6079   12.3 2000.0 1998.0   19.0
   59816438 1800.0  360.0   0.05 0.6079   11.7 2000.0 1998.0   20.0
   59817439 1800.0  300.0   0.05 0.5066   13.4 2000.0 1998.0   20.0
   59818439 2580.0  240.0 0.0716 0.4053   18.2 2000.0 1998.0   20.0
   59819440 2520.0  180.0   0.07  0.304   22.9 2000.0 1998.0   19.0
   59820441 2460.0  420.0 0.0683 0.7092   13.1 2000.0 1998.0   19.0
   59821442 1980.0  180.0  0.055  0.304   19.2 2000.0 1998.0   19.0
   59822444 2640.0  420.0 0.0733 0.7092   13.3 2000.0 1998.0   19.0
   59823446 1920.0  240.0 0.0533 0.4053   15.4 2000.0 1998.0   19.0
   59824445 2400.0  300.0 0.0666 0.5066   15.4 2000.0 1997.0   19.0
   59825446 2220.0  300.0 0.0616 0.5066   14.7 2000.0 1999.0   19.0
   59826448 2520.0  300.0   0.07 0.5066   15.9 2000.0 1998.0   19.0
   59827448 2460.0  360.0 0.0683 0.6079   14.0 2000.0 1998.0   19.0
   59828449 2220.0  300.0 0.0616 0.5066   14.7 2000.0 1998.0   19.0
   59829451 1740.0  360.0 0.0483 0.6079   11.5 2000.0 1998.0   19.0
   59830452 2760.0  240.0 0.0766 0.4053   19.8 2000.0 1998.0   19.0
   59831452 2160.0  300.0   0.06 0.5066   14.4 2000.0 1998.0   19.0
   59832454 2100.0  420.0 0.0583 0.7092   11.7 2000.0 1998.0   19.0
