# 
~VERSION INFORMATION
     VERS.                              2.0:Версия формата LAS
     WRAP.                               NO:Режим одной строчки на временной отчет
~WELL INFORMATION
     STRT.ms                       57116818:Время первой записи в файле
     STOP.ms                       76626414:Время последней записи в файле
     STEP.ms                              0:Шаг времени, 0 - переменный шаг
     NULL.                          -999.25:Метка, нет значения
     DATE.                       02.10.2024:Дата каротажа
      DRV.                                 :Наименование драйвера прибора
     NAME.                          ННКТ(б):Название прибора
     SNUM.                         23613012:Серийный номер прибора
     FRMW.                        0.23.10.2:Версия прошивки на контроллере прибора
~CURVE INFORMATION
     TIME.ms                       {0,11:0}:Время, количество миллисекунд от начало суток
     NTNC.имп/мин                          :Счёт, ближний зонд ННКТ
     FTNC.у.е.                             :Счёт, дальний зонд ННКТ
     NTNL.имп/мин                          :Счёт нормированный на счёт в воде, ближний зонд ННКТ
     FTNL.у.е.                             :Счёт нормированный на счёт в воде, дальний зонд ННКТ
     TRNP.%                                :Пористость по водородосодержанию ННКТ
     UHVS.В                                :Установленное напряжение на высоковольтнике
     UHVM.В                                :Измеренное напряжение на высоковольтнике
       MT.°C                               :Температура
~OTHER INFORMATION


~A     TIME   NTNC   FTNC   NTNL   FTNL   TRNP   UHVS   UHVM     MT
# ...
   69998097 5280.0  180.0 0.1466  0.304   41.9 2000.0 1998.0   17.0
   69999098 6240.0   60.0 0.1732 0.1013  134.7 2000.0 1998.0   17.0
   70000099 6480.0   60.0 0.1799 0.1013  139.7 2000.0 1998.0   17.0
   70001100 6840.0   60.0 0.1899 0.1013  147.1 2000.0 1998.0   17.0
   70002101 6120.0  180.0 0.1699  0.304   47.7 2000.0 1998.0   17.0
   70003103 6660.0   60.0 0.1849 0.1013  143.4 2000.0 1998.0   17.0
   70004103 5880.0  120.0 0.1633 0.2026   66.4 2000.0 1998.0   17.0
   70005104 6060.0  240.0 0.1682 0.4053   36.9 2000.0 1998.0   17.0
   70006106 4860.0    0.0 0.1349    0.0    5.5 2000.0 1998.0   17.0
   70007105 5760.0  180.0 0.1599  0.304   45.3 2000.0 1998.0   17.0
   70008106 6480.0  120.0 0.1799 0.2026   72.6 2000.0 1999.0   17.0
   70009107 6600.0  120.0 0.1832 0.2026   73.8 2000.0 1998.0   17.0
   70010110 5460.0  180.0 0.1516  0.304   43.2 2000.0 1998.0   17.0
   70011109 6180.0  180.0 0.1716  0.304   48.2 2000.0 1998.0   17.0
   70012110 5880.0  180.0 0.1633  0.304   46.1 2000.0 1999.0   17.0
   70013111 6360.0   60.0 0.1766 0.1013  137.2 2000.0 1999.0   17.0
   70014111 5760.0  240.0 0.1599 0.4053   35.3 2000.0 1998.0   17.0
   70015112 6840.0   60.0 0.1899 0.1013  147.1 2000.0 1998.0   17.0
   70016113 5580.0   60.0 0.1549 0.1013  121.0 2000.0 1998.0   17.0
   70017115 6540.0   60.0 0.1816 0.1013  140.9 2000.0 1998.0   17.0
   70018116 5580.0  120.0 0.1549 0.2026   63.3 2000.0 1998.0   17.0
   70019116 6060.0  180.0 0.1682  0.304   47.3 2000.0 1999.0   17.0
   70020117 5520.0  180.0 0.1533  0.304   43.6 2000.0 1998.0   17.0
   70021118 7380.0  300.0 0.2049 0.5066   36.1 2000.0 1998.0   17.0
   70022120 5640.0  120.0 0.1566 0.2026   63.9 2000.0 1998.0   17.0
   70023121 5760.0  240.0 0.1599 0.4053   35.3 2000.0 1998.0   17.0
   70024122 5640.0   60.0 0.1566 0.1013  128.5 2000.0 1999.0   17.0
   70025124 7560.0  180.0 0.2099  0.304   55.2 2000.0 1998.0   17.0
   70026124 6000.0  120.0 0.1666 0.2026   67.6 2000.0 1998.0   17.0
   70027124 5760.0  360.0 0.1599 0.6079   26.4 2000.0 1998.0   17.0
   70028126 6360.0   60.0 0.1766 0.1013  137.2 2000.0 1998.0   17.0
   70029127 7320.0  120.0 0.2032 0.2026   81.3 2000.0 1999.0   17.0
   70030128 5880.0   60.0 0.1633 0.1013  127.3 2000.0 1998.0   17.0
   70031129 6180.0  300.0 0.1716 0.5066   31.1 2000.0 1998.0   17.0
   70032131 6840.0   60.0 0.1899 0.1013  147.1 2000.0 1998.0   17.0
   70033131 5760.0  180.0 0.1599  0.304   45.3 2000.0 1998.0   17.0
   70034132 6540.0    0.0 0.1816    0.0    5.5 2000.0 1998.0   17.0
   70035133 5340.0  180.0 0.1483  0.304   42.4 2000.0 1998.0   17.0
   70036135 5580.0  120.0 0.1549 0.2026   63.3 2000.0 1999.0   17.0
   70037136 6600.0  180.0 0.1832  0.304   51.1 2000.0 1998.0   17.0
   70038137 5880.0   60.0 0.1633 0.1013  127.3 2000.0 1998.0   17.0
   70039139 5640.0  300.0 0.1566 0.5066   28.9 2000.0 1998.0   17.0
   70040139 5880.0   60.0 0.1633 0.1013  127.3 2000.0 1998.0   17.0
   70041140 5520.0  120.0 0.1533 0.2026   62.7 2000.0 1998.0   17.0
   70042141 6360.0   60.0 0.1766 0.1013  137.2 2000.0 1998.0   17.0
   70043142 6660.0  120.0 0.1849 0.2026   74.5 2000.0 1998.0   17.0
   70044143 6720.0    0.0 0.1866    0.0    5.5 2000.0 1999.0   17.0
   70045144 5460.0   60.0 0.1516 0.1013  118.6 2000.0 1998.0   17.0
   70046145 6180.0    0.0 0.1716    0.0    5.5 2000.0 1998.0   17.0
   70047145 6000.0  120.0 0.1666 0.2026   67.6 2000.0 1998.0   17.0
   70048147 6840.0  120.0 0.1899 0.2026   76.3 2000.0 1998.0   17.0
   70049148 5400.0  120.0 0.1499 0.2026   61.4 2000.0 1998.0   17.0
   70050147 6420.0   60.0 0.1782 0.1013  138.4 2000.0 1998.0   17.0
   70051148 7440.0  120.0 0.2066 0.2026   82.5 2000.0 1998.0   17.0
   70052149 6060.0  120.0 0.1682 0.2026   68.2 2000.0 1998.0   17.0
   70053150 5640.0   60.0 0.1566 0.1013  122.3 2000.0 1998.0   17.0
   70054151 5520.0  300.0 0.1533 0.5066   28.4 2000.0 1998.0   17.0
   70055152 7680.0  300.0 0.2132 0.5066   37.3 2000.0 1998.0   17.0
   70056153 5940.0  120.0 0.1649 0.2026   67.0 2000.0 1998.0   17.0
   70057154 6000.0    0.0 0.1666    0.0    5.5 2000.0 1998.0   17.0
   70058156 6960.0  120.0 0.1932 0.2026   77.6 2000.0 1998.0   17.0
   70059158 6660.0   60.0 0.1849 0.1013  143.4 2000.0 1998.0   17.0
   70060158 6480.0    0.0 0.1799    0.0    5.5 2000.0 1998.0   17.0
   70061159 6480.0  180.0 0.1799  0.304   50.2 2000.0 1998.0   17.0
   70062161 6240.0  180.0 0.1732  0.304   48.6 2000.0 1999.0   17.0
   70063162 7440.0  240.0 0.2066 0.4053   44.0 2000.0 1999.0   17.0
   70064163 5880.0   60.0 0.1633 0.1013  127.3 2000.0 1998.0   17.0
   70065164 7020.0  120.0 0.1949 0.2026   78.2 2000.0 1998.0   17.0
   70066165 6840.0    0.0 0.1899    0.0    5.5 2000.0 1998.0   17.0
   70067166 7320.0    0.0 0.2032    0.0    5.5 2000.0 1998.0   17.0
   70068167 7500.0  240.0 0.2082 0.4053   44.3 2000.0 1998.0   17.0
   70069168 6960.0  180.0 0.1932  0.304   56.0 2000.0 1998.0   17.0
   70070169 5880.0  300.0 0.1633 0.5066   28.6 2000.0 1998.0   17.0
   70071170 6960.0  120.0 0.1932 0.2026   77.6 2000.0 1999.0   17.0
   70072171 6360.0  120.0 0.1766 0.2026   74.5 2000.0 1998.0   17.0
   70073171 6060.0  240.0 0.1682 0.4053   36.9 2000.0 1998.0   17.0
   70074173 6360.0  180.0 0.1766  0.304   49.4 2000.0 1998.0   17.0
   70075174 6660.0   60.0 0.1849 0.1013  143.4 2000.0 1998.0   17.0
   70076175 6300.0  240.0 0.1749 0.4053   38.1 2000.0 1998.0   17.0
   70077176 5640.0   60.0 0.1566 0.1013  122.3 2000.0 1998.0   17.0
   70078177 6780.0    0.0 0.1882    0.0    5.5 2000.0 1999.0   17.0
   70079178 5040.0  120.0 0.1399 0.2026   57.7 2000.0 1999.0   17.0
   70080179 6540.0  120.0 0.1816 0.2026   73.2 2000.0 1998.0   17.0
   70081180 6060.0  180.0 0.1682  0.304   47.3 2000.0 1998.0   17.0
   70082181 6120.0  120.0 0.1699 0.2026   68.9 2000.0 1998.0   17.0
   70083182 6900.0  120.0 0.1916 0.2026   76.9 2000.0 1999.0   17.0
   70084183 6180.0  240.0 0.1716 0.4053   37.5 2000.0 1999.0   17.0
   70085184 6000.0  120.0 0.1666 0.2026   67.6 2000.0 1998.0   17.0
   70086185 5760.0  240.0 0.1599 0.4053   35.3 2000.0 1999.0   17.0
   70087186 5220.0   60.0 0.1449 0.1013  113.6 2000.0 1999.0   17.0
   70088187 6180.0  120.0 0.1716 0.2026   69.5 2000.0 1997.0   17.0
   70089187 5880.0  120.0 0.1633 0.2026   66.4 2000.0 1999.0   17.0
   70090189 6000.0  180.0 0.1666  0.304   46.9 2000.0 1999.0   17.0
   70091190 6000.0   60.0 0.1666 0.1013  129.7 2000.0 1998.0   17.0
   70092191 6720.0    0.0 0.1866    0.0    5.5 2000.0 1998.0   17.0
   70093193 6060.0  120.0 0.1682 0.2026   68.2 2000.0 1998.0   17.0
   70094192 6600.0  360.0 0.1832 0.6079   28.3 2000.0 1998.0   17.0
   70095196 6300.0   60.0 0.1749 0.1013  136.0 2000.0 1998.0   17.0
   70096194 5760.0  120.0 0.1599 0.2026   65.1 2000.0 1998.0   17.0
   70097196 6420.0  180.0 0.1782  0.304   49.8 2000.0 1998.0   17.0
   70098196 6060.0  120.0 0.1682 0.2026   68.2 2000.0 1998.0   17.0
   70099198 6480.0  120.0 0.1799 0.2026   72.6 2000.0 1998.0   17.0
   70100198 6060.0  120.0 0.1682 0.2026   68.2 2000.0 1998.0   17.0
   70101198 5940.0    0.0 0.1649    0.0    5.5 2000.0 1998.0   17.0
   70102199 5400.0  120.0 0.1499 0.2026   61.4 2000.0 1998.0   17.0
   70103200 7140.0    0.0 0.1982    0.0    5.5 2000.0 1998.0   17.0
   70104201 6000.0  180.0 0.1666  0.304   46.9 2000.0 1998.0   17.0
   70105202 5880.0  240.0 0.1633 0.4053   35.9 2000.0 1998.0   17.0
   70106203 6780.0  180.0 0.1882  0.304   52.3 2000.0 1998.0   17.0
   70107204 5460.0   60.0 0.1516 0.1013  118.6 2000.0 1998.0   17.0
   70108206 5760.0  240.0 0.1599 0.4053   35.3 2000.0 1998.0   17.0
   70109206 5820.0  120.0 0.1616 0.2026   65.8 2000.0 1998.0   17.0
   70110208 6000.0  300.0 0.1666 0.5066   30.3 2000.0 1998.0   17.0
   70111209 5580.0  120.0 0.1549 0.2026   63.3 2000.0 1998.0   17.0
   70112210 5880.0  420.0 0.1633 0.7092   22.9 2000.0 1998.0   17.0
   70113212 6720.0  240.0 0.1866 0.4053   40.3 2000.0 1998.0   17.0
   70114213 7020.0   60.0 0.1949 0.1013  150.9 2000.0 1998.0   17.0
   70115214 5700.0   60.0 0.1583 0.1013  123.5 2000.0 1998.0   17.0
