# 
~VERSION INFORMATION
     VERS.                              2.0:Версия формата LAS
     WRAP.                               NO:Режим одной строчки на временной отчет
~WELL INFORMATION
     STRT.ms                       57116818:Время первой записи в файле
     STOP.ms                       76626414:Время последней записи в файле
     STEP.ms                              0:Шаг времени, 0 - переменный шаг
     NULL.                          -999.25:Метка, нет значения
     DATE.                       02.10.2024:Дата каротажа
      DRV.                                 :Наименование драйвера прибора
     NAME.                          ННКТ(б):Название прибора
     SNUM.                         23613012:Серийный номер прибора
     FRMW.                        0.23.10.2:Версия прошивки на контроллере прибора
~CURVE INFORMATION
     TIME.ms                       {0,11:0}:Время, количество миллисекунд от начало суток
     NTNC.имп/мин                          :Счёт, ближний зонд ННКТ
     FTNC.у.е.                             :Счёт, дальний зонд ННКТ
     NTNL.имп/мин                          :Счёт нормированный на счёт в воде, ближний зонд ННКТ
     FTNL.у.е.                             :Счёт нормированный на счёт в воде, дальний зонд ННКТ
     TRNP.%                                :Пористость по водородосодержанию ННКТ
     UHVS.В                                :Установленное напряжение на высоковольтнике
     UHVM.В                                :Измеренное напряжение на высоковольтнике
       MT.°C                               :Температура
~OTHER INFORMATION


~A     TIME   NTNC   FTNC   NTNL   FTNL   TRNP   UHVS   UHVM     MT
# ...
   73895859 7920.0  240.0 0.2199 0.4053   46.5 2000.0 1998.0   17.0
   73896859 8520.0  300.0 0.2365 0.5066   40.8 2000.0 1998.0   17.0
   73897860 7620.0   60.0 0.2116 0.1013  163.3 2000.0 1998.0   17.0
   73898861 8940.0   60.0 0.2482 0.1013  190.6 2000.0 1998.0   17.0
   73899862 7500.0    0.0 0.2082    0.0    5.5 2000.0 1998.0   17.0
   73900862 7560.0    0.0 0.2099    0.0    5.5 2000.0 1998.0   17.0
   73901865 8280.0  360.0 0.2299 0.6079   34.1 2000.0 1998.0   17.0
   73902866 9600.0  180.0 0.2665  0.304   71.8 2000.0 1998.0   17.0
   73903868 7140.0  240.0 0.1982 0.4053   42.5 2000.0 1998.0   17.0
   73904869 6840.0  120.0 0.1899 0.2026   76.3 2000.0 1998.0   17.0
   73905869 7920.0   60.0 0.2199 0.1013  169.5 2000.0 1998.0   17.0
   73906870 7320.0  120.0 0.2032 0.2026   81.3 2000.0 1999.0   17.0
   73907873 7320.0   60.0 0.2032 0.1013  157.1 2000.0 1998.0   17.0
   73908873 8340.0  240.0 0.2316 0.4053   48.7 2000.0 1998.0   17.0
   73909873 9240.0    0.0 0.2565    0.0    5.5 2000.0 1998.0   17.0
   73910874 8100.0   60.0 0.2249 0.1013  173.2 2000.0 1998.0   17.0
   73911875 7140.0    0.0 0.1982    0.0    5.5 2000.0 1998.0   17.0
   73912876 8460.0  360.0 0.2349 0.6079   34.7 2000.0 1998.0   17.0
   73913877 7740.0  240.0 0.2149 0.4053   45.6 2000.0 1998.0   17.0
   73914878 8100.0  120.0 0.2249 0.2026   89.4 2000.0 1998.0   17.0
   73915879 7020.0  120.0 0.1949 0.2026   78.2 2000.0 1998.0   17.0
   73916880 8280.0  240.0 0.2299 0.4053   50.5 2000.0 1998.0   17.0
   73917880 6840.0  360.0 0.1899 0.6079   29.1 2000.0 1998.0   17.0
   73918882 8040.0  180.0 0.2232  0.304   61.0 2000.0 1998.0   17.0
   73919882 7260.0  240.0 0.2016 0.4053   43.1 2000.0 1998.0   17.0
   73920882 8340.0  120.0 0.2316 0.2026   91.9 2000.0 1998.0   17.0
   73921884 7920.0  120.0 0.2199 0.2026   87.5 2000.0 1998.0   17.0
   73922885 8220.0  300.0 0.2282 0.5066   39.5 2000.0 1999.0   17.0
   73923886 7500.0    0.0 0.2082    0.0    5.5 2000.0 1998.0   17.0
   73924886 8640.0  120.0 0.2399 0.2026   95.0 2000.0 1998.0   17.0
   73925887 8100.0  180.0 0.2249  0.304   61.4 2000.0 1999.0   17.0
   73926888 7380.0   60.0 0.2049 0.1013  158.3 2000.0 1998.0   17.0
   73927890 7860.0  300.0 0.2182 0.5066   38.1 2000.0 1998.0   17.0
   73928891 6840.0  120.0 0.1899 0.2026   76.3 2000.0 1999.0   17.0
   73929892 6780.0  120.0 0.1882 0.2026   75.7 2000.0 1998.0   17.0
   73930893 8760.0    0.0 0.2432    0.0    5.5 2000.0 1998.0   17.0
   73931894 7620.0  120.0 0.2116 0.2026   84.4 2000.0 1998.0   17.0
   73932895 7140.0   60.0 0.1982 0.1013  153.4 2000.0 1998.0   17.0
   73933897 7620.0  300.0 0.2116 0.5066   37.1 2000.0 1998.0   17.0
   73934896 7320.0  120.0 0.2032 0.2026   81.3 2000.0 1998.0   17.0
   73935897 9120.0  120.0 0.2532 0.2026   99.9 2000.0 1998.0   17.0
   73936899 7800.0    0.0 0.2166    0.0    5.5 2000.0 1998.0   17.0
   73937900 8700.0  120.0 0.2415 0.2026   95.6 2000.0 1998.0   17.0
   73938899 8460.0   60.0 0.2349 0.1013  180.7 2000.0 1998.0   17.0
   73939900 7980.0  180.0 0.2216  0.304   60.6 2000.0 1998.0   17.0
   73940901 7260.0  300.0 0.2016 0.5066   35.6 2000.0 1998.0   17.0
   73941903 7680.0   60.0 0.2132 0.1013  164.5 2000.0 1998.0   17.0
   73942903 9060.0  240.0 0.2515 0.4053   52.4 2000.0 1998.0   17.0
   73943904 8520.0  180.0 0.2365  0.304   64.3 2000.0 1998.0   17.0
   73944905 8280.0   60.0 0.2299 0.1013  177.0 2000.0 1998.0   17.0
   73945906 7440.0  120.0 0.2066 0.2026   82.5 2000.0 1998.0   17.0
   73946908 7260.0  240.0 0.2016 0.4053   43.1 2000.0 1998.0   17.0
   73947909 7440.0  120.0 0.2066 0.2026   82.5 2000.0 1999.0   17.0
   73948910 8580.0   60.0 0.2382 0.1013  183.2 2000.0 1998.0   17.0
   73949911 8280.0  180.0 0.2299  0.304   62.7 2000.0 1998.0   17.0
   73950912 7920.0  120.0 0.2199 0.2026   87.5 2000.0 1998.0   17.0
   73951913 7080.0  120.0 0.1966 0.2026   78.8 2000.0 1998.0   17.0
   73952914 8100.0  180.0 0.2249  0.304   61.4 2000.0 1998.0   17.0
   73953915 8340.0   60.0 0.2316 0.1013  178.2 2000.0 1998.0   17.0
   73954916 8160.0  180.0 0.2266  0.304   61.8 2000.0 1998.0   17.0
   73955917 7620.0  120.0 0.2116 0.2026   84.4 2000.0 1998.0   17.0
   73956918 8340.0    0.0 0.2316    0.0    5.5 2000.0 1998.0   17.0
   73957919 7200.0   60.0 0.1999 0.1013  154.6 2000.0 1998.0   17.0
   73958919 6660.0  180.0 0.1849  0.304   51.5 2000.0 1998.0   17.0
   73959921 7500.0  120.0 0.2082 0.2026   83.2 2000.0 1998.0   17.0
   73960921 8580.0  240.0 0.2382 0.4053   49.9 2000.0 1999.0   17.0
   73961921 7740.0  120.0 0.2149 0.2026   85.6 2000.0 1998.0   17.0
   73962922 7920.0    0.0 0.2199    0.0    5.5 2000.0 1998.0   17.0
   73963923 7800.0  120.0 0.2166 0.2026   86.3 2000.0 1998.0   17.0
   73964924 8520.0    0.0 0.2365    0.0    5.5 2000.0 1998.0   17.0
   73965924 7860.0  360.0 0.2182 0.6079   32.6 2000.0 1998.0   17.0
   73966926 8640.0    0.0 0.2399    0.0    5.5 2000.0 1998.0   17.0
   73967927 7740.0  120.0 0.2149 0.2026   81.9 2000.0 1998.0   17.0
   73968928 7680.0  120.0 0.2132 0.2026   85.0 2000.0 1999.0   17.0
   73969929 8220.0    0.0 0.2282    0.0    5.5 2000.0 1998.0   17.0
   73970931 7800.0   60.0 0.2166 0.1013  167.0 2000.0 1998.0   17.0
   73971930 7800.0  120.0 0.2166 0.2026   86.3 2000.0 1998.0   17.0
   73972931 8400.0  180.0 0.2332  0.304   63.5 2000.0 1998.0   17.0
   73973932 8100.0  180.0 0.2249  0.304   61.4 2000.0 1998.0   17.0
   73974934 8400.0   60.0 0.2332 0.1013  179.4 2000.0 1998.0   17.0
   73975934 7800.0   60.0 0.2166 0.1013  167.0 2000.0 1998.0   17.0
   73976936 7080.0  180.0 0.1966  0.304   54.4 2000.0 1998.0   17.0
   73977935 8520.0   60.0 0.2365 0.1013  181.9 2000.0 1999.0   17.0
   73978936 6960.0  120.0 0.1932 0.2026   77.6 2000.0 1998.0   17.0
   73979937 7800.0  180.0 0.2166  0.304   59.3 2000.0 1998.0   17.0
   73980938 7680.0    0.0 0.2132    0.0    5.5 2000.0 1998.0   17.0
   73981939 6960.0  120.0 0.1932 0.2026   77.6 2000.0 1998.0   17.0
   73982940 8640.0    0.0 0.2399    0.0    5.5 2000.0 1998.0   17.0
   73983941 6300.0   60.0 0.1749 0.1013  136.0 2000.0 1998.0   17.0
   73984942 8520.0  120.0 0.2365 0.2026   93.7 2000.0 1997.0   17.0
   73985943 8760.0   60.0 0.2432 0.1013  186.9 2000.0 1997.0   17.0
   73986944 8220.0    0.0 0.2282    0.0    5.5 2000.0 1998.0   17.0
   73987945 6840.0  180.0 0.1899  0.304   52.7 2000.0 1998.0   17.0
   73988945 8640.0  180.0 0.2399  0.304   65.1 2000.0 1998.0   17.0
   73989946 7980.0   60.0 0.2216 0.1013  170.7 2000.0 1998.0   17.0
   73990947 7740.0  120.0 0.2149 0.2026   85.6 2000.0 1998.0   17.0
   73991948 7500.0  240.0 0.2082 0.4053   44.3 2000.0 1998.0   17.0
   73992949 8640.0  180.0 0.2399  0.304   65.1 2000.0 1998.0   17.0
   73993951 8520.0  180.0 0.2365  0.304   64.3 2000.0 1998.0   17.0
   73994952 7200.0  120.0 0.1999 0.2026   80.0 2000.0 1998.0   17.0
   73995952 7320.0  180.0 0.2032  0.304   56.0 2000.0 1998.0   17.0
   73996952 8100.0  120.0 0.2249 0.2026   89.4 2000.0 1998.0   17.0
   73997954 7560.0  180.0 0.2099  0.304   57.7 2000.0 1998.0   17.0
   73998954 9000.0   60.0 0.2499 0.1013  191.9 2000.0 1998.0   17.0
   73999955 9000.0   60.0 0.2499 0.1013  191.9 2000.0 1998.0   17.0
   74000956 8400.0    0.0 0.2332    0.0    5.5 2000.0 1999.0   17.0
   74001957 7680.0  180.0 0.2132  0.304   58.5 2000.0 1998.0   17.0
   74002958 7680.0   60.0 0.2132 0.1013  164.5 2000.0 1998.0   17.0
   74003959 8040.0  120.0 0.2232 0.2026   88.7 2000.0 1998.0   17.0
   74004960 8040.0  360.0 0.2232 0.6079   33.2 2000.0 1998.0   17.0
   74005961 7200.0  120.0 0.1999 0.2026   80.0 2000.0 1998.0   17.0
   74006963 7380.0  300.0 0.2049 0.5066   36.1 2000.0 1998.0   17.0
   74007963 7920.0  120.0 0.2199 0.2026   87.5 2000.0 1998.0   17.0
   74008964 8280.0    0.0 0.2299    0.0    5.5 2000.0 1998.0   17.0
   74009965 8880.0   60.0 0.2465 0.1013  189.4 2000.0 1998.0   17.0
   74010965 7260.0    0.0 0.2016    0.0    5.5 2000.0 1998.0   17.0
   74011966 8640.0  120.0 0.2399 0.2026   95.0 2000.0 1998.0   17.0
   74012967 8520.0  180.0 0.2365  0.304   64.3 2000.0 1998.0   17.0
