# 
~VERSION INFORMATION
     VERS.                              2.0:Версия формата LAS
     WRAP.                               NO:Режим одной строчки на временной отчет
~WELL INFORMATION
     STRT.ms                       57116818:Время первой записи в файле
     STOP.ms                       76626414:Время последней записи в файле
     STEP.ms                              0:Шаг времени, 0 - переменный шаг
     NULL.                          -999.25:Метка, нет значения
     DATE.                       02.10.2024:Дата каротажа
      DRV.                                 :Наименование драйвера прибора
     NAME.                          ННКТ(б):Название прибора
     SNUM.                         23613012:Серийный номер прибора
     FRMW.                        0.23.10.2:Версия прошивки на контроллере прибора
~CURVE INFORMATION
     TIME.ms                       {0,11:0}:Время, количество миллисекунд от начало суток
     NTNC.имп/мин                          :Счёт, ближний зонд ННКТ
     FTNC.у.е.                             :Счёт, дальний зонд ННКТ
     NTNL.имп/мин                          :Счёт нормированный на счёт в воде, ближний зонд ННКТ
     FTNL.у.е.                             :Счёт нормированный на счёт в воде, дальний зонд ННКТ
     TRNP.%                                :Пористость по водородосодержанию ННКТ
     UHVS.В                                :Установленное напряжение на высоковольтнике
     UHVM.В                                :Измеренное напряжение на высоковольтнике
       MT.°C                               :Температура
~OTHER INFORMATION


~A     TIME   NTNC   FTNC   NTNL   FTNL   TRNP   UHVS   UHVM     MT
# ...
   67396207 7380.0  120.0 0.2049 0.2026   81.9 2000.0 1998.0   17.0
   67397208 6600.0   60.0 0.1832 0.1013  142.2 2000.0 1998.0   17.0
   67398208 7380.0   60.0 0.2049 0.1013  158.3 2000.0 1998.0   17.0
   67399209 7200.0  240.0 0.1999 0.4053   42.8 2000.0 1998.0   17.0
   67400210 7440.0  180.0 0.2066  0.304   56.9 2000.0 1998.0   17.0
   67401213 6900.0   60.0 0.1916 0.1013  148.4 2000.0 1998.0   17.0
   67402212 7020.0  120.0 0.1949 0.2026   78.2 2000.0 1998.0   17.0
   67403215 8220.0  240.0 0.2282 0.4053   48.1 2000.0 1998.0   17.0
   67404215 8700.0  120.0 0.2415 0.2026   95.6 2000.0 1998.0   17.0
   67405217 7080.0   60.0 0.1966 0.1013  152.1 2000.0 1998.0   17.0
   67406217 7920.0    0.0 0.2199    0.0    5.5 2000.0 1999.0   17.0
   67407218 7200.0   60.0 0.1999 0.1013  154.6 2000.0 1998.0   17.0
   67408218 7800.0  180.0 0.2166  0.304   61.8 2000.0 1998.0   17.0
   67409219 6660.0  120.0 0.1849 0.2026   70.7 2000.0 1998.0   17.0
   67410219 6900.0  180.0 0.1916  0.304   53.1 2000.0 1998.0   17.0
   67411220 7860.0  360.0 0.2182 0.6079   34.1 2000.0 1998.0   17.0
   67412221 8100.0    0.0 0.2249    0.0    5.5 2000.0 1998.0   17.0
   67413223 8220.0   60.0 0.2282 0.1013  175.7 2000.0 1998.0   17.0
   67414224 7020.0  300.0 0.1949 0.5066   34.6 2000.0 1998.0   17.0
   67415225 5460.0  240.0 0.1516 0.4053   33.8 2000.0 1998.0   17.0
   67416225 8220.0  120.0 0.2282 0.2026   90.6 2000.0 1998.0   17.0
   67417226 8100.0   60.0 0.2249 0.1013  173.2 2000.0 1998.0   17.0
   67418228 8040.0  360.0 0.2232 0.6079   33.2 2000.0 1998.0   17.0
   67419228 7140.0  180.0 0.1982  0.304   54.8 2000.0 1998.0   17.0
   67420229 6600.0    0.0 0.1832    0.0    5.5 2000.0 1998.0   17.0
   67421230 8340.0   60.0 0.2316 0.1013  178.2 2000.0 1998.0   17.0
   67422231 8040.0  240.0 0.2232 0.4053   47.1 2000.0 1998.0   17.0
   67423232 5700.0  240.0 0.1583 0.4053   35.0 2000.0 1998.0   17.0
   67424233 6600.0   60.0 0.1832 0.1013  142.2 2000.0 1998.0   17.0
   67425234 6960.0  240.0 0.1932 0.4053   41.5 2000.0 1998.0   17.0
   67426235 7320.0  300.0 0.2032 0.5066   35.8 2000.0 1998.0   17.0
   67427235 6900.0   60.0 0.1916 0.1013  148.4 2000.0 1998.0   17.0
   67428236 8640.0  240.0 0.2399 0.4053   50.2 2000.0 1998.0   17.0
   67429237 8220.0   60.0 0.2282 0.1013  175.7 2000.0 1998.0   17.0
   67430238 7140.0   60.0 0.1982 0.1013  153.4 2000.0 1998.0   17.0
   67431239 7980.0   60.0 0.2216 0.1013  170.7 2000.0 1998.0   17.0
   67432240 7860.0  120.0 0.2182 0.2026   86.9 2000.0 1998.0   17.0
   67433242 6240.0    0.0 0.1732    0.0    5.5 2000.0 1998.0   17.0
   67434242 7140.0   60.0 0.1982 0.1013  153.4 2000.0 1998.0   17.0
   67435243 6480.0   60.0 0.1799 0.1013  139.7 2000.0 1998.0   17.0
   67436244 6900.0   60.0 0.1916 0.1013  148.4 2000.0 1998.0   17.0
   67437244 6660.0    0.0 0.1849    0.0    5.5 2000.0 1998.0   17.0
   67438247 6900.0    0.0 0.1916    0.0    5.5 2000.0 1998.0   17.0
   67439248 7860.0   60.0 0.2182 0.1013  168.3 2000.0 1998.0   17.0
   67440248 7140.0  120.0 0.1982 0.2026   79.4 2000.0 1998.0   17.0
   67441250 7800.0  120.0 0.2166 0.2026   86.3 2000.0 1998.0   17.0
   67442250 7680.0  120.0 0.2132 0.2026   85.0 2000.0 1998.0   17.0
   67443252 7620.0  180.0 0.2116  0.304   58.1 2000.0 1998.0   17.0
   67444252 8160.0  180.0 0.2266  0.304   61.8 2000.0 1997.0   17.0
   67445253 7380.0  120.0 0.2049 0.2026   81.9 2000.0 1998.0   17.0
   67446254 7980.0  120.0 0.2216 0.2026   88.1 2000.0 1998.0   17.0
   67447256 8280.0   60.0 0.2299 0.1013  177.0 2000.0 1999.0   17.0
   67448256 7260.0   60.0 0.2016 0.1013  155.8 2000.0 1998.0   17.0
   67449257 7980.0  120.0 0.2216 0.2026   88.1 2000.0 1998.0   17.0
   67450258 7080.0  120.0 0.1966 0.2026   78.8 2000.0 1998.0   17.0
   67451259 7140.0   60.0 0.1982 0.1013  153.4 2000.0 1998.0   17.0
   67452260 6360.0  300.0 0.1766 0.5066   31.8 2000.0 1998.0   17.0
   67453262 7980.0  180.0 0.2216  0.304   60.6 2000.0 1998.0   17.0
   67454262 7560.0   60.0 0.2099 0.1013  162.1 2000.0 1998.0   17.0
   67455262 7380.0  360.0 0.2049 0.6079   31.0 2000.0 1998.0   17.0
   67456263 8160.0  240.0 0.2266 0.4053   47.7 2000.0 1998.0   17.0
   67457264 7560.0  180.0 0.2099  0.304   57.7 2000.0 1998.0   17.0
   67458265 6660.0  120.0 0.1849 0.2026   74.5 2000.0 1997.0   17.0
   67459266 7680.0  300.0 0.2132 0.5066   37.3 2000.0 1999.0   17.0
   67460267 6720.0  120.0 0.1866 0.2026   78.8 2000.0 1999.0   17.0
   67461268 7620.0  120.0 0.2116 0.2026   84.4 2000.0 1998.0   17.0
   67462269 7140.0  120.0 0.1982 0.2026   79.4 2000.0 1998.0   17.0
   67463271 7200.0  240.0 0.1999 0.4053   42.8 2000.0 1998.0   17.0
   67464272 6360.0   60.0 0.1766 0.1013  137.2 2000.0 1999.0   17.0
   67465273 7500.0   60.0 0.2082 0.1013  160.8 2000.0 1998.0   17.0
   67466275 8040.0   60.0 0.2232 0.1013  172.0 2000.0 1999.0   17.0
   67467276 6900.0  120.0 0.1916 0.2026   76.9 2000.0 1998.0   17.0
   67468278 6600.0  240.0 0.1832 0.4053   39.7 2000.0 1997.0   17.0
   67469278 7560.0    0.0 0.2099    0.0    5.5 2000.0 1998.0   17.0
   67470280 6480.0  120.0 0.1799 0.2026   72.6 2000.0 1999.0   17.0
   67471280 7260.0  120.0 0.2016 0.2026   80.7 2000.0 1998.0   17.0
   67472281 7500.0   60.0 0.2082 0.1013  160.8 2000.0 1998.0   17.0
   67473282 8580.0   60.0 0.2382 0.1013  183.2 2000.0 1998.0   17.0
   67474283 6720.0   60.0 0.1866 0.1013  144.7 2000.0 1998.0   17.0
   67475284 7020.0   60.0 0.1949 0.1013  150.9 2000.0 1998.0   17.0
   67476285 7500.0  300.0 0.2082 0.5066   36.6 2000.0 1998.0   17.0
   67477285 8460.0  120.0 0.2349 0.2026   93.1 2000.0 1999.0   17.0
   67478287 7620.0  180.0 0.2116  0.304   58.1 2000.0 1998.0   17.0
   67479289 7560.0  120.0 0.2099 0.2026   83.8 2000.0 1998.0   17.0
   67480290 7380.0  300.0 0.2049 0.5066   36.1 2000.0 1998.0   17.0
   67481292 7800.0  120.0 0.2166 0.2026   86.3 2000.0 1998.0   17.0
   67482292 7680.0  120.0 0.2132 0.2026   85.0 2000.0 1999.0   17.0
   67483292 7080.0  240.0 0.1966 0.4053   42.2 2000.0 1998.0   17.0
   67484294 7500.0   60.0 0.2082 0.1013  160.8 2000.0 1998.0   17.0
   67485296 7500.0   60.0 0.2082 0.1013  160.8 2000.0 1998.0   17.0
   67486296 7860.0  120.0 0.2182 0.2026   86.9 2000.0 1998.0   17.0
   67487296 6900.0  360.0 0.1916 0.6079   29.3 2000.0 1998.0   17.0
   67489924 7920.0  180.0 0.2199  0.304   60.2 2000.0 1998.0   17.0
   67490134 6540.0  120.0 0.1816 0.2026   88.7 2000.0 1998.0   17.0
   67491135 7680.0    0.0 0.2132    0.0    5.5 2000.0 1998.0   17.0
   67492137 7680.0  240.0 0.2132 0.4053   45.3 2000.0 1998.0   17.0
   67493137 8220.0  180.0 0.2282  0.304   62.2 2000.0 1998.0   17.0
   67494140 7500.0  180.0 0.2082  0.304   57.3 2000.0 1998.0   17.0
   67495139 6660.0  240.0 0.1849 0.4053   40.0 2000.0 1998.0   17.0
   67496141 7380.0  480.0 0.2049 0.8105   24.6 2000.0 1999.0   17.0
   67497141 8400.0  180.0 0.2332  0.304   63.5 2000.0 1998.0   17.0
   67498142 6540.0  480.0 0.1816 0.8105   22.4 2000.0 1998.0   17.0
   67499144 8460.0  240.0 0.2349 0.4053   49.3 2000.0 1998.0   17.0
   67500144 7740.0    0.0 0.2149    0.0    5.5 2000.0 1998.0   17.0
   67501147 6960.0    0.0 0.1932    0.0    5.5 2000.0 1998.0   17.0
   67502147 7320.0    0.0 0.2032    0.0    5.5 2000.0 1998.0   17.0
   67503149 7560.0  180.0 0.2099  0.304   57.7 2000.0 1998.0   17.0
   67504149 8280.0    0.0 0.2299    0.0    5.5 2000.0 1998.0   17.0
   67505150 6840.0  180.0 0.1899  0.304   52.7 2000.0 1998.0   17.0
   67506152 8040.0  300.0 0.2232 0.5066   38.8 2000.0 1998.0   17.0
   67507152 8460.0  120.0 0.2349 0.2026   93.1 2000.0 1998.0   17.0
   67508153 6360.0   60.0 0.1766 0.1013  137.2 2000.0 1998.0   17.0
   67509155 8040.0   60.0 0.2232 0.1013  172.0 2000.0 1998.0   17.0
   67510155 7860.0  120.0 0.2182 0.2026   86.9 2000.0 1998.0   17.0
   67511156 7560.0    0.0 0.2099    0.0    5.5 2000.0 1998.0   17.0
   67512156 7020.0   60.0 0.1949 0.1013  150.9 2000.0 1998.0   17.0
   67513157 8580.0  120.0 0.2382 0.2026   94.3 2000.0 1998.0   17.0
   67514158 7680.0  120.0 0.2132 0.2026   85.0 2000.0 1998.0   17.0
