# 
~VERSION INFORMATION
     VERS.                              2.0:Версия формата LAS
     WRAP.                               NO:Режим одной строчки на временной отчет
~WELL INFORMATION
     STRT.ms                       57116818:Время первой записи в файле
     STOP.ms                       76626414:Время последней записи в файле
     STEP.ms                              0:Шаг времени, 0 - переменный шаг
     NULL.                          -999.25:Метка, нет значения
     DATE.                       02.10.2024:Дата каротажа
      DRV.                                 :Наименование драйвера прибора
     NAME.                          ННКТ(б):Название прибора
     SNUM.                         23613012:Серийный номер прибора
     FRMW.                        0.23.10.2:Версия прошивки на контроллере прибора
~CURVE INFORMATION
     TIME.ms                       {0,11:0}:Время, количество миллисекунд от начало суток
     NTNC.имп/мин                          :Счёт, ближний зонд ННКТ
     FTNC.у.е.                             :Счёт, дальний зонд ННКТ
     NTNL.имп/мин                          :Счёт нормированный на счёт в воде, ближний зонд ННКТ
     FTNL.у.е.                             :Счёт нормированный на счёт в воде, дальний зонд ННКТ
     TRNP.%                                :Пористость по водородосодержанию ННКТ
     UHVS.В                                :Установленное напряжение на высоковольтнике
     UHVM.В                                :Измеренное напряжение на высоковольтнике
       MT.°C                               :Температура
~OTHER INFORMATION


~A     TIME   NTNC   FTNC   NTNL   FTNL   TRNP   UHVS   UHVM     MT
# ...
   75195108 7200.0  180.0 0.1999  0.304   55.2 2000.0 1998.0   17.0
   75196109 7980.0  120.0 0.2216 0.2026   88.1 2000.0 1998.0   17.0
   75197110 8520.0  120.0 0.2365 0.2026   93.7 2000.0 1999.0   17.0
   75198110 7140.0  180.0 0.1982  0.304   54.8 2000.0 1998.0   17.0
   75199110 7320.0  180.0 0.2032  0.304   56.0 2000.0 1998.0   17.0
   75201738 7440.0  120.0 0.2066 0.2026   82.5 2000.0 1998.0   17.0
   75201948 8460.0   60.0 0.2349 0.1013  167.6 2000.0 1998.0   17.0
   75202950 7740.0  180.0 0.2149  0.304   58.9 2000.0 1998.0   17.0
   75203951 8400.0  120.0 0.2332 0.2026   92.5 2000.0 1998.0   17.0
   75204952 8160.0  120.0 0.2266 0.2026   90.0 2000.0 1998.0   17.0
   75205952 9120.0   60.0 0.2532 0.1013  194.4 2000.0 1998.0   17.0
   75206954 7980.0  300.0 0.2216 0.5066   38.5 2000.0 1998.0   17.0
   75207954 7800.0  120.0 0.2166 0.2026   86.3 2000.0 1998.0   17.0
   75208955 7800.0  180.0 0.2166  0.304   59.3 2000.0 1998.0   17.0
   75209956 7860.0  180.0 0.2182  0.304   59.8 2000.0 1998.0   17.0
   75210957 6600.0  120.0 0.1832 0.2026   73.8 2000.0 1998.0   17.0
   75211957 8820.0  180.0 0.2449  0.304   66.4 2000.0 1998.0   17.0
   75212958 8580.0  360.0 0.2382 0.6079   35.1 2000.0 1998.0   17.0
   75213959 8520.0    0.0 0.2365    0.0    5.5 2000.0 1998.0   17.0
   75214961 8400.0  240.0 0.2332 0.4053   49.0 2000.0 1998.0   17.0
   75215961 7560.0  120.0 0.2099 0.2026   83.8 2000.0 1998.0   17.0
   75216962 8700.0  120.0 0.2415 0.2026   95.6 2000.0 1998.0   17.0
   75217963 7560.0  240.0 0.2099 0.4053   44.6 2000.0 1998.0   17.0
   75218964 7620.0  120.0 0.2116 0.2026   84.4 2000.0 1998.0   17.0
   75219965 7680.0   60.0 0.2132 0.1013  164.5 2000.0 1998.0   17.0
   75220966 8820.0    0.0 0.2449    0.0    5.5 2000.0 1998.0   17.0
   75221968 7020.0    0.0 0.1949    0.0    5.5 2000.0 1999.0   17.0
   75222969 7800.0   60.0 0.2166 0.1013  167.0 2000.0 1997.0   17.0
   75223970 7980.0  300.0 0.2216 0.5066   38.5 2000.0 1998.0   17.0
   75224971 8100.0  120.0 0.2249 0.2026   89.4 2000.0 1998.0   17.0
   75225972 8100.0  240.0 0.2249 0.4053   47.4 2000.0 1998.0   17.0
   75226972 8880.0  180.0 0.2465  0.304   66.8 2000.0 1998.0   17.0
   75227973 7860.0   60.0 0.2182 0.1013  168.3 2000.0 1998.0   17.0
   75228975 8220.0   60.0 0.2282 0.1013  175.7 2000.0 1998.0   17.0
   75229976 8880.0  180.0 0.2465  0.304   66.8 2000.0 1998.0   17.0
   75230976 7140.0  120.0 0.1982 0.2026   79.4 2000.0 1998.0   17.0
   75231978 8400.0   60.0 0.2332 0.1013  179.4 2000.0 1998.0   17.0
   75232978 6600.0   60.0 0.1832 0.1013  142.2 2000.0 1997.0   17.0
   75233980 7140.0   60.0 0.1982 0.1013  153.4 2000.0 1998.0   17.0
   75234980 8100.0  180.0 0.2249  0.304   64.3 2000.0 1998.0   17.0
   75235981 7200.0  180.0 0.1999  0.304   52.7 2000.0 1998.0   17.0
   75236982 7740.0   60.0 0.2149 0.1013  165.8 2000.0 1998.0   17.0
   75237983 8820.0  180.0 0.2449  0.304   69.3 2000.0 1998.0   17.0
   75238984 8160.0   60.0 0.2266 0.1013  174.5 2000.0 1998.0   17.0
   75239986 8520.0  240.0 0.2365 0.4053   49.6 2000.0 1998.0   17.0
   75240987 6960.0  120.0 0.1932 0.2026   77.6 2000.0 1998.0   17.0
   75241988 6480.0  120.0 0.1799 0.2026   72.6 2000.0 1998.0   17.0
   75242989 7620.0  120.0 0.2116 0.2026   84.4 2000.0 1998.0   17.0
   75243990 7860.0  240.0 0.2182 0.4053   46.2 2000.0 1999.0   17.0
   75244991 6540.0  120.0 0.1816 0.2026   73.2 2000.0 1998.0   17.0
   75245992 8460.0  180.0 0.2349  0.304   63.9 2000.0 1998.0   17.0
   75246993 7980.0    0.0 0.2216    0.0    5.5 2000.0 1998.0   17.0
   75247995 8400.0  180.0 0.2332  0.304   63.5 2000.0 1999.0   17.0
   75248995 7500.0  120.0 0.2082 0.2026   83.2 2000.0 1999.0   17.0
   75249996 8160.0  240.0 0.2266 0.4053   47.7 2000.0 1998.0   17.0
   75250997 8760.0  120.0 0.2432 0.2026   96.2 2000.0 1998.0   17.0
   75252000 6120.0   60.0 0.1699 0.1013  132.2 2000.0 1998.0   17.0
   75252999 9060.0   60.0 0.2515 0.1013  193.1 2000.0 1998.0   17.0
   75254000 8520.0  120.0 0.2365 0.2026   93.7 2000.0 1999.0   17.0
   75255001 7380.0   60.0 0.2049 0.1013  158.3 2000.0 1998.0   17.0
   75256002 8700.0  180.0 0.2415  0.304   65.6 2000.0 1999.0   17.0
   75257004 8640.0  120.0 0.2399 0.2026   95.0 2000.0 1998.0   17.0
   75258004 7620.0  120.0 0.2116 0.2026   84.4 2000.0 1998.0   17.0
   75259005 7500.0   60.0 0.2082 0.1013  160.8 2000.0 1998.0   17.0
   75260005 7800.0    0.0 0.2166    0.0    5.5 2000.0 1998.0   17.0
   75261006 9660.0   60.0 0.2682 0.1013  205.5 2000.0 1998.0   17.0
   75262009 6720.0   60.0 0.1866 0.1013  144.7 2000.0 1998.0   17.0
   75263008 8160.0  120.0 0.2266 0.2026   90.0 2000.0 1998.0   17.0
   75264010 7200.0   60.0 0.1999 0.1013  154.6 2000.0 1998.0   17.0
   75265010 7320.0  240.0 0.2032 0.4053   43.4 2000.0 1998.0   17.0
   75266012 7560.0   60.0 0.2099 0.1013  162.1 2000.0 1998.0   17.0
   75267013 8520.0  240.0 0.2365 0.4053   49.6 2000.0 1998.0   17.0
   75268013 8040.0  180.0 0.2232  0.304   61.0 2000.0 1998.0   17.0
   75269015 8100.0   60.0 0.2249 0.1013  173.2 2000.0 1998.0   17.0
   75270015 8280.0   60.0 0.2299 0.1013  177.0 2000.0 1999.0   17.0
   75271016 8700.0   60.0 0.2415 0.1013  185.7 2000.0 1998.0   17.0
   75272017 7020.0  180.0 0.1949  0.304   54.0 2000.0 1998.0   17.0
   75273017 7980.0  180.0 0.2216  0.304   60.6 2000.0 1998.0   17.0
   75274018 7680.0  120.0 0.2132 0.2026   85.0 2000.0 1998.0   17.0
   75275020 7620.0  180.0 0.2116  0.304   58.1 2000.0 1998.0   17.0
   75276021 7440.0  300.0 0.2066 0.5066   36.3 2000.0 1998.0   17.0
   75277022 6660.0  240.0 0.1849 0.4053   40.0 2000.0 1998.0   17.0
   75278024 8340.0    0.0 0.2316    0.0    5.5 2000.0 1998.0   17.0
   75279024 7500.0   60.0 0.2082 0.1013  160.8 2000.0 1998.0   17.0
   75280024 7560.0   60.0 0.2099 0.1013  162.1 2000.0 1998.0   17.0
   75281025 7560.0  240.0 0.2099 0.4053   44.6 2000.0 1998.0   17.0
   75282027 8280.0   60.0 0.2299 0.1013  177.0 2000.0 1998.0   17.0
   75283028 7680.0  240.0 0.2132 0.4053   45.3 2000.0 1998.0   17.0
   75284029 7740.0   60.0 0.2149 0.1013  173.2 2000.0 1998.0   17.0
   75285029 6240.0  120.0 0.1732 0.2026   67.0 2000.0 1998.0   17.0
   75286030 7080.0  420.0 0.1966 0.7092   26.4 2000.0 1998.0   17.0
   75287031 7980.0   60.0 0.2216 0.1013  179.4 2000.0 1998.0   17.0
   75288032 8280.0  240.0 0.2299 0.4053   48.4 2000.0 1998.0   17.0
   75289033 8280.0  120.0 0.2299 0.2026   91.2 2000.0 1998.0   17.0
   75290034 9180.0  180.0 0.2549  0.304   68.9 2000.0 1998.0   17.0
   75291034 7620.0  240.0 0.2116 0.4053   44.9 2000.0 1998.0   17.0
   75292035 6900.0  240.0 0.1916 0.4053   41.2 2000.0 1998.0   17.0
   75293036 8940.0   60.0 0.2482 0.1013  190.6 2000.0 1998.0   17.0
   75294038 8940.0  180.0 0.2482  0.304   67.2 2000.0 1998.0   17.0
   75295038 8520.0  120.0 0.2365 0.2026   93.7 2000.0 1998.0   17.0
   75296040 7200.0  120.0 0.1999 0.2026   80.0 2000.0 1998.0   17.0
   75297040 6840.0   60.0 0.1899 0.1013  147.1 2000.0 1998.0   17.0
   75298042 8640.0  180.0 0.2399  0.304   65.1 2000.0 1998.0   17.0
   75299043 7860.0   60.0 0.2182 0.1013  168.3 2000.0 1998.0   17.0
   75300043 8400.0   60.0 0.2332 0.1013  179.4 2000.0 1998.0   17.0
   75301045 6720.0  300.0 0.1866 0.5066   33.3 2000.0 1998.0   17.0
   75302047 7920.0  180.0 0.2199  0.304   60.2 2000.0 1998.0   17.0
   75303047 8760.0   60.0 0.2432 0.1013  186.9 2000.0 1998.0   17.0
   75304048 7920.0  120.0 0.2199 0.2026   87.5 2000.0 1998.0   17.0
   75305049 6900.0    0.0 0.1916    0.0    5.5 2000.0 1998.0   17.0
   75306165 8580.0  120.0 0.2382 0.2026   94.3 2000.0 1998.0   17.0
   75307062 7500.0  120.0 0.2082 0.2026   83.2 2000.0 1998.0   17.0
   75308063 8640.0  120.0 0.2399 0.2026   95.0 2000.0 1998.0   17.0
   75309063 7800.0  300.0 0.2166 0.5066   37.8 2000.0 1998.0   17.0
   75310064 7620.0  120.0 0.2116 0.2026   84.4 2000.0 1998.0   17.0
   75311065 7260.0  120.0 0.2016 0.2026   80.7 2000.0 1998.0   17.0
   75312066 7980.0  240.0 0.2216 0.4053   46.8 2000.0 1998.0   17.0
   75313067 7680.0   60.0 0.2132 0.1013  164.5 2000.0 1998.0   17.0
