# 
~VERSION INFORMATION
     VERS.                              2.0:Версия формата LAS
     WRAP.                               NO:Режим одной строчки на временной отчет
~WELL INFORMATION
     STRT.ms                       57116818:Время первой записи в файле
     STOP.ms                       76626414:Время последней записи в файле
     STEP.ms                              0:Шаг времени, 0 - переменный шаг
     NULL.                          -999.25:Метка, нет значения
     DATE.                       02.10.2024:Дата каротажа
      DRV.                                 :Наименование драйвера прибора
     NAME.                          ННКТ(б):Название прибора
     SNUM.                         23613012:Серийный номер прибора
     FRMW.                        0.23.10.2:Версия прошивки на контроллере прибора
~CURVE INFORMATION
     TIME.ms                       {0,11:0}:Время, количество миллисекунд от начало суток
     NTNC.имп/мин                          :Счёт, ближний зонд ННКТ
     FTNC.у.е.                             :Счёт, дальний зонд ННКТ
     NTNL.имп/мин                          :Счёт нормированный на счёт в воде, ближний зонд ННКТ
     FTNL.у.е.                             :Счёт нормированный на счёт в воде, дальний зонд ННКТ
     TRNP.%                                :Пористость по водородосодержанию ННКТ
     UHVS.В                                :Установленное напряжение на высоковольтнике
     UHVM.В                                :Измеренное напряжение на высоковольтнике
       MT.°C                               :Температура
~OTHER INFORMATION


~A     TIME   NTNC   FTNC   NTNL   FTNL   TRNP   UHVS   UHVM     MT
# ...
   72596606 7920.0  120.0 0.2199 0.2026   87.5 2000.0 1998.0   17.0
   72597607 8400.0   60.0 0.2332 0.1013  179.4 2000.0 1998.0   17.0
   72598608 7800.0  240.0 0.2166 0.4053   45.9 2000.0 1998.0   17.0
   72599609 7500.0  120.0 0.2082 0.2026   83.2 2000.0 1998.0   17.0
   72600610 7620.0  120.0 0.2116 0.2026   84.4 2000.0 1998.0   17.0
   72601611 7800.0   60.0 0.2166 0.1013  167.0 2000.0 1998.0   17.0
   72602613 8280.0  180.0 0.2299  0.304   62.7 2000.0 1998.0   17.0
   72603613 7740.0    0.0 0.2149    0.0    5.5 2000.0 1998.0   17.0
   72604615 8880.0  180.0 0.2465  0.304   66.8 2000.0 1998.0   17.0
   72605616 8100.0  180.0 0.2249  0.304   61.4 2000.0 1998.0   17.0
   72606617 9420.0  240.0 0.2615 0.4053   54.3 2000.0 1998.0   17.0
   72607618 7380.0   60.0 0.2049 0.1013  158.3 2000.0 1998.0   17.0
   72608619 8340.0   60.0 0.2316 0.1013  178.2 2000.0 1998.0   17.0
   72609620 7440.0   60.0 0.2066 0.1013  159.6 2000.0 1998.0   17.0
   72610621 8100.0   60.0 0.2249 0.1013  173.2 2000.0 1998.0   17.0
   72611622 7740.0  180.0 0.2149  0.304   58.9 2000.0 1998.0   17.0
   72612623 7140.0  180.0 0.1982  0.304   54.8 2000.0 1998.0   17.0
   72613623 7320.0  120.0 0.2032 0.2026   81.3 2000.0 1998.0   17.0
   72614623 9180.0  180.0 0.2549  0.304   68.9 2000.0 1998.0   17.0
   72615625 8820.0  180.0 0.2449  0.304   66.4 2000.0 1998.0   17.0
   72616625 7980.0  180.0 0.2216  0.304   60.6 2000.0 1998.0   17.0
   72617627 7140.0    0.0 0.1982    0.0    5.5 2000.0 1998.0   17.0
   72618627 7020.0   60.0 0.1949 0.1013  150.9 2000.0 1998.0   17.0
   72619628 8160.0  240.0 0.2266 0.4053   49.9 2000.0 1998.0   17.0
   72620631 8040.0   60.0 0.2232 0.1013  172.0 2000.0 1998.0   17.0
   72621630 8400.0  120.0 0.2332 0.2026   92.5 2000.0 1998.0   17.0
   72622631 8460.0   60.0 0.2349 0.1013  180.7 2000.0 1998.0   17.0
   72623632 7860.0  300.0 0.2182 0.5066   38.1 2000.0 1998.0   17.0
   72624633 8940.0  120.0 0.2482 0.2026   98.1 2000.0 1998.0   17.0
   72625634 7260.0    0.0 0.2016    0.0    5.5 2000.0 1998.0   17.0
   72626635 7620.0   60.0 0.2116 0.1013  163.3 2000.0 1998.0   17.0
   72627636 7800.0   60.0 0.2166 0.1013  167.0 2000.0 1998.0   17.0
   72628637 7500.0  120.0 0.2082 0.2026   83.2 2000.0 1998.0   17.0
   72629638 7920.0  300.0 0.2199 0.5066   38.3 2000.0 1998.0   17.0
   72630640 7620.0  360.0 0.2116 0.6079   31.8 2000.0 1998.0   17.0
   72631640 8880.0  240.0 0.2465 0.4053   51.5 2000.0 1998.0   17.0
   72632641 7620.0  180.0 0.2116  0.304   58.1 2000.0 1998.0   17.0
   72633644 7440.0  120.0 0.2066 0.2026   82.5 2000.0 1998.0   17.0
   72634644 8160.0  120.0 0.2266 0.2026   90.0 2000.0 1998.0   17.0
   72635646 7200.0   60.0 0.1999 0.1013  154.6 2000.0 1998.0   17.0
   72636647 7800.0   60.0 0.2166 0.1013  167.0 2000.0 1998.0   17.0
   72637647 7860.0    0.0 0.2182    0.0    5.5 2000.0 1998.0   17.0
   72638648 7260.0  120.0 0.2016 0.2026   80.7 2000.0 1998.0   17.0
   72639649 9060.0   60.0 0.2515 0.1013  193.1 2000.0 1998.0   17.0
   72640650 7260.0   60.0 0.2016 0.1013  155.8 2000.0 1998.0   17.0
   72641651 7320.0  120.0 0.2032 0.2026   81.3 2000.0 1998.0   17.0
   72642652 6600.0   60.0 0.1832 0.1013  142.2 2000.0 1998.0   17.0
   72643652 8940.0  180.0 0.2482  0.304   67.2 2000.0 1998.0   17.0
   72644654 8340.0  120.0 0.2316 0.2026   91.9 2000.0 1998.0   17.0
   72645654 6180.0  120.0 0.1716 0.2026   69.5 2000.0 1998.0   17.0
   72646656 7500.0  180.0 0.2082  0.304   57.3 2000.0 1998.0   17.0
   72647658 8520.0  180.0 0.2365  0.304   64.3 2000.0 1998.0   17.0
   72648658 8520.0   60.0 0.2365 0.1013  181.9 2000.0 1998.0   17.0
   72649658 7860.0  120.0 0.2182 0.2026   86.9 2000.0 1998.0   17.0
   72650660 7860.0  180.0 0.2182  0.304   59.8 2000.0 1998.0   17.0
   72651660 7380.0    0.0 0.2049    0.0    5.5 2000.0 1998.0   17.0
   72652662 8160.0  240.0 0.2266 0.4053   47.7 2000.0 1998.0   17.0
   72653662 7980.0   60.0 0.2216 0.1013  170.7 2000.0 1998.0   17.0
   72654663 7800.0  180.0 0.2166  0.304   59.3 2000.0 1998.0   17.0
   72655664 7020.0    0.0 0.1949    0.0    5.5 2000.0 1998.0   17.0
   72656665 8580.0  120.0 0.2382 0.2026   94.3 2000.0 1998.0   17.0
   72657666 7500.0    0.0 0.2082    0.0    5.5 2000.0 1998.0   17.0
   72658668 8580.0  300.0 0.2382 0.5066   41.0 2000.0 1998.0   17.0
   72659669 8520.0  120.0 0.2365 0.2026   93.7 2000.0 1998.0   17.0
   72660670 9000.0  120.0 0.2499 0.2026   98.7 2000.0 1998.0   17.0
   72661671 7500.0  120.0 0.2082 0.2026   83.2 2000.0 1998.0   17.0
   72662672 9060.0  120.0 0.2515 0.2026   99.3 2000.0 1998.0   17.0
   72663673 7440.0   60.0 0.2066 0.1013  159.6 2000.0 1998.0   17.0
   72664675 7200.0  300.0 0.1999 0.5066   36.8 2000.0 1999.0   17.0
   72665675 8340.0  120.0 0.2316 0.2026   87.5 2000.0 1998.0   17.0
   72666677 8340.0   60.0 0.2316 0.1013  178.2 2000.0 1998.0   17.0
   72667677 8640.0  180.0 0.2399  0.304   68.0 2000.0 1998.0   17.0
   72668678 7740.0  180.0 0.2149  0.304   58.9 2000.0 1998.0   17.0
   72669679 8280.0  120.0 0.2299 0.2026   91.2 2000.0 1998.0   17.0
   72670680 8220.0   60.0 0.2282 0.1013  175.7 2000.0 1998.0   17.0
   72671681 7200.0  240.0 0.1999 0.4053   42.8 2000.0 1998.0   17.0
   72672682 8700.0  180.0 0.2415  0.304   65.6 2000.0 1998.0   17.0
   72673683 8040.0  240.0 0.2232 0.4053   47.1 2000.0 1998.0   17.0
   72674684 8580.0  120.0 0.2382 0.2026   94.3 2000.0 1998.0   17.0
   72675685 7500.0  240.0 0.2082 0.4053   44.3 2000.0 1998.0   17.0
   72676686 9000.0  180.0 0.2499  0.304   67.6 2000.0 1998.0   17.0
   72677688 8580.0   60.0 0.2382 0.1013  183.2 2000.0 1999.0   17.0
   72678688 8280.0  180.0 0.2299  0.304   62.7 2000.0 1998.0   17.0
   72679689 9600.0    0.0 0.2665    0.0    5.5 2000.0 1998.0   17.0
   72680690 7920.0  300.0 0.2199 0.5066   38.3 2000.0 1998.0   17.0
   72681691 7800.0  120.0 0.2166 0.2026   86.3 2000.0 1998.0   17.0
   72682692 8280.0  240.0 0.2299 0.4053   48.4 2000.0 1998.0   17.0
   72683693 7500.0   60.0 0.2082 0.1013  160.8 2000.0 1998.0   17.0
   72684694 8340.0   60.0 0.2316 0.1013  178.2 2000.0 1998.0   17.0
   72685697 7800.0  120.0 0.2166 0.2026   86.3 2000.0 1998.0   17.0
   72686697 8160.0   60.0 0.2266 0.1013  174.5 2000.0 1998.0   17.0
   72687698 7500.0  300.0 0.2082 0.5066   36.6 2000.0 1998.0   17.0
   72688699 8520.0  300.0 0.2365 0.5066   40.8 2000.0 1998.0   17.0
   72689700 7860.0  180.0 0.2182  0.304   59.8 2000.0 1998.0   17.0
   72690702 8160.0  120.0 0.2266 0.2026   90.0 2000.0 1998.0   17.0
   72691704 7920.0  300.0 0.2199 0.5066   38.3 2000.0 1998.0   17.0
   72692705 7560.0  120.0 0.2099 0.2026   83.8 2000.0 1998.0   17.0
   72693706 9060.0  120.0 0.2515 0.2026   99.3 2000.0 1998.0   17.0
   72694707 7680.0  120.0 0.2132 0.2026   85.0 2000.0 1998.0   17.0
   72695707 8340.0   60.0 0.2316 0.1013  178.2 2000.0 1998.0   17.0
   72696709 8100.0  300.0 0.2249 0.5066   39.0 2000.0 1998.0   17.0
   72697710 7800.0  180.0 0.2166  0.304   59.3 2000.0 1998.0   17.0
   72698710 7620.0  120.0 0.2116 0.2026   84.4 2000.0 1998.0   17.0
   72699711 8400.0  360.0 0.2332 0.6079   34.5 2000.0 1998.0   17.0
   72700712 8040.0  240.0 0.2232 0.4053   47.1 2000.0 1998.0   17.0
   72701714 7440.0  240.0 0.2066 0.4053   44.0 2000.0 1998.0   17.0
   72702714 7980.0  360.0 0.2216 0.6079   33.0 2000.0 1998.0   17.0
   72703715 7740.0  120.0 0.2149 0.2026   85.6 2000.0 1998.0   17.0
   72704717 7140.0  180.0 0.1982  0.304   54.8 2000.0 1998.0   17.0
   72705718 8820.0  120.0 0.2449 0.2026   96.8 2000.0 1999.0   17.0
   72706719 8160.0    0.0 0.2266    0.0    5.5 2000.0 1998.0   17.0
   72707720 8040.0  180.0 0.2232  0.304   61.0 2000.0 1999.0   17.0
   72708721 8100.0   60.0 0.2249 0.1013  173.2 2000.0 1998.0   17.0
   72709722 8160.0  120.0 0.2266 0.2026   94.3 2000.0 1998.0   17.0
   72710723 8160.0    0.0 0.2266    0.0    5.5 2000.0 1998.0   17.0
   72711725 8040.0  240.0 0.2232 0.4053   47.1 2000.0 1998.0   17.0
   72712725 7680.0  420.0 0.2132 0.7092   28.2 2000.0 1998.0   17.0
   72713726 7740.0  120.0 0.2149 0.2026   89.4 2000.0 1998.0   17.0
