# 
~VERSION INFORMATION
     VERS.                              2.0:Версия формата LAS
     WRAP.                               NO:Режим одной строчки на временной отчет
~WELL INFORMATION
     STRT.ms                       57116818:Время первой записи в файле
     STOP.ms                       76626414:Время последней записи в файле
     STEP.ms                              0:Шаг времени, 0 - переменный шаг
     NULL.                          -999.25:Метка, нет значения
     DATE.                       02.10.2024:Дата каротажа
      DRV.                                 :Наименование драйвера прибора
     NAME.                          ННКТ(б):Название прибора
     SNUM.                         23613012:Серийный номер прибора
     FRMW.                        0.23.10.2:Версия прошивки на контроллере прибора
~CURVE INFORMATION
     TIME.ms                       {0,11:0}:Время, количество миллисекунд от начало суток
     NTNC.имп/мин                          :Счёт, ближний зонд ННКТ
     FTNC.у.е.                             :Счёт, дальний зонд ННКТ
     NTNL.имп/мин                          :Счёт нормированный на счёт в воде, ближний зонд ННКТ
     FTNL.у.е.                             :Счёт нормированный на счёт в воде, дальний зонд ННКТ
     TRNP.%                                :Пористость по водородосодержанию ННКТ
     UHVS.В                                :Установленное напряжение на высоковольтнике
     UHVM.В                                :Измеренное напряжение на высоковольтнике
       MT.°C                               :Температура
~OTHER INFORMATION


~A     TIME   NTNC   FTNC   NTNL   FTNL   TRNP   UHVS   UHVM     MT
# ...
   66213350 8580.0  240.0 0.2382 0.4053   49.9 2000.0 1998.0   17.0
   66214352 6780.0   60.0 0.1882 0.1013  145.9 2000.0 1998.0   17.0
   66215352 7680.0  240.0 0.2132 0.4053   45.3 2000.0 1998.0   17.0
   66216353 7260.0    0.0 0.2016    0.0    5.5 2000.0 1998.0   17.0
   66217354 7200.0   60.0 0.1999 0.1013  154.6 2000.0 1998.0   17.0
   66218355 6960.0   60.0 0.1932 0.1013  149.6 2000.0 1998.0   17.0
   66219356 6720.0  240.0 0.1866 0.4053   40.3 2000.0 1998.0   17.0
   66220357 6900.0   60.0 0.1916 0.1013  148.4 2000.0 1998.0   17.0
   66221358 7800.0  240.0 0.2166 0.4053   45.9 2000.0 1998.0   17.0
   66222359 7680.0    0.0 0.2132    0.0    5.5 2000.0 1998.0   17.0
   66223360 7800.0   60.0 0.2166 0.1013  175.7 2000.0 1998.0   17.0
   66224362 6660.0  120.0 0.1849 0.2026   70.7 2000.0 1998.0   17.0
   66225362 7620.0  300.0 0.2116 0.5066   37.1 2000.0 1998.0   17.0
   66226362 6840.0  120.0 0.1899 0.2026   80.0 2000.0 1998.0   17.0
   66227363 7200.0   60.0 0.1999 0.1013  154.6 2000.0 1998.0   17.0
   66228364 8880.0  180.0 0.2465  0.304   66.8 2000.0 1998.0   17.0
   66229367 7200.0  420.0 0.1999 0.7092   26.8 2000.0 1998.0   17.0
   66230366 7620.0  300.0 0.2116 0.5066   37.1 2000.0 1998.0   17.0
   66231367 6660.0  120.0 0.1849 0.2026   74.5 2000.0 1998.0   17.0
   66232368 7380.0  300.0 0.2049 0.5066   36.1 2000.0 1998.0   17.0
   66233369 7500.0   60.0 0.2082 0.1013  160.8 2000.0 1998.0   17.0
   66234370 6720.0  120.0 0.1866 0.2026   75.1 2000.0 1998.0   17.0
   66235371 7200.0   60.0 0.1999 0.1013  154.6 2000.0 1998.0   17.0
   66236372 7320.0    0.0 0.2032    0.0    5.5 2000.0 1998.0   17.0
   66237374 8640.0  120.0 0.2399 0.2026   95.0 2000.0 1998.0   17.0
   66238373 7140.0   60.0 0.1982 0.1013  153.4 2000.0 1998.0   17.0
   66239375 7200.0   60.0 0.1999 0.1013  154.6 2000.0 1998.0   17.0
   66240376 8100.0  120.0 0.2249 0.2026   89.4 2000.0 1998.0   17.0
   66241377 7860.0  180.0 0.2182  0.304   59.8 2000.0 1998.0   17.0
   66242378 8340.0   60.0 0.2316 0.1013  178.2 2000.0 1998.0   17.0
   66243380 8220.0  120.0 0.2282 0.2026   90.6 2000.0 1998.0   17.0
   66244381 7980.0   60.0 0.2216 0.1013  170.7 2000.0 1998.0   17.0
   66245382 8220.0  240.0 0.2282 0.4053   48.1 2000.0 1998.0   17.0
   66246383 6480.0  120.0 0.1799 0.2026   72.6 2000.0 1998.0   17.0
   66247384 7920.0  120.0 0.2199 0.2026   87.5 2000.0 1998.0   17.0
   66248385 8820.0   60.0 0.2449 0.1013  188.1 2000.0 1998.0   17.0
   66249385 6480.0  120.0 0.1799 0.2026   72.6 2000.0 1998.0   17.0
   66250387 7020.0   60.0 0.1949 0.1013  150.9 2000.0 1998.0   17.0
   66251388 7080.0   60.0 0.1966 0.1013  152.1 2000.0 1998.0   17.0
   66252387 7380.0  240.0 0.2049 0.4053   43.7 2000.0 1998.0   17.0
   66253388 5580.0  180.0 0.1549  0.304   44.0 2000.0 1998.0   17.0
   66254389 7560.0  360.0 0.2099 0.6079   31.6 2000.0 1998.0   17.0
   66255390 8460.0  120.0 0.2349 0.2026   93.1 2000.0 1998.0   17.0
   66256392 7020.0  180.0 0.1949  0.304   54.0 2000.0 1998.0   17.0
   66257392 7620.0   60.0 0.2116 0.1013  163.3 2000.0 1998.0   17.0
   66258393 6480.0  300.0 0.1799 0.5066   32.3 2000.0 1998.0   17.0
   66259394 8160.0   60.0 0.2266 0.1013  174.5 2000.0 1998.0   17.0
   66260395 7260.0    0.0 0.2016    0.0    5.5 2000.0 1998.0   17.0
   66261397 8160.0  180.0 0.2266  0.304   61.8 2000.0 1998.0   17.0
   66262397 7920.0    0.0 0.2199    0.0    5.5 2000.0 1998.0   17.0
   66263398 7800.0  180.0 0.2166  0.304   59.3 2000.0 1998.0   17.0
   66264399 8160.0  180.0 0.2266  0.304   61.8 2000.0 1998.0   17.0
   66265401 8100.0  240.0 0.2249 0.4053   47.4 2000.0 1998.0   17.0
   66266401 7740.0  240.0 0.2149 0.4053   45.6 2000.0 1998.0   17.0
   66267403 7860.0  180.0 0.2182  0.304   59.8 2000.0 1998.0   17.0
   66268404 8040.0    0.0 0.2232    0.0    5.5 2000.0 1998.0   17.0
   66269405 7620.0  240.0 0.2116 0.4053   44.9 2000.0 1998.0   17.0
   66270406 6600.0    0.0 0.1832    0.0    5.5 2000.0 1998.0   17.0
   66271409 6900.0    0.0 0.1916    0.0    5.5 2000.0 1998.0   17.0
   66272408 7500.0   60.0 0.2082 0.1013  168.3 2000.0 1998.0   17.0
   66273408 6540.0  180.0 0.1816  0.304   48.6 2000.0 1998.0   17.0
   66274410 8520.0  180.0 0.2365  0.304   64.3 2000.0 1998.0   17.0
   66275410 8100.0   60.0 0.2249 0.1013  181.9 2000.0 1999.0   17.0
   66276411 6660.0  300.0 0.1849 0.5066   33.1 2000.0 1998.0   17.0
   66277413 7680.0   60.0 0.2132 0.1013  164.5 2000.0 1998.0   17.0
   66278413 7320.0   60.0 0.2032 0.1013  157.1 2000.0 1998.0   17.0
   66279414 7080.0  240.0 0.1966 0.4053   42.2 2000.0 1998.0   17.0
   66280415 7980.0  300.0 0.2216 0.5066   38.5 2000.0 1998.0   17.0
   66281417 8340.0  180.0 0.2316  0.304   63.1 2000.0 1999.0   17.0
   66282416 6780.0  180.0 0.1882  0.304   52.3 2000.0 1998.0   17.0
   66283417 6720.0  120.0 0.1866 0.2026   75.1 2000.0 1999.0   17.0
   66284418 6420.0  180.0 0.1782  0.304   49.8 2000.0 1998.0   17.0
   66285419 6900.0   60.0 0.1916 0.1013  148.4 2000.0 1998.0   17.0
   66286420 6660.0  180.0 0.1849  0.304   51.5 2000.0 1998.0   17.0
   66287421 7140.0  120.0 0.1982 0.2026   79.4 2000.0 1998.0   17.0
   66288422 7860.0   60.0 0.2182 0.1013  168.3 2000.0 1998.0   17.0
   66289422 7560.0   60.0 0.2099 0.1013  162.1 2000.0 1998.0   17.0
   66290424 6480.0  180.0 0.1799  0.304   50.2 2000.0 1998.0   17.0
   66291426 6300.0    0.0 0.1749    0.0    5.5 2000.0 1998.0   17.0
   66292425 7440.0   60.0 0.2066 0.1013  159.6 2000.0 1998.0   17.0
   66293427 7740.0   60.0 0.2149 0.1013  165.8 2000.0 1998.0   17.0
   66294428 7440.0  120.0 0.2066 0.2026   82.5 2000.0 1998.0   17.0
   66295429 7980.0    0.0 0.2216    0.0    5.5 2000.0 1998.0   17.0
   66296431 7740.0  180.0 0.2149  0.304   58.9 2000.0 1998.0   17.0
   66297430 7440.0  180.0 0.2066  0.304   56.9 2000.0 1998.0   17.0
   66298432 6180.0  120.0 0.1716 0.2026   69.5 2000.0 1998.0   17.0
   66299431 6780.0   60.0 0.1882 0.1013  145.9 2000.0 1998.0   17.0
   66300433 7500.0   60.0 0.2082 0.1013  160.8 2000.0 1998.0   17.0
   66301433 6540.0   60.0 0.1816 0.1013  140.9 2000.0 1998.0   17.0
   66302434 7440.0  180.0 0.2066  0.304   56.9 2000.0 1998.0   17.0
   66303435 7260.0  180.0 0.2016  0.304   55.6 2000.0 1998.0   17.0
   66304436 6840.0  120.0 0.1899 0.2026   76.3 2000.0 1998.0   17.0
   66305437 7500.0   60.0 0.2082 0.1013  160.8 2000.0 1998.0   17.0
   66306439 7500.0  120.0 0.2082 0.2026   83.2 2000.0 1998.0   17.0
   66307440 6600.0  120.0 0.1832 0.2026   73.8 2000.0 1998.0   17.0
   66308441 7380.0    0.0 0.2049    0.0    5.5 2000.0 1998.0   17.0
   66309442 7080.0  120.0 0.1966 0.2026   78.8 2000.0 1998.0   17.0
   66310443 6360.0  120.0 0.1766 0.2026   71.3 2000.0 1998.0   17.0
   66311443 7620.0  120.0 0.2116 0.2026   84.4 2000.0 1998.0   17.0
   66312444 7740.0   60.0 0.2149 0.1013  165.8 2000.0 1998.0   17.0
   66313445 6480.0  120.0 0.1799 0.2026   72.6 2000.0 1998.0   17.0
   66314446 7260.0   60.0 0.2016 0.1013  155.8 2000.0 1998.0   17.0
   66315447 7440.0    0.0 0.2066    0.0    5.5 2000.0 1998.0   17.0
   66316448 7140.0  120.0 0.1982 0.2026   79.4 2000.0 1998.0   17.0
   66317449 7140.0  240.0 0.1982 0.4053   42.5 2000.0 1998.0   17.0
   66318451 7560.0   60.0 0.2099 0.1013  162.1 2000.0 1998.0   17.0
   66319452 7260.0  120.0 0.2016 0.2026   80.7 2000.0 1998.0   17.0
   66320452 7680.0  180.0 0.2132  0.304   58.5 2000.0 1998.0   17.0
   66321454 7260.0  120.0 0.2016 0.2026   80.7 2000.0 1998.0   17.0
   66322454 5700.0  120.0 0.1583 0.2026   64.5 2000.0 1998.0   17.0
   66323457 8160.0  120.0 0.2266 0.2026   90.0 2000.0 1998.0   17.0
   66324456 6960.0  180.0 0.1932  0.304   56.0 2000.0 1998.0   17.0
   66325458 6960.0  120.0 0.1932 0.2026   77.6 2000.0 1998.0   17.0
   66326459 7500.0   60.0 0.2082 0.1013  160.8 2000.0 1998.0   17.0
   66327460 6900.0  120.0 0.1916 0.2026   76.9 2000.0 1998.0   17.0
   66328461 7500.0  120.0 0.2082 0.2026   83.2 2000.0 1998.0   17.0
   66329462 6360.0  180.0 0.1766  0.304   49.4 2000.0 1998.0   17.0
   66330464 7380.0  180.0 0.2049  0.304   56.4 2000.0 1998.0   17.0
