# 
~VERSION INFORMATION
     VERS.                              2.0:Версия формата LAS
     WRAP.                               NO:Режим одной строчки на временной отчет
~WELL INFORMATION
     STRT.ms                       57116818:Время первой записи в файле
     STOP.ms                       76626414:Время последней записи в файле
     STEP.ms                              0:Шаг времени, 0 - переменный шаг
     NULL.                          -999.25:Метка, нет значения
     DATE.                       02.10.2024:Дата каротажа
      DRV.                                 :Наименование драйвера прибора
     NAME.                          ННКТ(б):Название прибора
     SNUM.                         23613012:Серийный номер прибора
     FRMW.                        0.23.10.2:Версия прошивки на контроллере прибора
~CURVE INFORMATION
     TIME.ms                       {0,11:0}:Время, количество миллисекунд от начало суток
     NTNC.имп/мин                          :Счёт, ближний зонд ННКТ
     FTNC.у.е.                             :Счёт, дальний зонд ННКТ
     NTNL.имп/мин                          :Счёт нормированный на счёт в воде, ближний зонд ННКТ
     FTNL.у.е.                             :Счёт нормированный на счёт в воде, дальний зонд ННКТ
     TRNP.%                                :Пористость по водородосодержанию ННКТ
     UHVS.В                                :Установленное напряжение на высоковольтнике
     UHVM.В                                :Измеренное напряжение на высоковольтнике
       MT.°C                               :Температура
~OTHER INFORMATION


~A     TIME   NTNC   FTNC   NTNL   FTNL   TRNP   UHVS   UHVM     MT
# ...
   76495276  840.0 1560.0 0.0233 2.6342    6.2 2000.0 1998.0   17.0
   76496277  900.0 1320.0  0.025  2.229    6.3 2000.0 1997.0   17.0
   76497278  480.0  660.0 0.0133 1.1145    6.4 2000.0 1998.0   17.0
   76498279  780.0 1680.0 0.0217 2.8369    6.1 2000.0 1998.0   17.0
   76499279 1320.0 1740.0 0.0366 2.9382    6.4 2000.0 1998.0   17.0
   76500281  600.0 1200.0 0.0167 2.0263    6.1 2000.0 1999.0   17.0
   76501281  900.0 1620.0  0.025 2.7356    6.2 2000.0 1998.0   17.0
   76502282 1200.0  960.0 0.0333 1.6211    7.1 2000.0 1998.0   17.0
   76503283  780.0 1500.0 0.0217 2.5329    6.1 2000.0 1998.0   17.0
   76504284  660.0 1500.0 0.0183 2.5329    6.1 2000.0 1997.0   17.0
   76505285  360.0 1080.0   0.01 1.8237    5.9 2000.0 1998.0   17.0
   76506286  780.0  780.0 0.0217 1.3171    6.7 2000.0 1998.0   17.0
   76507287  720.0 1320.0   0.02  2.229    6.2 2000.0 1998.0   17.0
   76508288  600.0 1680.0 0.0167 2.8369    5.9 2000.0 1998.0   17.0
   76509291  780.0 1140.0 0.0217  1.925    6.3 2000.0 1998.0   17.0
   76510291  600.0 1980.0 0.0167 3.3435    5.9 2000.0 1998.0   17.0
   76511292  720.0 1440.0   0.02 2.4316    6.1 2000.0 1998.0   17.0
   76512293  420.0 1140.0 0.0117  1.925    6.0 2000.0 1998.0   17.0
   76513294  600.0  600.0 0.0167 1.0132    6.7 2000.0 1998.0   17.0
   76514294  840.0  720.0 0.0233 1.2158    6.9 2000.0 1998.0   17.0
   76515297  300.0  840.0 0.0083 1.4184    5.9 2000.0 1998.0   17.0
   76516297   60.0  480.0 0.0017 0.8105    5.7 2000.0 1998.0   17.0
   76517298  240.0  360.0 0.0067 0.6079    6.3 2000.0 1998.0   17.0
   76518300  240.0  840.0 0.0067 1.4184    5.9 2000.0 1998.0   17.0
   76519301   60.0  720.0 0.0017 1.2158    5.6 2000.0 1998.0   17.0
   76520302  420.0  540.0 0.0117 0.9119    6.5 2000.0 1998.0   17.0
   76521303  180.0  540.0  0.005 0.9119    5.9 2000.0 1998.0   17.0
   76522304  240.0  360.0 0.0067 0.6079    6.3 2000.0 1998.0   17.0
   76523305  120.0  360.0 0.0033 0.6079    5.9 2000.0 1998.0   17.0
   76524306  180.0  360.0  0.005 0.6079    6.1 2000.0 1998.0   17.0
   76525308  120.0  420.0 0.0033 0.7092    5.9 2000.0 1998.0   17.0
   76526307  360.0  660.0   0.01 1.1145    6.2 2000.0 1999.0   17.0
   76527309  660.0  540.0 0.0183 0.9119    7.0 2000.0 1998.0   17.0
   76528310  300.0  360.0 0.0083 0.6079    6.5 2000.0 1998.0   17.0
   76529310  120.0  120.0 0.0033 0.2026    6.7 2000.0 1998.0   17.0
   76530311  180.0  240.0  0.005 0.4053    6.4 2000.0 1998.0   17.0
   76531312   60.0  360.0 0.0017 0.6079    5.7 2000.0 1998.0   17.0
   76532313   60.0  300.0 0.0017 0.5066    5.7 2000.0 1998.0   17.0
   76533314    0.0  360.0    0.0 0.6079    5.5 2000.0 1999.0   17.0
   76534315  120.0  540.0 0.0033 0.9119    5.8 2000.0 1998.0   17.0
   76535316  240.0  360.0 0.0067 0.6079    6.3 2000.0 1998.0   17.0
   76536317  180.0  660.0  0.005 1.1145    5.8 2000.0 1998.0   17.0
   76537318  240.0  420.0 0.0067 0.7092    6.2 2000.0 1998.0   17.0
   76538319  300.0  240.0 0.0083 0.4053    7.1 2000.0 1998.0   17.0
   76539321  420.0   60.0 0.0117 0.1013   14.2 2000.0 1998.0   17.0
   76540321  300.0  420.0 0.0083 0.7092    6.4 2000.0 1998.0   17.0
   76541322  240.0  300.0 0.0067 0.5066    6.5 2000.0 1998.0   17.0
   76542324  360.0  300.0   0.01 0.5066    7.0 2000.0 1998.0   17.0
   76543324  180.0  360.0  0.005 0.6079    6.1 2000.0 1998.0   17.0
   76544325  180.0  360.0  0.005 0.6079    6.1 2000.0 1998.0   17.0
   76545326  120.0  420.0 0.0033 0.7092    5.9 2000.0 1998.0   17.0
   76546327   60.0  720.0 0.0017 1.2158    5.6 2000.0 1999.0   17.0
   76547328  240.0  480.0 0.0067 0.8105    6.1 2000.0 1998.0   17.0
   76548328  120.0  540.0 0.0033 0.9119    5.8 2000.0 1998.0   17.0
   76549329  180.0  360.0  0.005 0.6079    6.1 2000.0 1998.0   17.0
   76550330  240.0  540.0 0.0067 0.9119    6.0 2000.0 1998.0   17.0
   76551331  180.0  360.0  0.005 0.6079    6.1 2000.0 1998.0   17.0
   76552333  180.0  480.0  0.005 0.8105    6.0 2000.0 1998.0   17.0
   76553334  120.0  600.0 0.0033 1.0132    5.7 2000.0 1998.0   17.0
   76554334   60.0  420.0 0.0017 0.7092    5.7 2000.0 1998.0   17.0
   76555336  180.0  780.0  0.005 1.3171    5.8 2000.0 1998.0   17.0
   76556337  240.0  180.0 0.0067  0.304    7.2 2000.0 1998.0   17.0
   76557337  180.0   60.0  0.005 0.1013    9.2 2000.0 1999.0   17.0
   76558338    0.0  420.0    0.0 0.7092    5.5 2000.0 1998.0   17.0
   76559339  240.0  240.0 0.0067 0.4053    6.7 2000.0 1998.0   17.0
   76560341  120.0  360.0 0.0033 0.6079    5.9 2000.0 1998.0   17.0
   76561342  180.0  600.0  0.005 1.0132    5.9 2000.0 1999.0   17.0
   76562344  240.0  360.0 0.0067 0.6079    6.3 2000.0 1998.0   17.0
   76563345  180.0  420.0  0.005 0.7092    6.0 2000.0 1998.0   17.0
   76564346  120.0  480.0 0.0033 0.8105    5.8 2000.0 1998.0   17.0
   76565347  240.0  300.0 0.0067 0.5066    6.5 2000.0 1998.0   17.0
   76566348   60.0  180.0 0.0017  0.304    5.9 2000.0 1999.0   17.0
   76567349  360.0  180.0   0.01  0.304    8.0 2000.0 1998.0   17.0
   76568351  240.0  240.0 0.0067 0.4053    6.7 2000.0 1998.0   17.0
   76569352  180.0  360.0  0.005 0.6079    6.1 2000.0 1998.0   17.0
   76570354   60.0  420.0 0.0017 0.7092    5.7 2000.0 1998.0   17.0
   76571356  300.0  360.0 0.0083 0.6079    6.5 2000.0 1999.0   17.0
   76572356  240.0  120.0 0.0067 0.2026    8.0 2000.0 1998.0   17.0
   76573358  180.0  360.0  0.005 0.6079    6.1 2000.0 1998.0   17.0
   76574359  120.0  240.0 0.0033 0.4053    6.1 2000.0 1998.0   17.0
   76575360   60.0  480.0 0.0017 0.8105    5.7 2000.0 1998.0   17.0
   76576360  120.0  180.0 0.0033  0.304    6.3 2000.0 1998.0   17.0
   76577361  180.0  240.0  0.005 0.4053    6.4 2000.0 1999.0   17.0
   76578364   60.0  300.0 0.0017 0.5066    5.7 2000.0 1998.0   17.0
   76579365  120.0  300.0 0.0033 0.5066    6.0 2000.0 1998.0   17.0
   76580367  180.0  240.0  0.005 0.4053    6.4 2000.0 1998.0   17.0
   76581368   60.0  240.0 0.0017 0.4053    5.8 2000.0 1998.0   17.0
   76582369  360.0  180.0   0.01  0.304    8.0 2000.0 1998.0   17.0
   76583369   60.0  300.0 0.0017 0.5066    5.7 2000.0 1998.0   17.0
   76584371  180.0  240.0  0.005 0.4053    6.4 2000.0 1999.0   17.0
   76585374  120.0    0.0 0.0033    0.0    5.5 2000.0 1998.0   17.0
   76586376    0.0  420.0    0.0 0.7092    5.5 2000.0 1998.0   17.0
   76587376   60.0  180.0 0.0017  0.304    5.9 2000.0 1998.0   17.0
   76588378  300.0  240.0 0.0083 0.4053    7.1 2000.0 1998.0   17.0
   76589377   60.0  540.0 0.0017 0.9119    5.6 2000.0 1998.0   17.0
   76590378    0.0  240.0    0.0 0.4053    5.5 2000.0 1998.0   17.0
   76591379  240.0  540.0 0.0067 0.9119    6.0 2000.0 1998.0   17.0
   76592380  240.0  540.0 0.0067 0.9119    6.0 2000.0 1998.0   17.0
   76593382    0.0  360.0    0.0 0.6079    5.5 2000.0 1998.0   17.0
   76594383   60.0  420.0 0.0017 0.7092    5.7 2000.0 1998.0   17.0
   76595385  120.0  120.0 0.0033 0.2026    6.7 2000.0 1998.0   17.0
   76596385   60.0  180.0 0.0017  0.304    5.9 2000.0 1998.0   17.0
   76597386  120.0  420.0 0.0033 0.7092    5.9 2000.0 1998.0   17.0
   76598387   60.0  240.0 0.0017 0.4053    5.8 2000.0 1999.0   17.0
   76599389  180.0  300.0  0.005 0.5066    6.2 2000.0 1998.0   17.0
   76600389   60.0  480.0 0.0017 0.8105    5.7 2000.0 1998.0   17.0
   76601390  240.0  540.0 0.0067 0.9119    6.0 2000.0 1999.0   17.0
   76602391   60.0  480.0 0.0017 0.8105    5.7 2000.0 1998.0   17.0
   76603394  300.0  300.0 0.0083 0.5066    6.7 2000.0 1998.0   17.0
   76604393  180.0  180.0  0.005  0.304    6.7 2000.0 1998.0   17.0
   76605394  240.0  300.0 0.0067 0.5066    6.5 2000.0 1998.0   17.0
   76606395  120.0  240.0 0.0033 0.4053    6.1 2000.0 1998.0   17.0
   76607396   60.0  180.0 0.0017  0.304    5.9 2000.0 1998.0   17.0
   76608398  120.0  360.0 0.0033 0.6079    5.9 2000.0 1998.0   17.0
   76609396  120.0  420.0 0.0033 0.7092    5.9 2000.0 1998.0   17.0
   76610397  120.0   60.0 0.0033 0.1013    8.0 2000.0 1998.0   17.0
   76611398  120.0  120.0 0.0033 0.2026    6.7 2000.0 1998.0   17.0
   76612398  120.0  180.0 0.0033  0.304    6.3 2000.0 1998.0   17.0
