~VERSION INFORMATION
VERS     .                               2.0:CWLS LAS VERSION
WRAP     .                                NO: One line per depth step
~WELL INFORMATION
#    MNEM.UNIT                     DATA TYPE:INFORMATION
#========.==================================:=========================================
STRT     .ms                        35037231:Время первой записи в файле
STOP     .ms                                :Время последней записи в файле
STEP     .ms                               0:Шаг времени, 0 - переменный шаг
NULL     .                           -999.25:Метка, нет значения
DATE     .                        02.10.2024:Дата каротажа
DRV      .                                  :Наименование драйвера прибора
NAME     .                           ННКТ(б):Название прибора
SNUM     .                          23613012:Серийный номер прибора
FRMW     .                         0.23.10.2:Версия прошивки на контроллере прибора
~CURVE INFORMATION
#    MNEM.UNIT                      API CODE:CURVE DESCRIPTION
#========.==================================:=========================================
TIME     .                                  :Time of RealDepth
NTNC     .имп/мин                       NTNC:Счёт, ближний зонд ННКТ
FTNC     .у.е.                          FTNC:Счёт, дальний зонд ННКТ
NTNL     .имп/мин                       NTNL:Счёт нормированный на счёт в воде, ближний зонд ННКТ
FTNL     .у.е.                          FTNL:Счёт нормированный на счёт в воде, дальний зонд ННКТ
TRNP     .%                             TRNP:Пористость по водородосодержанию ННКТ
avg_TRNP .                                  :
avg_FTNC .                                  :
avg_NTNC .                                  :
UHVS     .В                                 :Установленное напряжение на высоковольтнике
UHVM     .В                                 :Измеренное напряжение на высоковольтнике
MT       .°C                                :Температура
~PARAMETER INFORMATION BLOCK
#    MNEM.UNIT                      API CODE:CURVE DESCRIPTION
#========.==================================:=========================================
~OTHER INFORMATION

~A        NTNC FTNC   NTNL   FTNL  TRNP avg_TRNP g_FTNC vg_NTNC UHVS UHVM MT
# ...
37119277  7920  120 0.2199 0.2026  87.5 68.80600  167.1  7306.2 2000 1998 18
37120278  7560  180 0.2099 0.3040  57.7 68.59267  167.0  7308.3 2000 1998 18
37121280  7620  120 0.2116 0.2026  84.4 68.65483  167.5  7311.8 2000 1998 18
37122281  8520  120 0.2365 0.2026  93.7 68.63383  167.6  7313.8 2000 1998 18
37123281  6480  240 0.1799 0.4053  39.0 68.65933  167.4  7312.5 2000 1998 18
37124283  8100    0 0.2249 0.0000   5.5 68.70700  167.3  7313.5 2000 1998 18
37126910  6060   60 0.1682 0.1013 131.0 68.72050  167.3  7316.1 2000 1998 18
37127121  6300  180 0.1749 0.3040  53.7 68.76917  167.0  7317.3 2000 1998 18
37128123  8160  240 0.2266 0.4053  47.7 68.84783  166.4  7316.2 2000 1998 18
37129124  8280  180 0.2299 0.3040  62.7 68.89233  166.3  7316.5 2000 1998 18
37130124  7680  120 0.2132 0.2026  85.0 68.93717  166.0  7316.9 2000 1998 18
37131125  6120  240 0.1699 0.4053  37.2 69.15717  165.3  7317.2 2000 1998 18
37132126  6420  180 0.1782 0.3040  49.8 69.16550  165.3  7318.4 2000 1998 18
37133127  8820  180 0.2449 0.3040  66.4 69.04950  165.5  7322.2 2000 1998 18
37134128  7980   60 0.2216 0.1013 170.7 68.88383  165.7  7322.8 2000 1998 18
37135130  7080  120 0.1966 0.2026  78.8 68.88133  165.8  7325.4 2000 1998 18
37136131  6960  420 0.1932 0.7092  26.1 68.71783  166.0  7326.3 2000 1998 18
37137131  7200   60 0.1999 0.1013 154.6 68.84717  165.9  7326.7 2000 1998 18
37138132  7140  300 0.1982 0.5066  35.1 68.89367  165.7  7325.3 2000 1998 18
37139135  7020    0 0.1949 0.0000   5.5 69.06700  165.5  7324.2 2000 1998 18
37140134  6720   60 0.1866 0.1013 144.7 68.94383  165.3  7323.1 2000 1998 18
37141135  7200  300 0.1999 0.5066  35.3 69.07433  165.2  7323.2 2000 1998 18
37142138  5940  120 0.1649 0.2026  67.0 68.95017  165.3  7322.1 2000 1998 18
37143138  6060  120 0.1682 0.2026  68.2 68.90317  165.7  7321.4 2000 1998 18
37144139  6360  180 0.1766 0.3040  49.4 68.85133  165.9  7323.5 2000 1998 18
37145140  6600   60 0.1832 0.1013 142.2 68.93283  165.6  7324.0 2000 1998 18
37146142  6180  300 0.1716 0.5066  31.1 68.80650  165.7  7324.4 2000 1998 18
37147142  7380  180 0.2049 0.3040  56.4 68.74433  165.3  7325.9 2000 1998 18
37148144  7380  120 0.2049 0.2026  81.9 68.59250  165.5  7327.5 2000 1998 18
37149144  6300  180 0.1749 0.3040  49.0 68.83483  165.6  7327.6 2000 1998 18
37150145  6360  120 0.1766 0.2026  71.3 68.85400  165.5  7325.7 2000 1998 18
37151146  7080  180 0.1966 0.3040  54.4 68.94100  165.4  7323.3 2000 1998 18
37152147  7020  180 0.1949 0.3040  54.0 69.02917  165.2  7325.8 2000 1998 18
37153148  7440  180 0.2066 0.3040  56.9 68.88000  165.0  7326.9 2000 1998 18
37154148  7020  240 0.1949 0.4053  41.8 68.85033  165.1  7328.6 2000 1998 18
37155150  7440  180 0.2066 0.3040  56.9 68.75100  164.8  7330.5 2000 1998 18
37156152  6420  240 0.1782 0.4053  40.3 68.61017  164.9  7331.0 2000 1998 18
37157153  7320  120 0.2032 0.2026  81.3 68.55733  165.0  7335.6 2000 1998 18
37158153  7260  300 0.2016 0.5066  35.6 68.41767  165.1  7335.8 2000 1998 18
37159155  7500  240 0.2082 0.4053  44.3 68.28617  164.9  7335.7 2000 1998 18
37160157  6240  360 0.1732 0.6079  27.0 68.35867  164.5  7334.5 2000 1998 18
37161158  7020  120 0.1949 0.2026  78.2 68.59333  164.3  7338.3 2000 1998 18
37162158  6360  240 0.1766 0.4053  38.4 68.54233  164.6  7340.1 2000 1998 18
37163160  7140  120 0.1982 0.2026  79.4 68.54650  164.6  7340.3 2000 1998 18
37164161  7080  180 0.1966 0.3040  54.4 68.66167  164.2  7344.1 2000 1998 18
37165162  7020  240 0.1949 0.4053  41.8 68.62650  164.2  7342.4 2000 1998 18
37166165  6600   60 0.1832 0.1013 142.2 68.67200  164.1  7345.8 2000 1998 18
37167165  7500  300 0.2082 0.5066  36.6 68.67200  164.1  7346.6 2000 1998 18
37168165  8400  120 0.2332 0.2026  92.5 68.65850  164.2  7348.2 2000 1998 18
37169166  5820  120 0.1616 0.2026  65.8 68.69850  163.9  7347.5 2000 1998 18
37170167  7080  180 0.1966 0.3040  54.4 68.63483  163.5  7349.7 2000 1998 18
37171167  6300  240 0.1749 0.4053  38.1 68.63683  163.5  7349.8 2000 1998 18
37172168  7260  240 0.2016 0.4053  43.1 68.85217  163.3  7353.6 2000 1998 18
37173170  6840  360 0.1899 0.6079  29.1 68.95550  162.8  7355.3 2000 1998 18
37174172  8280  240 0.2299 0.4053  48.4 69.00733  162.8  7357.8 2000 1998 18
37175173  7320  300 0.2032 0.5066  35.8 69.03100  162.6  7356.4 2000 1998 18
37176173  6900  120 0.1916 0.2026  76.9 69.25800  162.2  7357.6 2000 1998 18
37177175  5820   60 0.1616 0.1013 126.0 69.19167  162.6  7359.8 2000 1998 18
37178175  8160  420 0.2266 0.7092  29.6 69.25450  162.5  7361.9 2000 1998 18
37179177  7200  120 0.1999 0.2026  80.0 69.29900  162.3  7364.3 2000 1998 18
37180178  8040  180 0.2232 0.3040  61.0 69.03600  162.2  7365.3 2000 1998 18
37181178  5880  120 0.1633 0.2026  66.4 68.97783  162.5  7368.2 2000 1998 18
37182179  6180  300 0.1716 0.5066  31.1 68.96267  162.5  7366.0 2000 1998 18
37183181  8640  180 0.2399 0.3040  65.1 69.00617  162.5  7367.4 2000 1998 18
37184181  7080  180 0.1966 0.3040  54.4 69.28983  162.6  7369.3 2000 1998 18
37185182  7560  240 0.2099 0.4053  44.6 69.36850  162.4  7370.7 2000 1998 18
37186184  7020    0 0.1949 0.0000   5.5 69.53550  162.2  7370.5 2000 1998 18
37187185  7200  120 0.1999 0.2026  80.0 69.48683  162.5  7370.0 2000 1998 18
37188185  7920  360 0.2199 0.6079  32.8 69.57950  162.3  7372.7 2000 1998 18
37189188  7380  180 0.2049 0.3040  56.4 69.63333  162.3  7375.3 2000 1998 18
37190189  7140  120 0.1982 0.2026  79.4 69.64917  162.3  7377.6 2000 1998 18
37191188  7020  300 0.1949 0.5066  34.6 69.66133  162.2  7377.7 2000 1998 18
37192190  7140  240 0.1982 0.4053  42.5 69.57467  162.7  7378.7 2000 1998 18
37193191  7140    0 0.1982 0.0000   5.5 69.56100  162.8  7379.8 2000 1998 18
37194193  6900  180 0.1916 0.3040  53.1 69.47950  162.5  7380.2 2000 1998 18
37195193  8580  180 0.2382 0.3040  64.7 69.56283  162.3  7382.8 2000 1998 18
37196194  7560  360 0.2099 0.6079  31.6 69.79000  162.1  7384.3 2000 1998 18
37197195  7620    0 0.2116 0.0000   5.5 69.95350  162.0  7386.1 2000 1998 18
37198195  7500  180 0.2082 0.3040  57.3 69.94317  162.0  7386.2 2000 1998 18
37199197  8400  180 0.2332 0.3040  63.5 69.99083  161.8  7384.5 2000 1998 18
37200198  7800  240 0.2166 0.4053  45.9 69.99433  161.8  7384.4 2000 1998 18
37201199  6840  180 0.1899 0.3040  55.2 70.16150  161.6  7383.8 2000 1998 18
37202201  6960  120 0.1932 0.2026  77.6 70.12483  161.7  7385.2 2000 1998 18
37203202  7320   60 0.2032 0.1013 157.1 70.16233  161.5  7385.9 2000 1998 18
37204203  6300    0 0.1749 0.0000   5.5 70.21617  161.4  7387.0 2000 1998 18
37205204  6960  300 0.1932 0.5066  34.3 70.19317  161.7  7388.1 2000 1998 18
37206206  7140   60 0.1982 0.1013 153.4 70.19233  161.7  7387.9 2000 1998 18
37207207  7500  300 0.2082 0.5066  36.6 70.12450  161.3  7387.2 2000 1998 18
37208208  6300   60 0.1749 0.1013 136.0 70.07433  160.8  7389.4 2000 1998 18
37209209  7560   60 0.2099 0.1013 162.1 69.99267  160.9  7391.5 2000 1998 18
37210209  5700  360 0.1583 0.6079  25.2 70.21350  160.7  7394.7 2000 1998 18
37211211  6300  180 0.1749 0.3040  49.0 70.03033  160.8  7392.1 2000 1998 18
37212213  8280  180 0.2299 0.3040  62.7 70.03867  160.8  7393.3 2000 1998 18
37213213  7620  120 0.2116 0.2026  84.4 69.90000  160.9  7393.1 2000 1998 18
37214214  7380  180 0.2049 0.3040  56.4 70.00383  160.5  7395.0 2000 1998 18
37215216  7320  300 0.2032 0.5066  35.8 70.16133  160.4  7395.9 2000 1998 18
37216217  6660   60 0.1849 0.1013 143.4 70.38817  160.1  7396.8 2000 1998 18
37217218  6840   60 0.1899 0.1013 147.1 70.55067  160.3  7402.6 2000 1998 18
37218217  7500  300 0.2082 0.5066  36.6 70.71900  160.1  7403.8 2000 1998 18
37219219  6360  180 0.1766 0.3040  49.4 70.77700  160.1  7406.6 2000 1998 18
37220220  6960  360 0.1932 0.6079  29.5 70.89400  160.3  7404.9 2000 1998 18
37221224  7140  360 0.1982 0.6079  30.1 70.91483  160.3  7405.9 2000 1998 18
37222222  7260  360 0.2016 0.6079  30.6 70.89467  160.4  7406.2 2000 1998 18
37223223  6840  180 0.1899 0.3040  52.7 70.94067  160.2  7408.3 2000 1998 18
