~VERSION INFORMATION
VERS     .                               2.0:CWLS LAS VERSION
WRAP     .                                NO: One line per depth step
~WELL INFORMATION
#    MNEM.UNIT                     DATA TYPE:INFORMATION
#========.==================================:=========================================
STRT     .ms                        35037231:Время первой записи в файле
STOP     .ms                                :Время последней записи в файле
STEP     .ms                               0:Шаг времени, 0 - переменный шаг
NULL     .                           -999.25:Метка, нет значения
DATE     .                        02.10.2024:Дата каротажа
DRV      .                                  :Наименование драйвера прибора
NAME     .                           ННКТ(б):Название прибора
SNUM     .                          23613012:Серийный номер прибора
FRMW     .                         0.23.10.2:Версия прошивки на контроллере прибора
~CURVE INFORMATION
#    MNEM.UNIT                      API CODE:CURVE DESCRIPTION
#========.==================================:=========================================
TIME     .                                  :Time of RealDepth
NTNC     .имп/мин                       NTNC:Счёт, ближний зонд ННКТ
FTNC     .у.е.                          FTNC:Счёт, дальний зонд ННКТ
NTNL     .имп/мин                       NTNL:Счёт нормированный на счёт в воде, ближний зонд ННКТ
FTNL     .у.е.                          FTNL:Счёт нормированный на счёт в воде, дальний зонд ННКТ
TRNP     .%                             TRNP:Пористость по водородосодержанию ННКТ
avg_TRNP .                                  :
avg_FTNC .                                  :
avg_NTNC .                                  :
UHVS     .В                                 :Установленное напряжение на высоковольтнике
UHVM     .В                                 :Измеренное напряжение на высоковольтнике
MT       .°C                                :Температура
~PARAMETER INFORMATION BLOCK
#    MNEM.UNIT                      API CODE:CURVE DESCRIPTION
#========.==================================:=========================================
~OTHER INFORMATION

~A        NTNC FTNC   NTNL   FTNL  TRNP avg_TRNP g_FTNC vg_NTNC UHVS UHVM MT
# ...
47540687 11220  180 0.3115 0.3040  82.9 93.14467  166.2  9820.8 2000 1998 17
47541687  8880  120 0.2465 0.2026  97.4 93.02933  165.9  9817.4 2000 1998 17
47542689 10140  360 0.2815 0.6079  40.5 93.04450  165.9  9819.6 2000 1998 17
47543689  9720  240 0.2699 0.4053  55.8 93.01033  165.9  9816.3 2000 1998 17
47544691 10440   60 0.2899 0.1013 221.7 93.13250  166.2  9817.4 2000 1998 17
47545691  9480  180 0.2632 0.3040  70.9 93.08283  166.2  9815.0 2000 1998 17
47546694  8700    0 0.2415 0.0000   5.5 93.04350  166.2  9813.1 2000 1998 17
47547695 10080  120 0.2799 0.2026 109.9 93.03933  166.2  9812.7 2000 1998 17
47548695 11280  180 0.3132 0.3040  83.4 93.31267  166.0  9814.9 2000 1998 17
47549696 10380  120 0.2882 0.2026 113.0 93.24500  166.1  9813.0 2000 1998 17
47550697 10200  120 0.2832 0.2026 111.1 93.43267  165.9  9812.4 2000 1998 17
47551698  9540  480 0.2649 0.8105  31.4 93.24100  166.0  9810.5 2000 1998 17
47552699 10620  360 0.2949 0.6079  40.3 93.30650  166.5  9811.0 2000 1998 17
47553699 10800  120 0.2999 0.2026 117.3 93.26517  166.5  9809.0 2000 1999 17
47554701  9360  120 0.2599 0.2026 107.4 93.26433  166.4  9804.3 2000 1998 17
47555700  9480  120 0.2632 0.2026 103.7 93.47500  166.2  9804.4 2000 1999 17
47556701  8940  300 0.2482 0.5066  42.5 93.47867  166.1  9802.4 2000 1998 17
47557701  9720  240 0.2699 0.4053  55.8 93.72583  165.9  9803.4 2000 1998 17
47558704 10380  360 0.2882 0.6079  41.3 93.65833  165.4  9804.4 2000 1998 17
47559704  9180  120 0.2549 0.2026 100.5 93.40883  165.7  9804.4 2000 1998 17
47560705 10920  300 0.3032 0.5066  50.7 93.40667  165.7  9804.2 2000 1998 17
47561707  8460  120 0.2349 0.2026  93.1 93.43300  165.6  9803.9 2000 1998 17
47562708 10200  180 0.2832 0.3040  75.9 93.41867  165.7  9805.4 2000 1999 17
47563709  8820  120 0.2449 0.2026  96.8 93.48250  165.6  9805.9 2000 1998 17
47564710 11280  180 0.3132 0.3040  83.4 93.37850  165.2  9803.5 2000 1998 17
47565713  9780  120 0.2715 0.2026 106.8 93.31633  165.3  9801.4 2000 1998 17
47566712 10560  120 0.2932 0.2026 114.8 93.30083  165.3  9799.9 2000 1998 17
47567714 10200  120 0.2832 0.2026 111.1 93.18600  165.5  9798.1 2000 1998 17
47568713  9720   60 0.2699 0.1013 206.8 93.23183  165.3  9797.9 2000 1998 17
47569715  9720  180 0.2699 0.3040  72.6 93.30500  165.2  9799.6 2000 1997 17
47570715 10380    0 0.2882 0.0000   5.5 93.25333  165.3  9796.0 2000 1999 17
47571717  9960  180 0.2765 0.3040  74.2 93.04017  165.5  9797.3 2000 1998 17
47572719 10860    0 0.3015 0.0000   5.5 92.92433  165.7  9793.5 2000 1998 17
47573720 11040  300 0.3065 0.5066  51.2 93.09000  165.9  9791.7 2000 1998 17
47574721  9720   60 0.2699 0.1013 206.8 92.84100  166.2  9792.8 2000 1997 17
47575722  9900  240 0.2749 0.4053  56.8 92.58217  166.4  9790.5 2000 1998 17
47576723 11280  180 0.3132 0.3040  83.4 92.64683  166.3  9791.2 2000 1998 17
47577723 10440  360 0.2899 0.6079  41.5 92.61917  166.4  9791.1 2000 1998 17
47578724 11700  240 0.3248 0.4053  66.1 92.52767  166.6  9789.6 2000 1998 17
47579726  9720   60 0.2699 0.1013 206.8 92.59250  166.4  9787.2 2000 1998 17
47580725 10020  240 0.2782 0.4053  57.4 92.36183  166.6  9786.6 2000 1998 17
47581727  8880  180 0.2465 0.3040  66.8 92.66617  166.7  9785.5 2000 1998 17
47582728  9540  360 0.2649 0.6079  38.4 92.95633  166.2  9787.1 2000 1998 17
47583728 11160  300 0.3098 0.5066  51.7 93.20217  165.9  9787.2 2000 1998 17
47584729  8760  180 0.2432 0.3040  66.0 93.29900  165.6  9786.3 2000 1999 17
47585731 10920  300 0.3032 0.5066  50.7 93.55367  165.3  9786.6 2000 1998 17
47586731 10980  240 0.3048 0.4053  62.3 93.36100  165.4  9784.0 2000 1998 17
47587734  8580  240 0.2382 0.4053  49.9 93.39950  165.2  9782.7 2000 1998 17
47588734  9720   60 0.2699 0.1013 206.8 93.51767  164.9  9785.0 2000 1998 17
47589736 10860  300 0.3015 0.5066  50.5 93.55350  164.8  9786.3 2000 1998 17
47590738  8700  180 0.2415 0.3040  65.6 93.58667  164.5  9782.5 2000 1998 17
47591738 11160  180 0.3098 0.3040  82.5 93.74817  164.4  9782.4 2000 1998 17
47592740 10020  300 0.2782 0.5066  47.0 93.67100  164.6  9782.7 2000 1998 17
47593740  9660   60 0.2682 0.1013 205.5 93.68283  164.5  9782.9 2000 1998 17
47594741  9300  120 0.2582 0.2026 101.8 93.71117  164.3  9779.7 2000 1998 17
47595743 10560  300 0.2932 0.5066  49.2 93.44600  164.5  9778.3 2000 1998 17
47596744  9060  360 0.2515 0.6079  36.8 93.59617  164.4  9777.8 2000 1998 17
47597745  9360  120 0.2599 0.2026 102.4 93.79367  164.2  9776.0 2000 1998 17
47598746  7980   60 0.2216 0.1013 170.7 93.75450  164.4  9776.8 2000 1998 17
47599748  9120  240 0.2532 0.4053  55.2 93.73900  164.4  9775.3 2000 1998 17
47600750  9480  120 0.2632 0.2026 103.7 93.78867  164.2  9772.3 2000 1998 17
47601750  9420  420 0.2615 0.7092  33.4 93.83183  164.1  9770.8 2000 1998 17
47602752  9120  240 0.2532 0.4053  52.7 93.73100  164.3  9769.9 2000 1998 17
47603752 10260  180 0.2849 0.3040  76.3 93.69500  164.4  9767.9 2000 1998 17
47604753  9240  360 0.2565 0.6079  37.4 93.74183  164.2  9767.8 2000 1998 17
47605754  9120   60 0.2532 0.1013 194.4 93.70550  164.4  9770.0 2000 1998 17
47606755 10680  180 0.2965 0.3040  79.2 93.77500  164.0  9769.7 2000 1998 17
47607757  9600  180 0.2665 0.3040  71.8 93.93350  163.9  9769.7 2000 1998 17
47608759  9900  120 0.2749 0.2026 108.0 94.08167  163.8  9767.8 2000 1998 17
47609760 10140   60 0.2815 0.1013 215.5 93.99183  163.9  9763.9 2000 1998 17
47610760 10140    0 0.2815 0.0000   5.5 94.03917  163.8  9763.0 2000 1998 17
47611761  7800  120 0.2166 0.2026  86.3 93.76650  164.0  9759.9 2000 1998 17
47612762  9720  120 0.2699 0.2026 106.1 93.78717  163.9  9761.2 2000 1998 17
47613762  9000  120 0.2499 0.2026  98.7 94.04517  163.5  9760.3 2000 1998 17
47614764  9420  120 0.2615 0.2026 103.0 93.77950  164.0  9761.3 2000 1998 17
47615765 10680  420 0.2965 0.7092  37.1 93.74800  164.1  9760.3 2000 1998 17
47616766  7680  120 0.2132 0.2026  85.0 93.77167  164.0  9759.7 2000 1998 17
47617766  9600  240 0.2665 0.4053  55.2 94.02083  163.7  9760.1 2000 1998 17
47618768  8580  120 0.2382 0.2026  94.3 94.15033  163.6  9757.6 2000 1998 17
47619768 11040  120 0.3065 0.2026 119.8 94.41183  163.3  9758.6 2000 1998 17
47620770  9840    0 0.2732 0.0000   5.5 94.68467  163.0  9759.1 2000 1998 17
47621771 10560  120 0.2932 0.2026 114.8 94.85350  162.9  9759.7 2000 1998 17
47622772  8940    0 0.2482 0.0000   5.5 94.98933  162.4  9760.1 2000 1998 17
47623772 10560  120 0.2932 0.2026 114.8 95.11033  161.8  9759.1 2000 1998 17
47624774  9540  120 0.2649 0.2026 104.3 95.17867  161.6  9755.8 2000 1998 17
47625775  8340  420 0.2316 0.7092  30.2 94.85150  161.5  9758.2 2000 1998 17
47626776  8340  120 0.2316 0.2026  91.9 95.16150  161.0  9758.5 2000 1998 17
47627779 10440  300 0.2899 0.5066  48.7 95.25200  160.8  9759.8 2000 1998 17
47628779 11940   60 0.3315 0.1013 252.8 95.14550  161.1  9758.7 2000 1999 17
47629780  9120  120 0.2532 0.2026  99.9 94.87217  161.5  9757.1 2000 1998 17
47630783  8520   60 0.2365 0.1013 181.9 94.87000  161.5  9757.0 2000 1998 17
47631782  9420   60 0.2615 0.1013 200.6 95.14550  161.2  9759.5 2000 1998 17
47632784  8760    0 0.2432 0.0000   5.5 95.34083  161.0  9758.0 2000 1998 17
47633785  9600  180 0.2665 0.3040  71.8 95.24133  161.3  9758.1 2000 1998 17
47634786  9180  180 0.2549 0.3040  68.9 95.20717  161.3  9754.8 2000 1998 17
47635787  9660  240 0.2682 0.4053  55.5 95.09800  161.5  9751.6 2000 1998 17
47636789  9840  120 0.2732 0.2026 107.4 95.32033  161.3  9751.4 2000 1998 17
47637789 10500  300 0.2915 0.5066  49.0 95.45183  161.2  9748.7 2000 1998 17
47638790  9600    0 0.2665 0.0000   5.5 95.56683  160.8  9748.4 2000 1998 17
47639791 10260  180 0.2849 0.3040  76.3 95.47683  160.4  9748.1 2000 1998 17
47640791  8700  120 0.2415 0.2026  95.6 95.46967  160.5  9749.2 2000 1998 17
47641793  9540    0 0.2649 0.0000   5.5 95.38933  160.7  9749.6 2000 1998 17
47642795 10200  120 0.2832 0.2026 116.7 95.40317  160.5  9746.2 2000 1998 17
47643797  8520    0 0.2365 0.0000   5.5 95.33483  160.6  9745.2 2000 1998 17
