~VERSION INFORMATION
VERS     .                               2.0:CWLS LAS VERSION
WRAP     .                                NO: One line per depth step
~WELL INFORMATION
#    MNEM.UNIT                     DATA TYPE:INFORMATION
#========.==================================:=========================================
STRT     .ms                        35037231:Время первой записи в файле
STOP     .ms                                :Время последней записи в файле
STEP     .ms                               0:Шаг времени, 0 - переменный шаг
NULL     .                           -999.25:Метка, нет значения
DATE     .                        02.10.2024:Дата каротажа
DRV      .                                  :Наименование драйвера прибора
NAME     .                           ННКТ(б):Название прибора
SNUM     .                          23613012:Серийный номер прибора
FRMW     .                         0.23.10.2:Версия прошивки на контроллере прибора
~CURVE INFORMATION
#    MNEM.UNIT                      API CODE:CURVE DESCRIPTION
#========.==================================:=========================================
TIME     .                                  :Time of RealDepth
NTNC     .имп/мин                       NTNC:Счёт, ближний зонд ННКТ
FTNC     .у.е.                          FTNC:Счёт, дальний зонд ННКТ
NTNL     .имп/мин                       NTNL:Счёт нормированный на счёт в воде, ближний зонд ННКТ
FTNL     .у.е.                          FTNL:Счёт нормированный на счёт в воде, дальний зонд ННКТ
TRNP     .%                             TRNP:Пористость по водородосодержанию ННКТ
avg_TRNP .                                  :
avg_FTNC .                                  :
avg_NTNC .                                  :
UHVS     .В                                 :Установленное напряжение на высоковольтнике
UHVM     .В                                 :Измеренное напряжение на высоковольтнике
MT       .°C                                :Температура
~PARAMETER INFORMATION BLOCK
#    MNEM.UNIT                      API CODE:CURVE DESCRIPTION
#========.==================================:=========================================
~OTHER INFORMATION

~A        NTNC FTNC   NTNL   FTNL  TRNP avg_TRNP g_FTNC vg_NTNC UHVS UHVM MT
# ...
50753934  6960  540 0.1932 0.9119  21.5 18.18550  262.6  3865.9 2000 1998 18
50754934  7500  300 0.2082 0.5066  36.6 18.14033  262.1  3857.2 2000 1998 18
50755935  7260  480 0.2016 0.8105  24.3 18.02550  261.9  3847.0 2000 1998 18
50756936  7200  180 0.1999 0.3040  55.2 17.99150  261.2  3838.6 2000 1998 18
50757937  7260  360 0.2016 0.6079  30.6 17.94650  260.6  3828.2 2000 1998 18
50758938  8460  300 0.2349 0.5066  40.5 17.88967  260.2  3819.0 2000 1998 18
50759940  7380  300 0.2049 0.5066  36.1 17.83650  259.8  3810.5 2000 1998 18
50760940  7380  600 0.2049 1.0132  20.8 17.78750  259.3  3800.9 2000 1998 18
50761942  7020  420 0.1949 0.7092  26.3 17.74700  258.7  3791.8 2000 1998 18
50762942  7080  720 0.1966 1.2158  17.7 17.68050  258.4  3783.5 2000 1998 18
50763944  6960  480 0.1932 0.8105  23.5 17.65033  257.6  3775.4 2000 1998 18
50764944  7800  420 0.2166 0.7092  28.6 17.60550  257.1  3766.8 2000 1998 18
50765947  7500  600 0.2082 1.0132  21.0 17.57833  256.1  3758.1 2000 1998 18
50766947  7020  360 0.1949 0.6079  29.7 17.38483  256.0  3749.2 2000 1998 18
50767948  6780  540 0.1882 0.9119  21.1 17.31083  255.7  3739.8 2000 1998 18
50768948  7620  540 0.2116 0.9119  23.0 17.20633  255.5  3730.6 2000 1998 18
50769950  6720  840 0.1866 1.4184  15.4 17.11750  255.3  3722.9 2000 1998 18
50770950  7680  600 0.2132 1.0132  21.4 17.03717  255.0  3712.6 2000 1998 18
50771951  7680  300 0.2132 0.5066  37.3 17.00367  254.3  3704.4 2000 1998 18
50772952  7740  480 0.2149 0.8105  25.5 16.78950  254.2  3695.0 2000 1998 18
50773954  5820  600 0.1616 1.0132  17.5 16.75383  253.6  3686.9 2000 1998 18
50774954  7200  540 0.1999 0.9119  22.1 16.68933  253.2  3676.2 2000 1998 18
50775956  6600  480 0.1832 0.8105  22.6 16.64250  252.7  3667.1 2000 1998 18
50776955  7260  540 0.2016 0.9119  22.2 16.60500  252.0  3658.0 2000 1998 18
50777957  7200  240 0.1999 0.4053  42.8 16.57717  251.2  3650.8 2000 1998 18
50778957  7200  900 0.1999 1.5198  15.4 16.54083  250.5  3641.6 2000 1998 18
50779958  6540  420 0.1816 0.7092  24.8 16.47833  250.1  3631.3 2000 1998 18
50780960  6780  480 0.1882 0.8105  23.0 16.44800  249.3  3623.1 2000 1998 18
50781960  6720  180 0.1866 0.3040  51.9 16.39183  249.0  3616.3 2000 1998 18
50782962  7020  420 0.1949 0.7092  26.3 16.35900  248.3  3608.3 2000 1998 18
50783963  5220  300 0.1449 0.5066  27.1 16.32917  247.6  3601.3 2000 1998 18
50784964  6300  240 0.1749 0.4053  38.1 16.28900  247.0  3592.3 2000 1998 18
50785964  7440  240 0.2066 0.4053  44.0 16.25583  246.3  3584.2 2000 1998 18
50786965  4920  540 0.1366 0.9119  16.8 16.14217  246.1  3574.1 2000 1998 18
50787967  5700  420 0.1583 0.7092  22.4 16.05333  245.9  3566.4 2000 1998 18
50788967  5340  480 0.1483 0.8105  19.3 15.99700  245.5  3557.3 2000 1998 18
50789968  5460  300 0.1516 0.5066  28.1 15.95850  244.8  3547.4 2000 1998 18
50790970  6000  120 0.1666 0.2026  70.7 15.93350  243.9  3540.5 2000 1998 18
50791971  6000  240 0.1666 0.4053  35.0 15.88817  243.5  3533.5 2000 1998 18
50792971  5340  180 0.1483 0.3040  42.4 15.85500  242.7  3524.2 2000 1998 18
50793972  5820  480 0.1616 0.8105  20.6 15.79467  242.3  3514.3 2000 1998 18
50794973  5640  360 0.1566 0.6079  26.0 15.69550  242.1  3505.6 2000 1998 18
50795974  4860  420 0.1349 0.7092  19.9 15.63350  241.7  3495.4 2000 1998 18
50796975  4860  420 0.1349 0.7092  19.9 15.59867  241.0  3486.7 2000 1998 18
50797976  4380   60 0.1216 0.1013  96.2 15.56733  240.3  3479.2 2000 1998 18
50798978  5280  480 0.1466 0.8105  19.2 15.41533  240.2  3472.3 2000 1998 18
50799979  3840  180 0.1066 0.3040  32.0 15.39100  239.2  3465.0 2000 1998 18
50800978  2880  300 0.0800 0.5066  17.4 15.35783  238.5  3456.9 2000 1998 18
50801981  1080  900 0.0300 1.5198   7.0 15.29900  238.1  3447.3 2000 1998 18
50802980  1980  960 0.0550 1.6211   8.1 15.25050  237.6  3437.8 2000 1998 18
50803981  1380 1260 0.0383 2.1277   6.9 15.19200  237.1  3425.9 2000 1998 18
50804982   840  720 0.0233 1.2158   6.9 15.14633  236.6  3417.1 2000 1998 18
50805983   960  600 0.0267 1.0132   7.5 15.09733  236.1  3407.5 2000 1998 18
50806984  1080  600 0.0300 1.0132   7.7 15.05000  235.6  3398.3 2000 1998 18
50807987   480  960 0.0133 1.6211   6.1 15.02600  234.5  3390.4 2000 1998 18
50808987   840  660 0.0233 1.1145   7.1 14.99200  233.7  3380.8 2000 1998 18
50809987   720  900 0.0200 1.5198   6.5 14.94300  233.3  3373.1 2000 1998 18
50810988   720  660 0.0200 1.1145   6.9 14.89867  232.8  3364.6 2000 1998 18
50811989  1020  840 0.0283 1.4184   7.0 14.67833  232.7  3354.4 2000 1998 18
50812990  1020  780 0.0283 1.3171   7.1 14.64917  231.7  3344.7 2000 1998 18
50813991   720  960 0.0200 1.6211   6.4 14.55400  231.5  3336.4 2000 1998 18
50814992   720  720 0.0200 1.2158   6.7 14.46000  231.3  3328.2 2000 1998 18
50815994  1260  780 0.0350 1.3171   7.5 14.40533  230.9  3319.4 2000 1998 18
50816994   780  780 0.0217 1.3171   6.7 14.36817  230.3  3311.3 2000 1998 18
50817996   660  480 0.0183 0.8105   7.2 14.32217  229.8  3302.4 2000 1998 18
50818996   540  660 0.0150 1.1145   6.5 14.29117  228.9  3292.9 2000 1998 18
50819997   480  540 0.0133 0.9119   6.6 14.25200  228.3  3284.2 2000 1998 18
50820999    60  420 0.0017 0.7092   5.7 14.19683  227.9  3275.3 2000 1998 18
50822000   300  480 0.0083 0.8105   6.3 14.16333  227.1  3265.9 2000 1998 18
