~VERSION INFORMATION
VERS     .                               2.0:CWLS LAS VERSION
WRAP     .                                NO: One line per depth step
~WELL INFORMATION
#    MNEM.UNIT                     DATA TYPE:INFORMATION
#========.==================================:=========================================
STRT     .ms                        35037231:Время первой записи в файле
STOP     .ms                                :Время последней записи в файле
STEP     .ms                               0:Шаг времени, 0 - переменный шаг
NULL     .                           -999.25:Метка, нет значения
DATE     .                        02.10.2024:Дата каротажа
DRV      .                                  :Наименование драйвера прибора
NAME     .                           ННКТ(б):Название прибора
SNUM     .                          23613012:Серийный номер прибора
FRMW     .                         0.23.10.2:Версия прошивки на контроллере прибора
~CURVE INFORMATION
#    MNEM.UNIT                      API CODE:CURVE DESCRIPTION
#========.==================================:=========================================
TIME     .                                  :Time of RealDepth
NTNC     .имп/мин                       NTNC:Счёт, ближний зонд ННКТ
FTNC     .у.е.                          FTNC:Счёт, дальний зонд ННКТ
NTNL     .имп/мин                       NTNL:Счёт нормированный на счёт в воде, ближний зонд ННКТ
FTNL     .у.е.                          FTNL:Счёт нормированный на счёт в воде, дальний зонд ННКТ
TRNP     .%                             TRNP:Пористость по водородосодержанию ННКТ
avg_TRNP .                                  :
avg_FTNC .                                  :
avg_NTNC .                                  :
UHVS     .В                                 :Установленное напряжение на высоковольтнике
UHVM     .В                                 :Измеренное напряжение на высоковольтнике
MT       .°C                                :Температура
~PARAMETER INFORMATION BLOCK
#    MNEM.UNIT                      API CODE:CURVE DESCRIPTION
#========.==================================:=========================================
~OTHER INFORMATION

~A        NTNC FTNC   NTNL   FTNL  TRNP avg_TRNP g_FTNC vg_NTNC UHVS UHVM MT
# ...
41290082  6840  180 0.1899 0.3040  52.7 80.13300  131.8  7479.5 2000 1998 17
41291085  6900  120 0.1916 0.2026  76.9 80.26417  131.6  7477.5 2000 1998 17
41292085  7620   60 0.2116 0.1013 163.3 80.43867  131.4  7475.8 2000 1998 17
41293086  7200    0 0.1999 0.0000   5.5 80.46550  131.4  7477.1 2000 1998 17
41294086  8400   60 0.2332 0.1013 179.4 80.59517  131.2  7474.1 2000 1998 17
41295087  7200  120 0.1999 0.2026  80.0 80.45233  131.0  7472.1 2000 1998 17
41296088  7200  120 0.1999 0.2026  80.0 80.58683  130.9  7471.6 2000 1998 17
41297089  8340   60 0.2316 0.1013 178.2 80.63450  130.7  7469.9 2000 1998 17
41298090  7140    0 0.1982 0.0000   5.5 80.44183  130.9  7468.8 2000 1998 17
41299091  7740  120 0.2149 0.2026  89.4 80.36933  131.1  7467.3 2000 1998 17
41300093  6960  180 0.1932 0.3040  53.5 80.30650  131.2  7465.1 2000 1997 17
41301092  8700   60 0.2415 0.1013 185.7 80.33550  131.1  7463.1 2000 1998 17
41302093  8040  180 0.2232 0.3040  61.0 80.40267  130.9  7463.2 2000 1998 17
41303095  7980   60 0.2216 0.1013 170.7 80.43917  130.8  7463.0 2000 1998 17
41304096  6480  300 0.1799 0.5066  32.3 80.57683  131.0  7461.9 2000 1998 17
41305096  7680  240 0.2132 0.4053  45.3 80.44567  131.2  7464.5 2000 1998 17
41306097  8100   60 0.2249 0.1013 173.2 80.38667  130.8  7465.8 2000 1998 17
41307099  8340  240 0.2316 0.4053  48.7 80.43900  130.6  7464.1 2000 1998 17
41308099  6840    0 0.1899 0.0000   5.5 80.63367  130.4  7464.5 2000 1998 17
41309099  8820  120 0.2449 0.2026  96.8 80.35250  130.9  7460.0 2000 1998 17
41310100  7860  240 0.2182 0.4053  46.2 80.21583  131.1  7461.8 2000 1998 17
41311101  6660  120 0.1849 0.2026  74.5 80.20550  131.1  7460.3 2000 1998 17
41312102  7380   60 0.2049 0.1013 158.3 80.01400  131.4  7459.9 2000 1998 17
41313103  7980  120 0.2216 0.2026  88.1 80.21433  131.1  7461.1 2000 1998 17
41314104  8100  180 0.2249 0.3040  61.4 80.41583  130.6  7459.5 2000 1998 17
41315105  6720    0 0.1866 0.0000   5.5 80.54733  130.5  7459.1 2000 1998 17
41316105  7920  120 0.2199 0.2026  87.5 80.39917  130.6  7458.6 2000 1998 17
41317107  6480  120 0.1799 0.2026  72.6 80.59133  130.2  7457.8 2000 1998 17
41318109  8520  120 0.2365 0.2026  93.7 80.58200  130.2  7456.0 2000 1998 17
41319108  7620  180 0.2116 0.3040  58.1 80.59550  130.1  7456.2 2000 1998 17
41320109  7560    0 0.2099 0.0000   5.5 80.58717  130.1  7455.2 2000 1998 17
41321110  8040    0 0.2232 0.0000   5.5 80.57883  130.1  7454.4 2000 1998 17
41322111  7860   60 0.2182 0.1013 168.3 80.36033  130.4  7453.0 2000 1998 17
41323113  7380  120 0.2049 0.2026  81.9 80.42250  130.2  7452.8 2000 1998 17
41324113  8520    0 0.2365 0.0000   5.5 80.17867  130.6  7450.7 2000 1998 17
41325114  8580    0 0.2382 0.0000   5.5 80.42917  130.7  7450.5 2000 1998 17
41326114  6540   60 0.1816 0.1013 140.9 80.15783  130.6  7450.6 2000 1998 17
41327115  7740    0 0.2149 0.0000   5.5 80.27900  130.5  7450.8 2000 1998 17
41328116  7560  180 0.2099 0.3040  57.7 80.26450  130.5  7448.7 2000 1998 17
41329116  6840  120 0.1899 0.2026  76.3 80.08133  130.6  7445.0 2000 1998 17
41330117  7920   60 0.2199 0.1013 169.5 80.08033  130.6  7444.9 2000 1998 17
41331118  7200   60 0.1999 0.1013 154.6 80.00833  130.2  7444.4 2000 1998 17
41332119  7320  120 0.2032 0.2026  81.3 79.87017  130.4  7446.4 2000 1998 17
41333120  6540  180 0.1816 0.3040  50.6 79.76967  130.5  7448.4 2000 1998 17
41334121  7380  240 0.2049 0.4053  43.7 79.59983  130.7  7449.0 2000 1998 17
41335123  8400  180 0.2332 0.3040  63.5 79.38817  131.0  7448.6 2000 1998 17
41336124  7740  240 0.2149 0.4053  45.6 79.58317  130.6  7448.5 2000 1998 17
41337125  6900    0 0.1916 0.0000   5.5 79.53483  130.7  7448.4 2000 1998 17
41338127  7500  120 0.2082 0.2026  83.2 79.38567  130.9  7450.6 2000 1998 17
41339127  7140  180 0.1982 0.3040  54.8 79.33183  131.0  7449.0 2000 1998 17
41340128  8460    0 0.2349 0.0000   5.5 79.35800  130.7  7448.9 2000 1998 17
41341129  7560  420 0.2099 0.7092  27.9 79.24917  130.8  7449.6 2000 1998 17
41342130  7920  180 0.2199 0.3040  60.2 79.00583  131.1  7445.5 2000 1998 17
41343132  7140  120 0.1982 0.2026  79.4 79.02617  131.0  7445.4 2000 1998 17
41344131  7320   60 0.2032 0.1013 157.1 78.81450  131.3  7443.5 2000 1998 17
41345132  7860  120 0.2182 0.2026  86.9 78.94083  131.2  7442.8 2000 1998 17
41346134  8940   60 0.2482 0.1013 190.6 79.00983  131.5  7440.9 2000 1998 17
41347135  7860   60 0.2182 0.1013 168.3 79.25633  131.6  7439.9 2000 1998 17
41348136  7260  120 0.2016 0.2026  80.7 79.10417  131.4  7437.4 2000 1998 17
41349138  7680  240 0.2132 0.4053  45.3 79.30583  130.8  7436.0 2000 1998 17
41350139  6960  120 0.1932 0.2026  77.6 79.22917  131.0  7435.4 2000 1998 17
41351139  7560  120 0.2099 0.2026  83.8 79.13733  130.7  7434.7 2000 1998 17
41352139  8040  360 0.2232 0.6079  34.7 79.16833  130.6  7433.0 2000 1998 17
41353142  7260  240 0.2016 0.4053  41.2 78.88050  130.5  7430.7 2000 1998 17
41354141  8040   60 0.2232 0.1013 180.7 78.71967  130.7  7430.6 2000 1998 17
41355143  6840    0 0.1899 0.0000   5.5 78.71350  130.7  7430.3 2000 1998 17
41356143  7920  120 0.2199 0.2026  87.5 78.82333  130.6  7428.7 2000 1998 17
41357144  6960   60 0.1932 0.1013 149.6 78.88233  131.0  7425.8 2000 1998 17
41358146  7560   60 0.2099 0.1013 162.1 78.66867  131.3  7424.4 2000 1998 17
41359146  6900  180 0.1916 0.3040  53.1 78.74950  131.2  7421.2 2000 1998 17
41360147  7680  120 0.2132 0.2026  85.0 78.59700  131.4  7421.9 2000 1998 17
41361147  7020    0 0.1949 0.0000   5.5 78.50717  131.7  7420.0 2000 1998 17
41362148  7980  120 0.2216 0.2026  88.1 78.53617  131.7  7421.4 2000 1998 17
41363151  8280    0 0.2299 0.0000   5.5 78.70817  131.5  7422.5 2000 1998 17
41364152  6900    0 0.1916 0.0000   5.5 78.74400  131.4  7422.0 2000 1997 17
41365154  7620  120 0.2116 0.2026  84.4 78.48933  131.7  7418.7 2000 1998 17
41366154 10140    0 0.2815 0.0000   5.5 78.35467  131.8  7418.2 2000 1998 17
41367156  7080  120 0.1966 0.2026  78.8 78.25667  131.5  7415.8 2000 1998 17
41368156  7320  120 0.2032 0.2026  81.3 78.25733  131.5  7416.5 2000 1998 17
41369156  7380  240 0.2049 0.4053  43.7 78.32700  131.8  7415.2 2000 1998 17
41370158  7200   60 0.1999 0.1013 154.6 78.08267  131.7  7414.8 2000 1998 17
41371159  7200  180 0.1999 0.3040  55.2 78.06600  131.7  7413.2 2000 1998 17
41372160  7560    0 0.2099 0.0000   5.5 78.20467  131.6  7412.5 2000 1997 17
41373161  6840  180 0.1899 0.3040  52.7 78.00167  131.9  7412.0 2000 1998 17
41374161  7320  360 0.2032 0.6079  30.8 78.02133  131.8  7411.6 2000 1998 17
41375163  6660  120 0.1849 0.2026  74.5 78.07850  131.7  7413.0 2000 1998 17
41376162  7500  180 0.2082 0.3040  57.3 78.07850  131.7  7410.5 2000 1998 17
41377163  6900  120 0.1916 0.2026  76.9 78.17783  132.0  7410.9 2000 1998 17
41378164  6780  180 0.1882 0.3040  52.3 78.15883  132.2  7411.7 2000 1998 17
41379165  6960  120 0.1932 0.2026  77.6 78.18917  132.2  7416.1 2000 1998 17
41380166  7380    0 0.2049 0.0000   5.5 78.25183  132.0  7416.0 2000 1998 17
41381167  6600    0 0.1832 0.0000   5.5 78.47967  132.1  7413.3 2000 1998 17
41382168  6420  180 0.1782 0.3040  49.8 78.33200  132.3  7414.5 2000 1998 17
41383169  7680  180 0.2132 0.3040  58.5 78.38533  132.7  7412.8 2000 1998 17
41384169  6360  180 0.1766 0.3040  49.4 78.51783  132.9  7412.3 2000 1998 17
41385172  6720  420 0.1866 0.7092  25.4 78.54450  132.8  7413.2 2000 1998 17
41386171  7260  120 0.2016 0.2026  80.7 78.50983  133.0  7413.3 2000 1998 17
41387173  7440    0 0.2066 0.0000   5.5 78.48133  133.1  7412.1 2000 1998 17
41388172  7260  240 0.2016 0.4053  43.1 78.46883  133.1  7410.3 2000 1998 17
41389174  6480  240 0.1799 0.4053  39.0 78.54217  132.8  7409.1 2000 1998 17
41390175  7440   60 0.2066 0.1013 159.6 78.63433  132.4  7411.0 2000 1998 17
41391176  7260   60 0.2016 0.1013 155.8 78.58717  132.5  7406.8 2000 1998 17
41392177  6780  120 0.1882 0.2026  75.7 78.32800  133.1  7404.4 2000 1998 17
41393179  8280  300 0.2299 0.5066  39.8 78.34033  133.1  7405.6 2000 1998 17
