~VERSION INFORMATION
VERS     .                               2.0:CWLS LAS VERSION
WRAP     .                                NO: One line per depth step
~WELL INFORMATION
#    MNEM.UNIT                     DATA TYPE:INFORMATION
#========.==================================:=========================================
STRT     .ms                        35037231:Время первой записи в файле
STOP     .ms                                :Время последней записи в файле
STEP     .ms                               0:Шаг времени, 0 - переменный шаг
NULL     .                           -999.25:Метка, нет значения
DATE     .                        02.10.2024:Дата каротажа
DRV      .                                  :Наименование драйвера прибора
NAME     .                           ННКТ(б):Название прибора
SNUM     .                          23613012:Серийный номер прибора
FRMW     .                         0.23.10.2:Версия прошивки на контроллере прибора
~CURVE INFORMATION
#    MNEM.UNIT                      API CODE:CURVE DESCRIPTION
#========.==================================:=========================================
TIME     .                                  :Time of RealDepth
NTNC     .имп/мин                       NTNC:Счёт, ближний зонд ННКТ
FTNC     .у.е.                          FTNC:Счёт, дальний зонд ННКТ
NTNL     .имп/мин                       NTNL:Счёт нормированный на счёт в воде, ближний зонд ННКТ
FTNL     .у.е.                          FTNL:Счёт нормированный на счёт в воде, дальний зонд ННКТ
TRNP     .%                             TRNP:Пористость по водородосодержанию ННКТ
avg_TRNP .                                  :
avg_FTNC .                                  :
avg_NTNC .                                  :
UHVS     .В                                 :Установленное напряжение на высоковольтнике
UHVM     .В                                 :Измеренное напряжение на высоковольтнике
MT       .°C                                :Температура
~PARAMETER INFORMATION BLOCK
#    MNEM.UNIT                      API CODE:CURVE DESCRIPTION
#========.==================================:=========================================
~OTHER INFORMATION

~A        NTNC FTNC   NTNL   FTNL  TRNP avg_TRNP g_FTNC vg_NTNC UHVS UHVM MT
# ...
40247382  7440  180 0.2066 0.3040  54.4 83.67500  130.4  7799.5 2000 1998 17
40248382  8400  300 0.2332 0.5066  40.3 83.64833  130.5  7801.2 2000 1998 17
40249386  7380  180 0.2049 0.3040  58.9 83.59250  130.6  7800.4 2000 1998 17
40250385  6660   60 0.1849 0.1013 143.4 83.54317  130.6  7798.9 2000 1998 17
40251387  7740  180 0.2149 0.3040  58.9 83.61767  131.0  7801.1 2000 1998 17
40252387  7560  120 0.2099 0.2026  83.8 83.61767  131.0  7801.0 2000 1998 17
40253388  7440    0 0.2066 0.0000   5.5 83.68817  130.8  7800.5 2000 1998 17
40254391  6360    0 0.1766 0.0000   5.5 83.70950  130.7  7800.4 2000 1998 17
40255391  8280   60 0.2299 0.1013 177.0 83.71983  130.7  7801.4 2000 1999 17
40256391  8100  300 0.2249 0.5066  39.0 83.71100  130.8  7803.6 2000 1998 17
40257390  7500  120 0.2082 0.2026  83.2 83.56500  130.6  7803.4 2000 1998 17
40258391  7560  180 0.2099 0.3040  57.7 83.75700  130.3  7803.0 2000 1999 17
40259394  7980   60 0.2216 0.1013 170.7 83.77883  130.3  7805.1 2000 1998 17
40260394  9780  120 0.2715 0.2026 106.8 83.60067  130.4  7803.2 2000 1998 17
40261394  7560  240 0.2099 0.4053  44.6 83.54717  130.5  7802.6 2000 1998 17
40262395  8100   60 0.2249 0.1013 173.2 83.60517  131.0  7802.6 2000 1998 17
40263397  7440   60 0.2066 0.1013 159.6 83.56783  131.0  7801.4 2000 1998 17
40264396  7740  180 0.2149 0.3040  58.9 83.75283  130.8  7800.6 2000 1998 17
40265398  7740  180 0.2149 0.3040  58.9 83.90500  131.0  7802.3 2000 1998 17
40266399  7560   60 0.2099 0.1013 162.1 83.76100  130.8  7801.0 2000 1998 17
40267400  8580  180 0.2382 0.3040  64.7 83.76317  130.8  7801.1 2000 1999 17
40268401  7920  120 0.2199 0.2026  87.5 83.61533  131.0  7803.1 2000 1998 17
40269402  8040  120 0.2232 0.2026  88.7 83.37583  131.4  7802.5 2000 1998 17
40270404  7080  420 0.1966 0.7092  26.4 83.40700  131.4  7804.0 2000 1998 17
40271403  8160  180 0.2266 0.3040  61.8 83.40833  131.4  7804.2 2000 1998 17
40272404  7740  180 0.2149 0.3040  58.9 83.49733  131.7  7804.6 2000 1999 17
40273405  7440    0 0.2066 0.0000   5.5 83.58283  131.5  7805.2 2000 1998 17
40274405  8460  420 0.2349 0.7092  30.5 83.59283  131.4  7803.6 2000 1998 17
40275406  7320  180 0.2032 0.3040  56.0 83.43350  131.5  7801.7 2000 1998 17
40276407  7200    0 0.1999 0.0000   5.5 83.55667  131.4  7801.8 2000 1998 17
40277409  7680    0 0.2132 0.0000   5.5 83.67683  131.3  7801.6 2000 1998 17
40278410  8220  240 0.2282 0.4053  48.1 83.67050  131.3  7801.0 2000 1998 17
40279411  7020  300 0.1949 0.5066  34.6 83.79683  131.2  7800.1 2000 1998 17
40280412  7680   60 0.2132 0.1013 164.5 84.03500  131.3  7798.0 2000 1998 17
40281413  6900  120 0.1916 0.2026  76.9 83.82817  131.9  7799.5 2000 1998 17
40282414  6660  120 0.1849 0.2026  74.5 83.73750  132.1  7796.5 2000 1998 17
40283417  8100   60 0.2249 0.1013 173.2 83.74167  132.1  7796.7 2000 1998 17
40284417  7260    0 0.2016 0.0000   5.5 83.77350  131.8  7794.8 2000 1998 17
40285419  7320  120 0.2032 0.2026  81.3 83.49183  131.7  7795.2 2000 1998 17
40286418  7440  120 0.2066 0.2026  82.5 83.36133  131.8  7795.3 2000 1998 17
40287418  7860  120 0.2182 0.2026  86.9 83.09217  131.7  7796.3 2000 1998 17
40288419  8580    0 0.2382 0.0000   5.5 83.16100  131.5  7797.6 2000 1998 17
40289422  7740   60 0.2149 0.1013 165.8 82.86067  131.4  7795.9 2000 1998 17
40290422  7020  120 0.1949 0.2026  78.2 82.86817  131.4  7797.0 2000 1998 17
40291423 10260    0 0.2849 0.0000   5.5 83.02567  131.2  7794.6 2000 1998 17
40292424  7140  120 0.1982 0.2026  79.4 82.93317  131.5  7793.4 2000 1998 17
40293425  7800  120 0.2166 0.2026  86.3 82.89600  131.5  7791.6 2000 1998 17
40294427  7620  120 0.2116 0.2026  84.4 82.88767  131.5  7790.8 2000 1998 17
40295428  7380  240 0.2049 0.4053  43.7 82.76550  131.6  7793.1 2000 1998 17
40296428  7800  120 0.2166 0.2026  86.3 82.61333  131.7  7791.7 2000 1998 17
40297429  6660  120 0.1849 0.2026  74.5 82.55733  131.7  7789.0 2000 1998 17
40298430  7800  240 0.2166 0.4053  47.7 82.42900  131.5  7789.5 2000 1998 17
40299432  8880   60 0.2465 0.1013 180.7 82.09767  131.6  7790.0 2000 1998 17
40300433  6840    0 0.1899 0.0000   5.5 82.16433  131.3  7787.5 2000 1998 17
40301434  8280  180 0.2299 0.3040  62.7 82.19750  131.3  7789.1 2000 1998 17
40302436  7680  120 0.2132 0.2026  85.0 82.49567  131.4  7791.6 2000 1999 17
40303437  7680  120 0.2132 0.2026  85.0 82.36933  131.5  7791.6 2000 1998 17
40304439  8940    0 0.2482 0.0000   5.5 82.35067  131.5  7789.8 2000 1998 17
40305440  8340  300 0.2316 0.5066  40.0 82.45933  131.4  7788.3 2000 1998 17
40306441  9720  300 0.2699 0.5066  45.8 82.67667  131.0  7787.5 2000 1998 17
40307443  8220  120 0.2282 0.2026  90.6 82.81850  131.2  7789.0 2000 1998 17
40308444  7320    0 0.2032 0.0000   5.5 82.73400  131.4  7787.3 2000 1998 17
40309445  8460  240 0.2349 0.4053  49.3 82.86033  131.3  7787.3 2000 1998 17
40310446  8040   60 0.2232 0.1013 172.0 82.69250  131.5  7787.8 2000 1998 17
40311448  7740   60 0.2149 0.1013 165.8 82.88267  131.1  7787.7 2000 1998 17
40312449  9060  240 0.2515 0.4053  52.4 82.75417  131.2  7787.5 2000 1998 17
40313450  7860  240 0.2182 0.4053  46.2 82.76450  131.2  7789.0 2000 1998 17
40314452  7500    0 0.2082 0.0000   5.5 82.78900  131.1  7787.0 2000 1998 17
40315452  7920  120 0.2199 0.2026  87.5 82.98167  130.9  7788.1 2000 1998 17
40316453  7020    0 0.1949 0.0000   5.5 82.74783  131.6  7788.1 2000 1998 17
40317455  6600    0 0.1832 0.0000   5.5 82.75717  131.6  7789.0 2000 1998 17
40318455  7560  300 0.2099 0.5066  36.8 82.72717  131.6  7786.1 2000 1998 17
40319456  6780   60 0.1882 0.1013 145.9 82.80467  131.2  7784.6 2000 1998 17
40320457  8640   60 0.2399 0.1013 184.4 82.84550  131.1  7783.5 2000 1998 17
40321456  7800  120 0.2166 0.2026  86.3 83.08783  130.7  7784.4 2000 1998 17
40322459  8460  180 0.2349 0.3040  63.9 83.18517  130.6  7782.4 2000 1998 17
40323459  8220    0 0.2282 0.0000   5.5 83.16750  130.6  7780.7 2000 1998 17
40324460  7200  180 0.1999 0.3040  55.2 83.24750  130.9  7778.4 2000 1998 17
40325461  8040  120 0.2232 0.2026  88.7 83.16883  131.1  7777.7 2000 1998 17
40326462  8040  240 0.2232 0.4053  47.1 83.32833  131.0  7777.1 2000 1998 17
40327463  9120  120 0.2532 0.2026  99.9 83.49450  130.7  7775.0 2000 1998 17
40328464  9180  180 0.2549 0.3040  68.9 83.57733  130.6  7771.9 2000 1998 17
40329464  6840  240 0.1899 0.4053  40.9 83.63467  130.5  7772.5 2000 1998 17
40330465  7560  120 0.2099 0.2026  83.8 83.53600  130.2  7769.2 2000 1998 17
40331465  7620  180 0.2116 0.3040  58.1 83.79067  130.3  7769.8 2000 1998 17
40332467  7800  180 0.2166 0.3040  59.3 83.76000  130.4  7771.3 2000 1998 17
40333467  6960  120 0.1932 0.2026  77.6 83.77633  130.3  7770.2 2000 1998 17
40334468  6960  120 0.1932 0.2026  77.6 83.72100  129.9  7772.1 2000 1998 17
40337095  8520   60 0.2365 0.1013 181.9 83.71683  129.9  7771.5 2000 1998 17
40337306  7380   60 0.2049 0.1013 146.5 83.52083  130.1  7769.7 2000 1998 17
40338308  7680  120 0.2132 0.2026  85.0 83.69900  129.9  7771.5 2000 1998 17
40339308  7860  120 0.2182 0.2026  86.9 83.79750  129.5  7772.2 2000 1998 17
40340309  6480   60 0.1799 0.1013 139.7 83.79750  129.5  7772.2 2000 1998 17
40341310  8040  120 0.2232 0.2026  88.7 83.67433  129.3  7774.0 2000 1998 17
40342310  6600  180 0.1832 0.3040  51.1 83.84417  129.2  7776.5 2000 1998 17
40343312  7440  360 0.2066 0.6079  31.2 83.92550  129.0  7778.5 2000 1998 17
40344312  8520  240 0.2365 0.4053  49.6 83.77950  128.8  7777.2 2000 1998 17
40345312  6540   60 0.1816 0.1013 140.9 83.79917  128.8  7779.1 2000 1998 17
40346313  9180  120 0.2549 0.2026 100.5 83.60533  129.0  7779.0 2000 1998 17
40347314  7320  180 0.2032 0.3040  56.0 83.59800  129.0  7778.3 2000 1998 17
40348316  7560  120 0.2099 0.2026  83.8 83.74083  129.2  7779.5 2000 1998 17
40349317  7440  300 0.2066 0.5066  36.3 83.73250  129.2  7778.7 2000 1998 17
40350318  8100  180 0.2249 0.3040  61.4 83.73800  129.2  7779.5 2000 1998 17
40351319  8640  180 0.2399 0.3040  65.1 83.71417  129.2  7777.2 2000 1998 17
