~VERSION INFORMATION
VERS     .                               2.0:CWLS LAS VERSION
WRAP     .                                NO: One line per depth step
~WELL INFORMATION
#    MNEM.UNIT                     DATA TYPE:INFORMATION
#========.==================================:=========================================
STRT     .ms                        35037231:Время первой записи в файле
STOP     .ms                                :Время последней записи в файле
STEP     .ms                               0:Шаг времени, 0 - переменный шаг
NULL     .                           -999.25:Метка, нет значения
DATE     .                        02.10.2024:Дата каротажа
DRV      .                                  :Наименование драйвера прибора
NAME     .                           ННКТ(б):Название прибора
SNUM     .                          23613012:Серийный номер прибора
FRMW     .                         0.23.10.2:Версия прошивки на контроллере прибора
~CURVE INFORMATION
#    MNEM.UNIT                      API CODE:CURVE DESCRIPTION
#========.==================================:=========================================
TIME     .                                  :Time of RealDepth
NTNC     .имп/мин                       NTNC:Счёт, ближний зонд ННКТ
FTNC     .у.е.                          FTNC:Счёт, дальний зонд ННКТ
NTNL     .имп/мин                       NTNL:Счёт нормированный на счёт в воде, ближний зонд ННКТ
FTNL     .у.е.                          FTNL:Счёт нормированный на счёт в воде, дальний зонд ННКТ
TRNP     .%                             TRNP:Пористость по водородосодержанию ННКТ
avg_TRNP .                                  :
avg_FTNC .                                  :
avg_NTNC .                                  :
UHVS     .В                                 :Установленное напряжение на высоковольтнике
UHVM     .В                                 :Измеренное напряжение на высоковольтнике
MT       .°C                                :Температура
~PARAMETER INFORMATION BLOCK
#    MNEM.UNIT                      API CODE:CURVE DESCRIPTION
#========.==================================:=========================================
~OTHER INFORMATION

~A        NTNC FTNC   NTNL   FTNL  TRNP avg_TRNP g_FTNC vg_NTNC UHVS UHVM MT
# ...
42332726  7860  240 0.2182 0.4053  46.2 77.27267  129.6  7211.3 2000 1998 17
42333727  6960  120 0.1932 0.2026  77.6 77.32033  129.5  7212.1 2000 1998 17
42334729  8220   60 0.2282 0.1013 175.7 77.57300  129.6  7213.2 2000 1998 17
42335730  8100  180 0.2249 0.3040  61.4 77.59050  129.6  7214.9 2000 1998 17
42336732  6060   60 0.1682 0.1013 131.0 77.64050  129.5  7216.0 2000 1998 17
42337734  7920    0 0.2199 0.0000   5.5 77.78433  129.4  7217.1 2000 1998 17
42338733  8100    0 0.2249 0.0000   5.5 77.75350  129.7  7218.6 2000 1998 17
42339734  6720    0 0.1866 0.0000   5.5 77.86433  129.6  7217.1 2000 1998 17
42340737  6960  360 0.1932 0.6079  29.5 77.98950  129.5  7216.2 2000 1998 17
42341736  7080   60 0.1966 0.1013 152.1 78.01100  129.4  7214.4 2000 1998 17
42342738  8580  180 0.2382 0.3040  64.7 78.13633  129.6  7217.8 2000 1998 17
42343739  7740   60 0.2149 0.1013 165.8 77.95200  129.8  7216.5 2000 1998 17
42344740  6840    0 0.1899 0.0000   5.5 77.99133  129.8  7218.4 2000 1998 17
42345742  6900  180 0.1916 0.3040  53.1 78.01900  129.7  7219.6 2000 1998 17
42346743  7200  120 0.1999 0.2026  80.0 78.14533  129.9  7219.7 2000 1998 17
42347744  6600    0 0.1832 0.0000   5.5 78.09800  130.0  7219.0 2000 1998 17
42348745  6900   60 0.1916 0.1013 148.4 77.96350  130.2  7220.9 2000 1998 17
42349747  7080   60 0.1966 0.1013 152.1 77.74350  130.6  7219.4 2000 1998 17
42350747  7200   60 0.1999 0.1013 154.6 77.87083  130.8  7218.6 2000 1998 17
42351748  6840  180 0.1899 0.3040  52.7 77.86783  130.9  7220.6 2000 1998 17
42352749  7260  180 0.2016 0.3040  55.6 78.04450  130.7  7220.6 2000 1998 17
42353749  8460  180 0.2349 0.3040  63.9 78.04050  130.7  7220.0 2000 1998 17
42354750  7020   60 0.1949 0.1013 158.3 78.15750  130.9  7219.9 2000 1998 17
42355751  6660   60 0.1849 0.1013 136.0 78.26200  130.8  7218.2 2000 1998 17
42356753  8520   60 0.2365 0.1013 181.9 78.18950  130.9  7221.0 2000 1998 17
42357754  8220   60 0.2282 0.1013 184.4 78.27050  130.6  7221.8 2000 1998 17
42358756  7140  180 0.1982 0.3040  54.8 78.39683  130.5  7222.5 2000 1998 17
42359756  7860  120 0.2182 0.2026  86.9 78.34050  130.6  7220.2 2000 1998 17
42360756  7800  240 0.2166 0.4053  45.9 78.45967  130.5  7220.2 2000 1998 17
42361758  8400  120 0.2332 0.2026  92.5 78.28717  130.7  7218.8 2000 1998 17
42362758  6960  180 0.1932 0.3040  53.5 78.22167  131.1  7221.0 2000 1998 17
42363760  7020   60 0.1949 0.1013 150.9 78.46200  130.8  7223.8 2000 1998 17
42364761  8160   60 0.2266 0.1013 174.5 78.27650  131.2  7224.2 2000 1998 17
42365763  6960   60 0.1932 0.1013 149.6 78.21633  131.5  7226.7 2000 1998 17
42366762  6420   60 0.1782 0.1013 138.4 78.22300  131.5  7228.3 2000 1998 17
42367764  6480  300 0.1799 0.5066  32.3 78.09033  131.6  7226.7 2000 1998 17
42368764  6900  120 0.1916 0.2026  76.9 78.15817  132.0  7226.9 2000 1998 17
42369765  6660  180 0.1849 0.3040  51.5 78.05667  132.1  7228.4 2000 1998 17
42370766  7380  180 0.2049 0.3040  56.4 78.19333  132.0  7228.9 2000 1998 17
42371767  6960  360 0.1932 0.6079  29.5 78.20167  132.0  7229.7 2000 1998 17
42372768  6840  180 0.1899 0.3040  52.7 78.17617  132.1  7232.0 2000 1998 17
42373769  7500   60 0.2082 0.1013 160.8 78.04150  132.2  7231.9 2000 1998 17
42374769  7380  180 0.2049 0.3040  56.4 77.93583  132.0  7234.5 2000 1998 17
42375770  8640  120 0.2399 0.2026  95.0 77.80333  132.2  7235.7 2000 1998 17
42376771  7320  240 0.2032 0.4053  43.4 78.00350  132.0  7237.7 2000 1998 17
42377772  8040   60 0.2232 0.1013 172.0 77.89883  132.1  7238.8 2000 1998 17
42378774  7860    0 0.2182 0.0000   5.5 77.72550  132.3  7238.1 2000 1998 17
42379774  7260  120 0.2016 0.2026  80.7 77.71133  132.4  7239.5 2000 1998 17
42380775  7980  240 0.2216 0.4053  46.8 77.80183  132.7  7243.8 2000 1998 17
42381777  6600   60 0.1832 0.1013 142.2 77.68583  132.5  7244.1 2000 1998 17
42382777  8640  180 0.2399 0.3040  65.1 77.65817  132.6  7245.7 2000 1998 17
42383779  6360  180 0.1766 0.3040  49.4 77.70833  132.5  7246.7 2000 1998 17
42384779  7140   60 0.1982 0.1013 153.4 77.58417  132.6  7247.9 2000 1998 17
42385781  6720  180 0.1866 0.3040  51.9 77.75917  132.3  7246.9 2000 1998 17
42386782  7080   60 0.1966 0.1013 152.1 77.81533  132.2  7248.6 2000 1998 17
42387783  8160  300 0.2266 0.5066  39.3 77.81533  132.2  7248.6 2000 1998 17
42388784  7260  180 0.2016 0.3040  55.6 77.74017  132.6  7249.6 2000 1998 17
42389785  7020   60 0.1949 0.1013 150.9 77.87467  132.5  7248.9 2000 1998 17
42390786  7140  120 0.1982 0.2026  79.4 77.85217  132.6  7248.6 2000 1998 17
42391788  8580  240 0.2382 0.4053  49.9 77.78450  133.0  7250.8 2000 1998 17
42392788  8520  240 0.2365 0.4053  49.6 77.59117  133.5  7250.8 2000 1998 17
42393791  6900    0 0.1916 0.0000   5.5 77.60050  133.5  7251.7 2000 1998 17
42394790  6540  240 0.1816 0.4053  39.4 77.41317  133.8  7250.9 2000 1998 17
42395792  8040  240 0.2232 0.4053  47.1 77.34850  134.0  7250.8 2000 1998 17
42396792  8100  120 0.2249 0.2026  89.4 77.21483  134.3  7254.4 2000 1998 17
42397793  7920  180 0.2199 0.3040  60.2 77.21483  134.3  7258.1 2000 1998 17
42398795  6780  120 0.1882 0.2026  75.7 77.48400  134.4  7259.1 2000 1998 17
42399794  6000  120 0.1666 0.2026  67.6 77.62900  134.3  7259.5 2000 1998 17
42400796  7440    0 0.2066 0.0000   5.5 77.57417  134.5  7260.6 2000 1998 17
42401797  8220    0 0.2282 0.0000   5.5 77.62517  134.4  7262.1 2000 1998 17
42402798  7020  180 0.1949 0.3040  54.0 77.79633  134.2  7262.9 2000 1998 17
42403798  7260   60 0.2016 0.1013 163.3 77.99433  133.8  7263.1 2000 1998 17
42404799  6720  120 0.1866 0.2026  71.3 77.92283  134.0  7262.8 2000 1998 17
42405801  7740  180 0.2149 0.3040  58.9 77.84100  134.1  7266.7 2000 1998 17
42406802  7380   60 0.2049 0.1013 165.8 77.67950  134.2  7264.7 2000 1998 17
42407802  7800    0 0.2166 0.0000   5.5 77.77500  133.9  7267.7 2000 1998 17
42408804  6360  120 0.1766 0.2026  71.3 77.76983  133.9  7266.6 2000 1998 17
42409805  6840  240 0.1899 0.4053  40.9 77.76983  133.9  7267.2 2000 1998 17
42410806  8340   60 0.2316 0.1013 178.2 77.73800  134.0  7269.1 2000 1998 17
42411807  7380   60 0.2049 0.1013 158.3 77.65717  134.1  7272.5 2000 1998 17
42412809  7320    0 0.2032 0.0000   5.5 77.68467  133.9  7274.4 2000 1998 17
42413810  7260  180 0.2016 0.3040  55.6 77.49967  134.1  7275.0 2000 1998 17
42414812  7740  120 0.2149 0.2026  85.6 77.51783  134.0  7274.6 2000 1998 17
42415811  6240   60 0.1732 0.1013 134.7 77.59450  134.3  7274.8 2000 1998 17
42416813  6900  120 0.1916 0.2026  76.9 77.70217  133.8  7276.0 2000 1998 17
42417814  6780  180 0.1882 0.3040  52.3 77.85750  133.7  7279.2 2000 1998 17
42418815  6780   60 0.1882 0.1013 145.9 77.81617  134.1  7279.8 2000 1998 17
42419816  7500  120 0.2082 0.2026  83.2 77.98450  133.9  7279.6 2000 1998 17
42420818  6720   60 0.1866 0.1013 144.7 78.18250  133.7  7281.3 2000 1998 17
42421819  7380  300 0.2049 0.5066  36.1 78.06233  133.5  7283.9 2000 1998 17
42422820  6960  120 0.1932 0.2026  77.6 78.13267  133.4  7286.8 2000 1998 17
42423822  7320  120 0.2032 0.2026  81.3 78.24867  133.3  7285.7 2000 1998 17
42424822  7620    0 0.2116 0.0000   5.5 78.39267  133.2  7286.9 2000 1998 17
42425822  8700  180 0.2415 0.3040  65.6 78.27467  133.0  7288.3 2000 1998 17
42426823  7440  180 0.2066 0.3040  56.9 78.25150  133.1  7290.6 2000 1997 17
42427824  7560  360 0.2099 0.6079  31.6 78.25150  133.1  7290.6 2000 1998 17
42428825  6540    0 0.1816 0.0000   5.5 78.21183  133.2  7291.6 2000 1998 17
42429825  6720    0 0.1866 0.0000   5.5 78.48933  133.3  7292.1 2000 1998 17
42430826  6540  240 0.1816 0.4053  39.4 78.69433  133.1  7295.0 2000 1998 17
42431826  7140   60 0.1982 0.1013 153.4 78.70383  133.0  7292.7 2000 1998 17
42432828  6720   60 0.1866 0.1013 144.7 78.54167  133.2  7293.6 2000 1998 17
42433830  8100  120 0.2249 0.2026  89.4 78.60367  133.0  7293.2 2000 1998 17
42434830  6960  120 0.1932 0.2026  77.6 78.61050  133.0  7294.2 2000 1998 17
42435831  7620  180 0.2116 0.3040  58.1 78.59400  133.0  7293.4 2000 1998 17
