~VERSION INFORMATION
VERS     .                               2.0:CWLS LAS VERSION
WRAP     .                                NO: One line per depth step
~WELL INFORMATION
#    MNEM.UNIT                     DATA TYPE:INFORMATION
#========.==================================:=========================================
STRT     .ms                        35037231:Время первой записи в файле
STOP     .ms                                :Время последней записи в файле
STEP     .ms                               0:Шаг времени, 0 - переменный шаг
NULL     .                           -999.25:Метка, нет значения
DATE     .                        02.10.2024:Дата каротажа
DRV      .                                  :Наименование драйвера прибора
NAME     .                           ННКТ(б):Название прибора
SNUM     .                          23613012:Серийный номер прибора
FRMW     .                         0.23.10.2:Версия прошивки на контроллере прибора
~CURVE INFORMATION
#    MNEM.UNIT                      API CODE:CURVE DESCRIPTION
#========.==================================:=========================================
TIME     .                                  :Time of RealDepth
NTNC     .имп/мин                       NTNC:Счёт, ближний зонд ННКТ
FTNC     .у.е.                          FTNC:Счёт, дальний зонд ННКТ
NTNL     .имп/мин                       NTNL:Счёт нормированный на счёт в воде, ближний зонд ННКТ
FTNL     .у.е.                          FTNL:Счёт нормированный на счёт в воде, дальний зонд ННКТ
TRNP     .%                             TRNP:Пористость по водородосодержанию ННКТ
avg_TRNP .                                  :
avg_FTNC .                                  :
avg_NTNC .                                  :
UHVS     .В                                 :Установленное напряжение на высоковольтнике
UHVM     .В                                 :Измеренное напряжение на высоковольтнике
MT       .°C                                :Температура
~PARAMETER INFORMATION BLOCK
#    MNEM.UNIT                      API CODE:CURVE DESCRIPTION
#========.==================================:=========================================
~OTHER INFORMATION

~A        NTNC FTNC   NTNL   FTNL  TRNP avg_TRNP g_FTNC vg_NTNC UHVS UHVM MT
# ...
45456637  8880  300 0.2465 0.5066  42.3 95.43900  167.4  9978.2 2000 1998 17
45457638  9660  360 0.2682 0.6079  38.8 95.55167  167.1  9980.2 2000 1998 17
45458639 10560    0 0.2932 0.0000   5.5 95.48250  167.4  9983.3 2000 1999 17
45459640  9540   60 0.2649 0.1013 203.1 95.18517  167.8  9981.9 2000 1998 17
45460642 11100  240 0.3082 0.4053  63.0 95.01600  168.0  9984.8 2000 1998 17
45461641 10680  300 0.2965 0.5066  49.7 95.13467  167.6  9985.8 2000 1998 17
45462643  9720   60 0.2699 0.1013 206.8 95.04350  167.2  9983.8 2000 1998 17
45463644  8940    0 0.2482 0.0000   5.5 94.80800  167.4  9982.9 2000 1998 17
45464645 10200  120 0.2832 0.2026 111.1 94.80533  167.4  9982.4 2000 1998 17
45465647 10380  180 0.2882 0.3040  77.1 94.76300  167.5  9983.3 2000 1998 17
45466647  8580   60 0.2382 0.1013 183.2 94.53933  167.7  9983.1 2000 1998 17
45467647 10800  180 0.2999 0.3040  80.0 94.29750  168.0  9983.5 2000 1998 17
45468648  9360  240 0.2599 0.4053  54.0 94.25250  168.2  9983.5 2000 1998 17
45469650 10320  180 0.2865 0.3040  76.7 94.30850  168.1  9983.2 2000 1998 17
45470651 10800   60 0.2999 0.1013 229.1 94.36017  167.8  9981.1 2000 1998 17
45471651  9360  120 0.2599 0.2026 102.4 94.51333  168.0  9979.9 2000 1998 17
45472652 10020  180 0.2782 0.3040  74.7 94.77167  167.7  9980.3 2000 1998 17
45473653 11640  120 0.3232 0.2026 126.0 94.75067  167.9  9980.2 2000 1998 17
45474653  9660  120 0.2682 0.2026 105.5 94.78617  167.8  9980.9 2000 1998 17
45475654  9960  180 0.2765 0.3040  74.2 95.05700  167.5  9979.8 2000 1998 17
45476655  9420   60 0.2615 0.1013 200.6 94.98300  167.7  9980.5 2000 1998 17
45477655  8940  180 0.2482 0.3040  67.2 95.01300  167.6  9980.3 2000 1998 17
45478657 11820  240 0.3282 0.4053  66.7 95.02383  167.6  9982.9 2000 1998 17
45479657  9600  300 0.2665 0.5066  45.3 94.84367  167.7  9982.5 2000 1998 17
45480658 10080  120 0.2799 0.2026 109.9 95.14400  167.8  9979.4 2000 1998 17
45481659  9060  240 0.2515 0.4053  52.4 95.38900  167.6  9980.9 2000 1998 17
45482659 10560  240 0.2932 0.4053  60.2 95.41150  167.5  9982.4 2000 1998 17
45483659  9960  120 0.2765 0.2026 108.6 95.22817  167.3  9981.8 2000 1998 17
45484661 10200  180 0.2832 0.3040  75.9 95.02633  167.6  9984.8 2000 1998 17
45485662 10260  120 0.2849 0.2026 111.7 94.81917  167.8  9986.8 2000 1998 17
45486665  8700  120 0.2415 0.2026  95.6 95.08800  167.3  9985.7 2000 1998 17
45487667  9540   60 0.2649 0.1013 203.1 95.12283  166.9  9983.9 2000 1998 17
45488666  8640  480 0.2399 0.8105  27.9 95.07700  167.0  9985.1 2000 1998 17
45489668  9300  120 0.2582 0.2026 101.8 94.97850  167.2  9982.9 2000 1998 17
45490669  9420  180 0.2615 0.3040  70.5 95.28383  166.6  9982.9 2000 1999 17
45491670 10200  240 0.2832 0.4053  58.3 95.21700  166.8  9985.4 2000 1998 17
45492672  9480  180 0.2632 0.3040  70.9 94.86150  167.5  9982.5 2000 1998 17
45493673  9360   60 0.2599 0.1013 199.3 94.77033  167.1  9982.3 2000 1998 17
45494675 10860   60 0.3015 0.1013 230.4 94.56633  167.2  9980.3 2000 1998 17
45495676 11340  120 0.3148 0.2026 122.9 94.73200  167.1  9978.7 2000 1998 17
45496676  9780  180 0.2715 0.3040  73.0 94.43950  167.4  9975.6 2000 1999 17
45497678  9600  120 0.2665 0.2026 104.9 94.17700  167.7  9974.7 2000 1999 17
45498679 10200  240 0.2832 0.4053  61.1 94.25900  167.6  9978.1 2000 1998 17
45499680 11940  120 0.3315 0.2026 122.9 94.31983  167.4  9980.8 2000 1998 17
45500681  9780  240 0.2715 0.4053  56.1 94.34250  167.4  9981.9 2000 1998 17
45501682  9420  240 0.2615 0.4053  56.8 94.33417  167.4  9980.7 2000 1998 17
45502684  9120  240 0.2532 0.4053  52.7 94.33417  167.4  9979.9 2000 1998 17
45503685 10440    0 0.2899 0.0000   5.5 94.06500  167.7  9980.1 2000 1998 17
45504686  9180  180 0.2549 0.3040  68.9 93.80683  167.9  9978.5 2000 1998 17
45505688 10020  120 0.2782 0.2026 109.2 93.64950  168.0  9978.6 2000 1998 17
45506689  9060    0 0.2515 0.0000   5.5 93.63100  168.0  9975.9 2000 1998 17
45507690  9180  180 0.2549 0.3040  68.9 93.64417  167.9  9976.4 2000 1998 17
45508692 10620  180 0.2949 0.3040  78.8 93.62133  168.1  9979.9 2000 1998 17
45509695 10620   60 0.2949 0.1013 225.4 93.71200  168.5  9981.6 2000 1998 17
45510695 10020  180 0.2782 0.3040  74.7 93.60933  168.8  9981.7 2000 1998 17
45511698  9840  240 0.2732 0.4053  56.4 93.75933  168.7  9981.5 2000 1998 17
45512697 10980  180 0.3048 0.3040  81.3 93.80950  168.3  9979.4 2000 1998 17
45513698  9900  240 0.2749 0.4053  56.8 93.80533  168.3  9978.6 2000 1998 17
45514700 11760  120 0.3265 0.2026 127.3 93.95850  168.2  9977.4 2000 1998 17
45515700 10200  180 0.2832 0.3040  75.9 93.95950  168.2  9977.6 2000 1998 17
45516702  9240  180 0.2565 0.3040  69.3 93.95067  168.3  9980.9 2000 1998 17
45517703 10200  120 0.2832 0.2026 111.1 93.94033  168.3  9980.4 2000 1998 17
45518707  9300  120 0.2582 0.2026 101.8 94.00867  168.8  9982.4 2000 1998 17
45519706 10380  120 0.2882 0.2026 113.0 93.99383  168.9  9981.3 2000 1998 17
45520706 10440  180 0.2899 0.3040  77.6 94.27667  168.5  9982.4 2000 1998 17
45521707 10380  180 0.2882 0.3040  77.1 94.54483  168.2  9983.2 2000 1998 17
45522709  9720  240 0.2699 0.4053  55.8 94.33150  168.3  9980.9 2000 1998 17
45523710  9780  360 0.2715 0.6079  39.3 94.37733  167.9  9981.4 2000 1998 17
45524711  9840  180 0.2732 0.3040  73.4 94.43433  167.8  9981.4 2000 1998 17
45525714 10080  240 0.2799 0.4053  57.7 94.52950  167.6  9983.2 2000 1998 17
45526712 10140    0 0.2815 0.0000   5.5 94.54733  167.5  9981.4 2000 1998 17
45527713  9960   60 0.2765 0.1013 211.8 94.80400  167.3  9982.6 2000 1998 17
45528713  9420   60 0.2615 0.1013 200.6 94.84350  167.1  9981.4 2000 1998 17
45529714 10200   60 0.2832 0.1013 216.7 94.83683  167.1  9980.1 2000 1998 17
45530715  9540  180 0.2649 0.3040  71.3 94.85867  167.0  9978.9 2000 1998 17
45531716  8820  120 0.2449 0.2026  96.8 94.80933  167.1  9979.6 2000 1998 17
45532718  8640  240 0.2399 0.4053  50.2 94.80517  167.1  9979.0 2000 1998 17
45533720 10020  120 0.2782 0.2026 109.2 94.92000  166.8  9981.1 2000 1998 17
45534721  9120  360 0.2532 0.6079  37.0 95.05467  167.1  9984.4 2000 1998 17
45535723  9900  180 0.2749 0.3040  73.8 95.15717  166.9  9985.1 2000 1998 17
45536725  9600    0 0.2665 0.0000   5.5 95.09550  167.2  9983.6 2000 1998 17
45537726  9660  120 0.2682 0.2026 105.5 95.39017  166.6  9984.2 2000 1998 17
45538728 11700  120 0.3248 0.2026 126.6 95.39217  166.6  9984.4 2000 1998 17
45539730  9360  120 0.2599 0.2026 107.4 95.43533  166.5  9982.9 2000 1998 17
45540729  9600  180 0.2665 0.3040  68.5 95.42500  166.5  9982.4 2000 1998 17
45541730 10740  360 0.2982 0.6079  44.4 95.40417  166.7  9984.3 2000 1998 17
45542732  8820    0 0.2449 0.0000   5.5 95.13183  167.0  9982.1 2000 1998 17
45543732 11040  120 0.3065 0.2026 119.8 95.19900  166.8  9985.1 2000 1998 17
45544734 11160  180 0.3098 0.3040  82.5 95.48883  166.9  9982.3 2000 1998 17
45545735  9840  300 0.2732 0.5066  46.3 95.52117  166.7  9981.5 2000 1998 17
45546737 10680  180 0.2965 0.3040  79.2 95.23017  167.2  9979.2 2000 1998 17
45547738  9480   60 0.2632 0.1013 201.8 95.34300  166.8  9978.6 2000 1999 17
45548740 10740  240 0.2982 0.4053  61.1 95.22183  166.9  9980.3 2000 1998 17
45549741  9420  180 0.2615 0.3040  70.5 95.16350  167.0  9975.3 2000 1998 17
45550743 10500   60 0.2915 0.1013 222.9 94.85567  167.6  9975.8 2000 1998 17
45551744 10140  120 0.2815 0.2026 110.5 95.06283  167.5  9977.3 2000 1998 17
45552746  8940  180 0.2482 0.3040  67.2 94.84950  167.6  9975.2 2000 1998 17
45553746 11340   60 0.3148 0.1013 240.3 95.00383  167.5  9974.2 2000 1998 17
45554746 11700   60 0.3248 0.1013 247.8 95.06217  167.4  9973.8 2000 1998 17
45555748 11340  420 0.3148 0.7092  39.0 95.25050  167.3  9975.0 2000 1998 17
45556749 10140  180 0.2815 0.3040  75.5 95.42450  167.2  9976.1 2000 1998 17
45557749 10200  240 0.2832 0.4053  58.3 95.33967  167.4  9976.3 2000 1998 17
45558751  8940  120 0.2482 0.2026  98.1 95.40767  167.3  9977.5 2000 1998 17
45559752  8340  180 0.2316 0.3040  63.1 95.34867  166.7  9977.8 2000 1998 17
