~VERSION INFORMATION
VERS     .                               2.0:CWLS LAS VERSION
WRAP     .                                NO: One line per depth step
~WELL INFORMATION
#    MNEM.UNIT                     DATA TYPE:INFORMATION
#========.==================================:=========================================
STRT     .ms                        35037231:Время первой записи в файле
STOP     .ms                                :Время последней записи в файле
STEP     .ms                               0:Шаг времени, 0 - переменный шаг
NULL     .                           -999.25:Метка, нет значения
DATE     .                        02.10.2024:Дата каротажа
DRV      .                                  :Наименование драйвера прибора
NAME     .                           ННКТ(б):Название прибора
SNUM     .                          23613012:Серийный номер прибора
FRMW     .                         0.23.10.2:Версия прошивки на контроллере прибора
~CURVE INFORMATION
#    MNEM.UNIT                      API CODE:CURVE DESCRIPTION
#========.==================================:=========================================
TIME     .                                  :Time of RealDepth
NTNC     .имп/мин                       NTNC:Счёт, ближний зонд ННКТ
FTNC     .у.е.                          FTNC:Счёт, дальний зонд ННКТ
NTNL     .имп/мин                       NTNL:Счёт нормированный на счёт в воде, ближний зонд ННКТ
FTNL     .у.е.                          FTNL:Счёт нормированный на счёт в воде, дальний зонд ННКТ
TRNP     .%                             TRNP:Пористость по водородосодержанию ННКТ
avg_TRNP .                                  :
avg_FTNC .                                  :
avg_NTNC .                                  :
UHVS     .В                                 :Установленное напряжение на высоковольтнике
UHVM     .В                                 :Измеренное напряжение на высоковольтнике
MT       .°C                                :Температура
~PARAMETER INFORMATION BLOCK
#    MNEM.UNIT                      API CODE:CURVE DESCRIPTION
#========.==================================:=========================================
~OTHER INFORMATION

~A        NTNC FTNC   NTNL   FTNL  TRNP avg_TRNP g_FTNC vg_NTNC UHVS UHVM MT
35037231  1140 1680 0.0317 2.8369   6.3  3.23400  750.6   568.5 2000 1998 23
35038232  1080 1740 0.0300 2.9382   6.3  3.24550  752.5   570.7 2000 1998 23
35039233   960  900 0.0267 1.5198   6.8  3.25583  755.7   572.4 2000 1998 23
35040234   720 1800 0.0200 3.0395   6.0  3.26733  757.7   574.7 2000 1998 23
35041237  1140 1440 0.0317 2.4316   6.5  3.27767  759.7   575.9 2000 1998 23
35042236  1020 1560 0.0283 2.6342   6.3  3.28850  761.8   577.6 2000 1998 23
35043237   900 1560 0.0250 2.6342   6.2  3.29917  764.6   579.7 2000 1997 23
35044239  1620 1500 0.0450 2.5329   6.8  3.31000  767.3   581.9 2000 1998 23
35045238  1200 1560 0.0333 2.6342   6.5  3.32033  769.7   583.2 2000 1997 23
35046239  1080 1440 0.0300 2.4316   6.4  3.33083  773.1   585.3 2000 1998 23
35047248  1140 1440 0.0317 2.4316   6.5  3.34200  775.3   587.5 2000 1998 23
35048242  1140 1140 0.0317 1.9250   6.7  3.35250  777.6   588.9 2000 1997 23
35049244  1440 1200 0.0400 2.0263   7.0  3.36300  780.0   590.5 2000 1997 23
35050248  1320 1680 0.0366 2.8369   6.5  3.37350  783.2   592.6 2000 1998 23
35051247  1080 1380 0.0300 2.3303   6.5  3.38433  786.8   595.4 2000 1998 23
35052248   840 2280 0.0233 3.8501   6.0  3.39483  788.9   596.7 2000 1998 23
35053250   900 1500 0.0250 2.5329   6.2  3.40600  790.6   598.3 2000 1998 23
35054249  1620 1980 0.0450 3.3435   6.5  3.41717  793.2   600.8 2000 1998 23
35055251  1380 1320 0.0383 2.2290   6.8  3.42750  795.8   602.3 2000 1998 23
35056252   840 1380 0.0233 2.3303   6.3  3.43800  799.3   604.7 2000 1998 23
35057253  1080 1740 0.0300 2.9382   6.3  3.44867  802.0   606.7 2000 1998 23
35058255   960 1200 0.0267 2.0263   6.5  3.45883  804.7   608.1 2000 1998 23
35059256   960 1020 0.0267 1.7224   6.7  3.46933  807.8   610.1 2000 1998 23
35060256  1440 1560 0.0400 2.6342   6.6  3.47983  810.6   612.0 2000 1998 23
35061257  1080 1860 0.0300 3.1408   6.2  3.48983  814.2   613.5 2000 1997 23
35062257   960 1500 0.0267 2.5329   6.3  3.50083  816.8   615.9 2000 1997 23
35063258   960 1680 0.0267 2.8369   6.2  3.51150  819.2   617.6 2000 1998 23
35064260  1380 1080 0.0383 1.8237   7.1  3.52433  821.2   621.2 2000 1998 23
35065262   840 1500 0.0233 2.5329   6.2  3.53533  823.0   622.8 2000 1998 23
35066261  1140 1500 0.0317 2.5329   6.4  3.54650  826.0   625.8 2000 1998 23
35067262  1440 1500 0.0400 2.5329   6.7  3.55667  828.5   627.1 2000 1998 23
35068263  1080 1920 0.0300 3.2421   6.2  3.56733  831.2   629.0 2000 1998 23
35069263  1200 1560 0.0333 2.6342   6.5  3.57750  833.0   629.9 2000 1998 23
35070265  1380 1620 0.0383 2.7356   6.6  3.58817  835.2   631.5 2000 1998 23
35071265  1440 1800 0.0400 3.0395   6.5  3.60000  837.2   634.1 2000 1998 23
35072266  1080 1680 0.0300 2.8369   6.3  3.61050  839.7   635.7 2000 1998 24
35073268   540 1680 0.0150 2.8369   5.9  3.62083  842.7   637.5 2000 1998 23
35074268  1020 1200 0.0283 2.0263   6.6  3.63150  845.5   639.5 2000 1998 23
35075270  1320 1260 0.0366 2.1277   6.8  3.64217  848.5   641.6 2000 1997 24
35076272  1020 1740 0.0283 2.9382   6.2  3.65300  850.9   643.5 2000 1998 24
35077272  1260 1260 0.0350 2.1277   6.7  3.66400  853.7   646.0 2000 1998 23
35078274  1020 1560 0.0283 2.6342   6.3  3.67517  856.1   648.3 2000 1998 24
35079275  1020 1380 0.0283 2.3303   6.4  3.68600  858.7   650.5 2000 1998 23
35080276  1740  840 0.0483 1.4184   8.1  3.69767  860.3   652.4 2000 1998 24
35081276   840 1620 0.0233 2.7356   6.1  3.70783  863.8   654.2 2000 1998 23
35082277  1260 1800 0.0350 3.0395   6.4  3.71883  866.4   656.5 2000 1998 23
35083278  1680 1380 0.0466 2.3303   7.0  3.73050  868.0   658.4 2000 1997 23
35084282  1140 1200 0.0317 2.0263   6.7  3.74067  871.1   659.9 2000 1997 24
35085281   660 1320 0.0183 2.2290   6.1  3.75167  873.5   662.0 2000 1998 23
35086281  1260 1800 0.0350 3.0395   6.4  3.76200  875.4   663.1 2000 1998 24
35087282   600 2100 0.0167 3.5461   5.9  3.77283  878.0   665.1 2000 1998 24
35088284   780 1080 0.0217 1.8237   6.4  3.78383  880.5   667.4 2000 1997 24
35089283   780 1320 0.0217 2.2290   6.2  3.79433  883.7   669.4 2000 1998 24
35090284   840 1680 0.0233 2.8369   6.1  3.80500  886.0   671.1 2000 1998 24
35091285  1260 1500 0.0350 2.5329   6.5  3.81650  888.3   673.7 2000 1998 24
35092286  1380 2160 0.0383 3.6474   6.3  3.82717  890.9   675.5 2000 1998 24
35093288  1560 1920 0.0433 3.2421   6.5  3.83800  893.2   677.4 2000 1997 24
35094291  1440 1860 0.0400 3.1408   6.5  3.84833  895.4   678.6 2000 1997 24
35095290   960 1200 0.0267 2.0263   6.5  3.85900  898.0   680.4 2000 1998 24
35096292   840 1620 0.0233 2.7356   6.1  3.87017  900.4   682.7 2000 1998 24
35097291  1260 1920 0.0350 3.2421   6.3  3.88217  902.2   685.1 2000 1998 24
35098293  1080 1260 0.0300 2.1277   6.6  3.89400  903.8   687.2 2000 1998 24
35099292   840 1860 0.0233 3.1408   6.1  3.90467  906.0   688.8 2000 1997 24
35100294   900 1380 0.0250 2.3303   6.3  3.91583  908.3   691.0 2000 1998 23
35101295  1020 1260 0.0283 2.1277   6.5  3.92767  910.6   693.9 2000 1998 24
35102298  1380 1260 0.0383 2.1277   6.9  3.93833  913.6   696.0 2000 1998 24
35103299  1380 1560 0.0383 2.6342   6.6  3.94850  916.7   697.6 2000 1997 24
35104301   960 1560 0.0267 2.6342   6.3  3.96017  918.5   699.8 2000 1998 24
35105300   900 1260 0.0250 2.1277   6.4  3.97117  920.7   701.7 2000 1997 24
35106301  1020 1680 0.0283 2.8369   6.3  3.98200  923.2   703.8 2000 1998 24
35107302   780 1500 0.0217 2.5329   6.1  3.99250  925.4   705.3 2000 1998 24
35108304  1440 1020 0.0400 1.7224   7.3  4.00283  928.2   706.8 2000 1997 24
35109306  1200 1200 0.0333 2.0263   6.7  4.01383  929.9   708.3 2000 1998 24
35110306  1020 1920 0.0283 3.2421   6.2  4.02433  933.0   710.4 2000 1998 24
35111309  1500 1560 0.0416 2.6342   6.7  4.03550  935.1   712.5 2000 1998 24
35112310   780 1320 0.0217 2.2290   6.2  4.04700  937.2   714.8 2000 1998 24
35113309  1500 1260 0.0416 2.1277   7.0  4.05767  939.6   716.5 2000 1998 24
35114311  1080 1260 0.0300 2.1277   6.6  4.06867  941.7   718.4 2000 1998 24
35115312  1860 2100 0.0516 3.5461   6.6  4.08067  943.8   721.3 2000 1998 24
35116313   960 1140 0.0267 1.9250   6.5  4.09117  946.8   723.2 2000 1998 24
35117315  1200 1560 0.0333 2.6342   6.5  4.10217  949.5   725.6 2000 1997 24
35118317  1500 1020 0.0416 1.7224   7.3  4.11283  951.5   727.1 2000 1997 24
35119317  1080 1080 0.0300 1.8237   6.7  4.12367  953.3   728.6 2000 1997 24
35120317  1320 2040 0.0366 3.4448   6.3  4.13483  954.8   730.0 2000 1998 24
35121318  1620 1800 0.0450 3.0395   6.6  4.14567  957.1   731.9 2000 1997 24
35122320   900  960 0.0250 1.6211   6.7  4.15667  959.5   734.1 2000 1998 24
35123321  1140 1200 0.0317 2.0263   6.7  4.16717  962.5   736.0 2000 1997 24
35124324   780 1380 0.0217 2.3303   6.2  4.17817  965.6   738.7 2000 1997 24
35125324   840 1560 0.0233 2.6342   6.2  4.18900  968.2   740.9 2000 1997 24
35126326  1320 1380 0.0366 2.3303   6.7  4.20050  969.9   742.8 2000 1998 24
35127328  1140 1740 0.0317 2.9382   6.3  4.21133  972.4   744.8 2000 1998 24
35128328  1500 1560 0.0416 2.6342   6.7  4.22283  973.9   746.5 2000 1998 24
35129328  1140 1440 0.0317 2.4316   6.5  4.23367  976.6   748.6 2000 1998 24
35130329  1500 1440 0.0416 2.4316   6.8  4.24600  978.2   751.0 2000 1998 24
35131332   900 1440 0.0250 2.4316   6.3  4.25683  980.6   752.9 2000 1997 24
35132333  1020 1440 0.0283 2.4316   6.4  4.26717  983.8   754.6 2000 1998 24
35133332  1140 1740 0.0317 2.9382   6.3  4.27833  986.5   757.3 2000 1998 24
35134333  1560 1800 0.0433 3.0395   6.6  4.28933  988.5   759.0 2000 1998 24
35135335  1140 1080 0.0317 1.8237   6.8  4.30050  990.5   760.9 2000 1998 24
35136335  1260 1560 0.0350 2.6342   6.5  4.31117  992.9   762.6 2000 1997 24
35137336   900 1620 0.0250 2.7356   6.2  4.32333  994.5   764.9 2000 1998 24
35138338   720 1320 0.0200 2.2290   6.2  4.33400  997.1   766.8 2000 1998 24
35139338   960 1320 0.0267 2.2290   6.4  4.34567  999.6   769.8 2000 1998 24
35140341  1080 1440 0.0300 2.4316   6.4  4.35700 1002.0   772.3 2000 1997 24
