~VERSION INFORMATION
VERS     .                               2.0:CWLS LAS VERSION
WRAP     .                                NO: One line per depth step
~WELL INFORMATION
#    MNEM.UNIT                     DATA TYPE:INFORMATION
#========.==================================:=========================================
STRT     .ms                        35037231:Время первой записи в файле
STOP     .ms                                :Время последней записи в файле
STEP     .ms                               0:Шаг времени, 0 - переменный шаг
NULL     .                           -999.25:Метка, нет значения
DATE     .                        02.10.2024:Дата каротажа
DRV      .                                  :Наименование драйвера прибора
NAME     .                           ННКТ(б):Название прибора
SNUM     .                          23613012:Серийный номер прибора
FRMW     .                         0.23.10.2:Версия прошивки на контроллере прибора
~CURVE INFORMATION
#    MNEM.UNIT                      API CODE:CURVE DESCRIPTION
#========.==================================:=========================================
TIME     .                                  :Time of RealDepth
NTNC     .имп/мин                       NTNC:Счёт, ближний зонд ННКТ
FTNC     .у.е.                          FTNC:Счёт, дальний зонд ННКТ
NTNL     .имп/мин                       NTNL:Счёт нормированный на счёт в воде, ближний зонд ННКТ
FTNL     .у.е.                          FTNL:Счёт нормированный на счёт в воде, дальний зонд ННКТ
TRNP     .%                             TRNP:Пористость по водородосодержанию ННКТ
avg_TRNP .                                  :
avg_FTNC .                                  :
avg_NTNC .                                  :
UHVS     .В                                 :Установленное напряжение на высоковольтнике
UHVM     .В                                 :Измеренное напряжение на высоковольтнике
MT       .°C                                :Температура
~PARAMETER INFORMATION BLOCK
#    MNEM.UNIT                      API CODE:CURVE DESCRIPTION
#========.==================================:=========================================
~OTHER INFORMATION

~A        NTNC FTNC   NTNL   FTNL  TRNP avg_TRNP g_FTNC vg_NTNC UHVS UHVM MT
# ...
44415616  9000  240 0.2499 0.4053  52.1 92.05350  163.8  9910.2 2000 1998 17
44416617 11460  240 0.3182 0.4053  64.8 92.06183  163.9  9914.6 2000 1998 17
44417618  9900  180 0.2749 0.3040  73.8 92.07333  163.9  9917.4 2000 1998 17
44418620  9180  120 0.2549 0.2026 100.5 92.18583  164.2  9918.4 2000 1998 17
44419621  9960   60 0.2765 0.1013 221.7 92.19550  164.2  9919.8 2000 1998 17
44420622 11700  180 0.3248 0.3040  82.1 92.19083  164.2  9918.0 2000 1998 17
44421622 10500  120 0.2915 0.2026 114.2 92.13800  164.5  9918.2 2000 1998 17
44422622 11760   60 0.3265 0.1013 261.5 92.17250  164.5  9923.2 2000 1998 17
44423625  9960  120 0.2765 0.2026 108.6 92.41333  164.3  9925.5 2000 1998 17
44424628 10020  240 0.2782 0.4053  57.4 92.70333  164.0  9928.7 2000 1998 17
44425627 10320  120 0.2865 0.2026 112.4 92.78417  163.9  9931.2 2000 1998 17
44426628  8340  120 0.2316 0.2026  91.9 92.68800  164.1  9929.3 2000 1998 17
44427630  9720   60 0.2699 0.1013 206.8 92.71850  164.0  9929.8 2000 1998 17
44428630 10920  360 0.3032 0.6079  43.2 92.68717  164.1  9932.1 2000 1998 17
44429632  9480  120 0.2632 0.2026 103.7 92.60483  164.3  9932.3 2000 1998 17
44430631  9540  120 0.2649 0.2026 104.3 92.58750  164.4  9933.1 2000 1998 17
44431633 10140  120 0.2815 0.2026 110.5 92.60200  164.4  9935.9 2000 1998 17
44432633 11100  180 0.3082 0.3040  82.1 92.53633  164.5  9933.7 2000 1998 17
44433635  9660  120 0.2682 0.2026 105.5 92.39150  164.6  9936.0 2000 1998 17
44434635  9420  240 0.2615 0.4053  54.3 92.11483  165.0  9935.2 2000 1998 17
44435636 10320   60 0.2865 0.1013 219.2 92.16450  165.0  9937.6 2000 1998 17
44436638  9540  300 0.2649 0.5066  45.0 92.19083  165.0  9942.7 2000 1998 17
44437639  9960  120 0.2765 0.2026 108.6 92.44150  164.8  9944.8 2000 1998 17
44438639  9960   60 0.2765 0.1013 211.8 92.51667  164.6  9944.9 2000 1998 17
44439640  9420  120 0.2615 0.2026 103.0 92.48233  164.9  9945.0 2000 1998 17
44440640 10560    0 0.2932 0.0000   5.5 92.43833  165.1  9944.9 2000 1998 17
44441641  9720  240 0.2699 0.4053  55.8 92.11117  165.0  9946.5 2000 1998 17
44442642 11820   60 0.3282 0.1013 250.3 92.14600  164.9  9950.2 2000 1998 17
44443644  9600  180 0.2665 0.3040  71.8 92.34283  164.8  9952.1 2000 1998 17
44444645  9480  120 0.2632 0.2026 103.7 92.37600  164.8  9953.7 2000 1998 17
44445647  9060  120 0.2515 0.2026  99.3 92.55300  165.0  9955.5 2000 1998 17
44446647  9720   60 0.2699 0.1013 206.8 92.56333  165.0  9957.0 2000 1998 17
44447647  9120   60 0.2532 0.1013 194.4 92.93200  165.1  9960.9 2000 1998 17
44448649  9300  180 0.2582 0.3040  69.7 92.91267  165.3  9965.7 2000 1998 17
44449649  8460  180 0.2349 0.3040  63.9 92.93300  165.2  9966.4 2000 1998 17
44450651  9900  240 0.2749 0.4053  56.8 93.00933  165.1  9968.3 2000 1998 17
44451651  9840  180 0.2732 0.3040  73.4 93.21850  165.0  9969.9 2000 1998 17
44452652  9780    0 0.2715 0.0000   5.5 93.22267  165.0  9970.5 2000 1998 17
44453654 10140   60 0.2815 0.1013 215.5 93.26467  164.9  9972.9 2000 1998 17
44454654  8640  180 0.2399 0.3040  65.1 93.22950  165.1  9975.6 2000 1998 17
44455656  8880  360 0.2465 0.6079  36.1 93.26533  164.8  9975.7 2000 1998 17
44456657  9780  180 0.2715 0.3040  73.0 93.24300  165.0  9976.9 2000 1998 17
44457658  9900    0 0.2749 0.0000   5.5 93.52367  164.7  9977.4 2000 1998 17
44458660 10320   60 0.2865 0.1013 219.2 93.45500  165.0  9980.6 2000 1998 17
44459661  9780  180 0.2715 0.3040  73.0 93.32967  165.1  9982.2 2000 1998 17
44460662 10320  180 0.2865 0.3040  76.7 93.07217  165.6  9982.1 2000 1998 17
44461664 10260  240 0.2849 0.4053  58.6 92.95767  165.3  9981.1 2000 1998 17
44462664 10620   60 0.2949 0.1013 225.4 92.90183  165.4  9980.6 2000 1998 17
44463665 12120  120 0.3365 0.2026 131.0 92.95733  165.2  9983.0 2000 1998 17
44464666 10200    0 0.2832 0.0000   5.5 92.83317  165.3  9985.4 2000 1998 17
44465665 10440  300 0.2899 0.5066  48.7 92.94233  165.1  9987.9 2000 1998 17
44466667  9840  120 0.2732 0.2026 107.4 92.99800  165.0  9988.0 2000 1998 17
44467667  8760  300 0.2432 0.5066  41.8 92.96817  165.5  9991.9 2000 1998 17
44468668  9300   60 0.2582 0.1013 208.0 92.92467  165.6  9993.5 2000 1998 17
44469670  9600  120 0.2665 0.2026 104.9 92.97150  165.4  9994.0 2000 1998 17
44470668 11520  300 0.3198 0.5066  50.7 93.22383  165.0  9992.1 2000 1998 17
44471669 10320  240 0.2865 0.4053  61.7 93.20100  165.1  9993.3 2000 1998 17
44472670 10500   60 0.2915 0.1013 222.9 93.40133  164.8  9988.8 2000 1998 17
44473672 10200  240 0.2832 0.4053  58.3 93.51100  165.1  9987.7 2000 1998 17
44474673  9840  120 0.2732 0.2026 107.4 93.51767  165.0  9986.6 2000 1998 17
44475674 10800   60 0.2999 0.1013 229.1 93.52733  165.0  9988.9 2000 1998 17
44476676  9480  180 0.2632 0.3040  70.9 93.58217  164.9  9989.0 2000 1998 17
44477676 10620  300 0.2949 0.5066  49.5 93.35300  165.1  9988.8 2000 1998 17
44478676  9000  120 0.2499 0.2026  98.7 93.32767  165.2  9989.4 2000 1998 17
44479678  9420  180 0.2615 0.3040  70.5 93.61967  164.7  9990.8 2000 1998 17
44480680  9600  240 0.2665 0.4053  55.2 93.64317  164.6  9989.4 2000 1998 17
44481680  8580   60 0.2382 0.1013 183.2 93.58450  164.7  9989.2 2000 1998 17
44482681  9660   60 0.2682 0.1013 205.5 93.55400  164.8  9988.9 2000 1998 17
44483682  8400    0 0.2332 0.0000   5.5 93.50300  165.0  9987.9 2000 1998 17
44484683  9060  120 0.2515 0.2026  99.3 93.26900  165.2  9989.0 2000 1998 17
44485685 10260  120 0.2849 0.2026 111.7 93.29083  165.2  9991.1 2000 1998 17
44486688  9780   60 0.2715 0.1013 208.0 93.38817  165.0  9992.0 2000 1998 17
44487687 11580   60 0.3215 0.1013 245.3 93.23917  165.1  9994.6 2000 1998 17
44488687  9720  240 0.2699 0.4053  55.8 93.24533  165.1  9995.2 2000 1998 17
44489689 10560  180 0.2932 0.3040  78.4 93.26900  165.0  9996.7 2000 1998 17
44490690  9960  120 0.2765 0.2026 108.6 93.21217  165.3  9995.9 2000 1998 17
44491691  9420  180 0.2615 0.3040  70.5 93.29350  165.1  9995.1 2000 1998 17
44492692  9960  240 0.2765 0.4053  57.1 93.48333  164.9  9992.4 2000 1998 17
44493694  8940  300 0.2482 0.5066  42.5 93.59100  164.7  9994.8 2000 1998 17
44494694 10140   60 0.2815 0.1013 215.5 93.33967  165.1  9996.5 2000 1998 17
44495695 11160  180 0.3098 0.3040  82.5 93.15633  165.2  9996.2 2000 1998 17
44496697  9780  240 0.2715 0.4053  56.1 93.28050  165.1  9994.2 2000 1998 17
44497698 10140   60 0.2815 0.1013 215.5 93.25283  165.2  9994.3 2000 1998 17
44498699 11040  120 0.3065 0.2026 119.8 93.50133  165.0  9995.9 2000 1998 17
44499699  9900   60 0.2749 0.1013 210.5 93.31500  165.1  9994.8 2000 1998 17
44500701  9480  300 0.2632 0.5066  44.8 93.31500  165.1  9994.8 2000 1998 17
44501702 11040  300 0.3065 0.5066  51.2 93.29033  165.2  9992.8 2000 1998 17
44502704 10320  300 0.2865 0.5066  48.2 93.06050  165.4  9993.3 2000 1998 17
44503705  8760  120 0.2432 0.2026  96.2 93.24883  165.3  9994.2 2000 1998 17
44504704 10140  120 0.2815 0.2026 110.5 93.37367  165.0  9996.9 2000 1998 17
44505705  9300    0 0.2582 0.0000   5.5 93.50917  164.6  9999.0 2000 1998 17
44506705  9840    0 0.2732 0.0000   5.5 93.64500  164.3 10002.1 2000 1998 17
44507707  9060  120 0.2515 0.2026  99.3 93.84067  164.2 10003.6 2000 1998 17
44508706 10740   60 0.2982 0.1013 227.9 93.79883  164.3 10001.9 2000 1998 17
44509707  8340  360 0.2316 0.6079  34.3 93.81133  164.1 10000.1 2000 1998 17
44510709  9120  120 0.2532 0.2026  99.9 93.77133  164.3 10000.7 2000 1998 17
44511710  9840  120 0.2732 0.2026 107.4 93.78950  164.2  9995.7 2000 1998 17
44512711 10920  120 0.3032 0.2026 118.6 93.70867  163.8  9996.3 2000 1998 17
44513712  9840   60 0.2732 0.1013 209.3 93.62383  164.1  9998.0 2000 1998 17
44514714 10200   60 0.2832 0.1013 216.7 93.60233  164.1  9994.9 2000 1998 17
44515715  9660  240 0.2682 0.4053  55.5 93.62517  164.1  9999.3 2000 1998 17
44516715 10260  300 0.2849 0.5066  50.2 93.73417  164.4  9999.8 2000 1998 17
44517716  8940  240 0.2482 0.4053  51.8 93.72467  164.4  9998.4 2000 1998 17
44518718 10080  180 0.2799 0.3040  71.8 93.65917  163.9  9998.9 2000 1998 17
