~VERSION INFORMATION
VERS     .                               2.0:CWLS LAS VERSION
WRAP     .                                NO: One line per depth step
~WELL INFORMATION
#    MNEM.UNIT                     DATA TYPE:INFORMATION
#========.==================================:=========================================
STRT     .ms                        35037231:Время первой записи в файле
STOP     .ms                                :Время последней записи в файле
STEP     .ms                               0:Шаг времени, 0 - переменный шаг
NULL     .                           -999.25:Метка, нет значения
DATE     .                        02.10.2024:Дата каротажа
DRV      .                                  :Наименование драйвера прибора
NAME     .                           ННКТ(б):Название прибора
SNUM     .                          23613012:Серийный номер прибора
FRMW     .                         0.23.10.2:Версия прошивки на контроллере прибора
~CURVE INFORMATION
#    MNEM.UNIT                      API CODE:CURVE DESCRIPTION
#========.==================================:=========================================
TIME     .                                  :Time of RealDepth
NTNC     .имп/мин                       NTNC:Счёт, ближний зонд ННКТ
FTNC     .у.е.                          FTNC:Счёт, дальний зонд ННКТ
NTNL     .имп/мин                       NTNL:Счёт нормированный на счёт в воде, ближний зонд ННКТ
FTNL     .у.е.                          FTNL:Счёт нормированный на счёт в воде, дальний зонд ННКТ
TRNP     .%                             TRNP:Пористость по водородосодержанию ННКТ
avg_TRNP .                                  :
avg_FTNC .                                  :
avg_NTNC .                                  :
UHVS     .В                                 :Установленное напряжение на высоковольтнике
UHVM     .В                                 :Измеренное напряжение на высоковольтнике
MT       .°C                                :Температура
~PARAMETER INFORMATION BLOCK
#    MNEM.UNIT                      API CODE:CURVE DESCRIPTION
#========.==================================:=========================================
~OTHER INFORMATION

~A        NTNC FTNC   NTNL   FTNL  TRNP avg_TRNP g_FTNC vg_NTNC UHVS UHVM MT
# ...
43374563  8640   60 0.2399 0.1013 193.1 80.70550  137.3  7859.1 2000 1998 17
43375566  8280  360 0.2299 0.6079  34.1 80.54883  137.5  7859.6 2000 1998 17
43376566  8880  180 0.2465 0.3040  66.8 80.51983  137.5  7858.2 2000 1998 17
43377568  9240  180 0.2565 0.3040  69.3 80.42783  137.8  7857.3 2000 1998 17
43378568  8220  120 0.2282 0.2026  90.6 80.50800  137.5  7857.0 2000 1998 17
43379570  8880   60 0.2465 0.1013 189.4 80.57533  137.3  7856.4 2000 1998 17
43380570  9600    0 0.2665 0.0000   5.5 80.72750  137.5  7859.7 2000 1998 17
43381572 10020  180 0.2782 0.3040  74.7 80.79483  137.9  7858.8 2000 1998 17
43382574  7800   60 0.2166 0.1013 167.0 80.72617  138.0  7856.4 2000 1998 17
43383575  9060  180 0.2515 0.3040  68.0 80.66400  137.6  7861.3 2000 1998 17
43384576  8280  180 0.2299 0.3040  62.7 80.63300  137.7  7862.7 2000 1998 17
43385577  9000  240 0.2499 0.4053  52.1 80.92700  137.8  7865.8 2000 1998 17
43386578  8580  120 0.2382 0.2026  94.3 80.99217  137.6  7865.7 2000 1998 17
43387581 10020  360 0.2782 0.6079  40.1 81.20200  137.4  7867.7 2000 1998 17
43388581  8820  120 0.2449 0.2026  96.8 81.13683  137.7  7869.2 2000 1998 17
43389582  8460  240 0.2349 0.4053  49.3 81.23000  138.0  7871.2 2000 1998 17
43390585  8760  120 0.2432 0.2026  96.2 81.17167  138.1  7869.9 2000 1998 17
43391584  7500  180 0.2082 0.3040  57.3 81.16850  138.2  7873.2 2000 1998 17
43392585  7440   60 0.2066 0.1013 159.6 81.17267  138.2  7873.6 2000 1998 17
43393585  7680  180 0.2132 0.3040  58.5 81.15300  138.2  7871.7 2000 1998 17
43394586  7800  360 0.2166 0.6079  32.4 81.27933  138.1  7871.3 2000 1998 17
43395586  5580  120 0.1549 0.2026  63.3 81.42433  138.3  7871.7 2000 1998 17
43396587  6960  420 0.1932 0.7092  26.1 81.49850  138.1  7872.1 2000 1998 17
43397588  7380  240 0.2049 0.4053  43.7 81.50950  138.1  7873.7 2000 1998 17
43398589  6960  120 0.1932 0.2026  77.6 81.34533  138.3  7874.1 2000 1998 17
43399589  6060  180 0.1682 0.3040  47.3 81.51650  138.1  7872.5 2000 1998 17
43400590  6540  240 0.1816 0.4053  39.4 81.66967  138.3  7872.5 2000 1998 17
43401591  6780  180 0.1882 0.3040  52.3 81.87500  137.8  7872.0 2000 1998 17
43402593  6300  180 0.1749 0.3040  49.0 81.80150  138.0  7871.2 2000 1998 17
43403594  6420  300 0.1782 0.5066  32.1 81.61767  138.4  7872.0 2000 1998 17
43404595  6360   60 0.1766 0.1013 137.2 81.77567  138.2  7869.9 2000 1998 17
43405595  7560  120 0.2099 0.2026  83.8 81.72883  138.3  7869.5 2000 1998 17
43406596  7680  120 0.2132 0.2026  85.0 81.80550  138.1  7870.3 2000 1998 17
43407599  6600  180 0.1832 0.3040  51.1 81.80183  138.1  7869.6 2000 1998 17
43408598  7260   60 0.2016 0.1013 155.8 81.62267  138.4  7871.0 2000 1998 17
43409600  7320  300 0.2032 0.5066  35.8 81.78700  138.2  7870.0 2000 1998 17
43410601  7140  180 0.1982 0.3040  54.8 81.70483  138.6  7869.8 2000 1998 17
43411603  8100  180 0.2249 0.3040  61.4 81.62967  138.3  7875.0 2000 1998 17
43412602  6720  120 0.1866 0.2026  75.1 81.78283  138.1  7874.8 2000 1998 17
43413603  5700    0 0.1583 0.0000   5.5 81.80033  138.1  7875.8 2000 1998 17
43414604  6420    0 0.1782 0.0000   5.5 81.92150  138.0  7874.9 2000 1998 17
43415606  6420  240 0.1782 0.4053  38.7 81.72333  138.2  7874.0 2000 1998 17
43416606  7440  180 0.2066 0.3040  56.9 81.75367  138.1  7872.3 2000 1998 17
43417608  7260  300 0.2016 0.5066  35.6 81.73233  138.2  7872.1 2000 1998 17
43418609  8220  120 0.2282 0.2026  90.6 81.87833  138.4  7873.5 2000 1998 17
43419611  7140  120 0.1982 0.2026  83.2 81.93017  138.4  7876.0 2000 1998 17
43420611  6300   60 0.1749 0.1013 136.0 81.78417  138.2  7874.1 2000 1998 17
43421612  6540   60 0.1816 0.1013 134.7 81.98767  137.6  7874.5 2000 1998 17
43422613  7920  240 0.2199 0.4053  48.7 81.91483  137.7  7871.2 2000 1998 17
43423614  6540  120 0.1816 0.2026  73.2 81.66233  138.0  7868.6 2000 1998 17
43424614  8280  240 0.2299 0.4053  48.4 81.73067  137.8  7868.8 2000 1998 17
43425616  7680  240 0.2132 0.4053  45.3 81.63533  138.1  7866.8 2000 1998 17
43426617  7020   60 0.1949 0.1013 150.9 81.79267  137.9  7865.0 2000 1998 17
43427619  7740   60 0.2149 0.1013 165.8 81.56067  137.8  7865.7 2000 1998 17
43428618  8340  120 0.2316 0.2026  91.9 81.56067  137.8  7868.3 2000 1998 17
43429618  7020  240 0.1949 0.4053  41.8 81.61233  137.7  7868.7 2000 1998 17
43430619  7020  120 0.1949 0.2026  78.2 81.46800  137.9  7870.2 2000 1998 17
43431620  6900  180 0.1916 0.3040  53.1 81.26383  138.1  7868.6 2000 1998 17
43432621  7020  120 0.1949 0.2026  78.2 81.30867  138.0  7869.2 2000 1998 17
43433623  6660  120 0.1849 0.2026  74.5 81.33150  138.0  7870.3 2000 1998 17
43434625  6840  180 0.1899 0.3040  52.7 81.23183  138.2  7870.4 2000 1998 17
43435625  6900  180 0.1916 0.3040  53.1 81.11483  138.3  7871.9 2000 1998 17
43436624  6420  180 0.1782 0.3040  49.8 81.07333  138.3  7869.9 2000 1998 17
43437626  7320  300 0.2032 0.5066  35.8 81.11000  138.1  7869.7 2000 1998 17
43438628  7140  120 0.1982 0.2026  79.4 81.14933  138.0  7869.0 2000 1998 17
43439630  6780  360 0.1882 0.6079  28.9 81.16383  138.0  7869.7 2000 1998 17
43440630  7320  180 0.2032 0.3040  56.0 81.16583  138.0  7869.9 2000 1998 17
43441631  7200    0 0.1999 0.0000   5.5 81.17817  138.0  7871.1 2000 1998 17
43442632  6540  120 0.1816 0.2026  73.2 81.17817  138.0  7871.0 2000 1998 17
43443633  7800  180 0.2166 0.3040  59.3 81.02067  138.1  7868.9 2000 1998 17
43444635  7080  180 0.1966 0.3040  54.4 81.00500  138.1  7867.4 2000 1998 17
43445636  7080  120 0.1966 0.2026  78.8 81.17900  138.3  7872.2 2000 1998 17
43446637  7260  300 0.2016 0.5066  35.6 81.13050  138.7  7873.4 2000 1998 17
43447639  8340  180 0.2316 0.3040  63.1 81.28900  138.6  7874.6 2000 1998 17
43448638  7560  120 0.2099 0.2026  83.8 80.99500  138.5  7874.0 2000 1998 17
43449639  7860  120 0.2182 0.2026  86.9 81.06183  138.3  7879.0 2000 1998 17
43450641  6840  240 0.1899 0.4053  40.9 81.25433  138.1  7880.5 2000 1998 17
43451642  6900  180 0.1916 0.3040  53.1 81.09017  138.3  7883.7 2000 1998 17
43452643  6360  180 0.1766 0.3040  49.4 81.20717  138.2  7882.3 2000 1998 17
43453643  7680   60 0.2132 0.1013 164.5 81.42583  138.0  7884.6 2000 1998 17
43454645  6900  180 0.1916 0.3040  53.1 81.27167  138.3  7889.6 2000 1998 17
43455646  6900  180 0.1916 0.3040  53.1 81.22083  138.4  7888.8 2000 1998 17
43456646  8040  240 0.2232 0.4053  47.1 81.15867  138.6  7889.9 2000 1998 17
43457646  7080  120 0.1966 0.2026  78.8 81.17933  138.5  7891.3 2000 1998 17
43458647  8280  180 0.2299 0.3040  62.7 81.33767  138.4  7892.9 2000 1998 17
43459648  6660  120 0.1849 0.2026  74.5 81.38233  138.3  7893.1 2000 1998 17
43460647  7260  120 0.2016 0.2026  80.7 81.25250  138.5  7896.3 2000 1998 17
43461649  6360   60 0.1766 0.1013 137.2 81.24633  138.5  7895.7 2000 1998 17
43462651  7320   60 0.2032 0.1013 157.1 81.44583  138.3  7895.1 2000 1998 17
43463651  6420  180 0.1782 0.3040  49.8 81.51633  138.1  7895.6 2000 1998 17
43464653  6480  180 0.1799 0.3040  50.2 81.40350  138.2  7897.4 2000 1998 17
43465654  6660  180 0.1849 0.3040  51.5 81.51950  138.5  7900.7 2000 1998 17
43466654  7500    0 0.2082 0.0000   5.5 81.48067  138.7  7904.9 2000 1998 17
43467655  8460  420 0.2349 0.7092  30.5 81.48067  138.7  7908.4 2000 1998 17
43468656  7140  120 0.1982 0.2026  83.2 81.73533  138.8  7907.5 2000 1998 17
43469658  6900  120 0.1916 0.2026  73.2 81.67517  139.0  7908.5 2000 1998 17
43470658  6660  240 0.1849 0.4053  40.0 81.51267  139.3  7911.9 2000 1998 17
43471659  7680  180 0.2132 0.3040  58.5 81.52917  139.3  7912.7 2000 1998 17
43472660  8280  180 0.2299 0.3040  65.6 81.58017  139.2  7913.7 2000 1998 17
43473660  6300    0 0.1749 0.0000   5.5 81.58017  139.2  7913.0 2000 1998 17
43474660  6720   60 0.1866 0.1013 144.7 81.76450  139.0  7912.5 2000 1998 17
43475663  7560  180 0.2099 0.3040  57.7 81.78100  139.0  7914.1 2000 1998 17
43476662  8280   60 0.2299 0.1013 177.0 81.76850  139.0  7913.5 2000 1998 17
43477665  7080   60 0.1966 0.1013 152.1 81.65667  139.1  7915.3 2000 1998 17
