~VERSION INFORMATION
VERS     .                               2.0:CWLS LAS VERSION
WRAP     .                                NO: One line per depth step
~WELL INFORMATION
#    MNEM.UNIT                     DATA TYPE:INFORMATION
#========.==================================:=========================================
STRT     .ms                        35037231:Время первой записи в файле
STOP     .ms                                :Время последней записи в файле
STEP     .ms                               0:Шаг времени, 0 - переменный шаг
NULL     .                           -999.25:Метка, нет значения
DATE     .                        02.10.2024:Дата каротажа
DRV      .                                  :Наименование драйвера прибора
NAME     .                           ННКТ(б):Название прибора
SNUM     .                          23613012:Серийный номер прибора
FRMW     .                         0.23.10.2:Версия прошивки на контроллере прибора
~CURVE INFORMATION
#    MNEM.UNIT                      API CODE:CURVE DESCRIPTION
#========.==================================:=========================================
TIME     .                                  :Time of RealDepth
NTNC     .имп/мин                       NTNC:Счёт, ближний зонд ННКТ
FTNC     .у.е.                          FTNC:Счёт, дальний зонд ННКТ
NTNL     .имп/мин                       NTNL:Счёт нормированный на счёт в воде, ближний зонд ННКТ
FTNL     .у.е.                          FTNL:Счёт нормированный на счёт в воде, дальний зонд ННКТ
TRNP     .%                             TRNP:Пористость по водородосодержанию ННКТ
avg_TRNP .                                  :
avg_FTNC .                                  :
avg_NTNC .                                  :
UHVS     .В                                 :Установленное напряжение на высоковольтнике
UHVM     .В                                 :Измеренное напряжение на высоковольтнике
MT       .°C                                :Температура
~PARAMETER INFORMATION BLOCK
#    MNEM.UNIT                      API CODE:CURVE DESCRIPTION
#========.==================================:=========================================
~OTHER INFORMATION

~A        NTNC FTNC   NTNL   FTNL  TRNP avg_TRNP g_FTNC vg_NTNC UHVS UHVM MT
# ...
48583529  7680  240 0.2132 0.4053  45.3 85.45700  149.1  8295.3 2000 1998 17
48584529  6300  240 0.1749 0.4053  38.1 85.17383  149.4  8292.5 2000 1998 17
48585530  7140  240 0.1982 0.4053  42.5 85.14683  149.4  8291.2 2000 1998 17
48586531  6960   60 0.1932 0.1013 149.6 85.28550  149.6  8287.5 2000 1998 17
48587532  8280   60 0.2299 0.1013 177.0 85.31483  149.5  8285.1 2000 1998 17
48588533  7800    0 0.2166 0.0000   5.5 85.35183  149.4  8283.0 2000 1998 17
48589534  9060  120 0.2515 0.2026  99.3 85.38050  149.3  8280.1 2000 1998 17
48590535  8400  240 0.2332 0.4053  49.0 85.27733  149.6  8278.9 2000 1998 17
48591536  8340  180 0.2316 0.3040  63.1 85.25567  149.6  8276.8 2000 1998 17
48592538  7860   60 0.2182 0.1013 168.3 85.35233  149.9  8276.2 2000 1998 17
48593539  8220   60 0.2282 0.1013 175.7 85.24933  149.5  8269.6 2000 1998 17
48594540  7800  300 0.2166 0.5066  37.8 85.12033  149.2  8264.6 2000 1998 17
48595541  7920  240 0.2199 0.4053  46.5 85.11733  149.1  8258.8 2000 1998 17
48596543  7440  180 0.2066 0.3040  56.9 85.03700  149.2  8255.7 2000 1998 17
48597543  7800  240 0.2166 0.4053  45.9 85.19017  149.1  8255.4 2000 1998 17
48598544  9120  180 0.2532 0.3040  68.5 85.18050  149.2  8256.6 2000 1998 17
48599545  7560  180 0.2099 0.3040  57.7 84.98783  149.3  8255.2 2000 1998 17
48600546  7200    0 0.1999 0.0000   5.5 85.08033  149.6  8252.5 2000 1998 17
48601547  8340  420 0.2316 0.7092  30.2 85.03567  149.7  8249.8 2000 1998 17
48602549  8640  240 0.2399 0.4053  50.2 85.23967  149.4  8249.0 2000 1998 17
48603550  7980   60 0.2216 0.1013 170.7 85.07500  149.2  8247.2 2000 1998 17
48604551  8340  180 0.2316 0.3040  63.1 84.73533  149.1  8243.6 2000 1998 17
48605552  7980  360 0.2216 0.6079  33.0 84.79433  149.5  8240.2 2000 1998 17
48606554  7680  180 0.2132 0.3040  58.5 85.01083  149.0  8238.4 2000 1998 17
48607555  7440  180 0.2066 0.3040  56.9 85.06083  148.6  8236.5 2000 1998 17
48608556  8160  240 0.2266 0.4053  47.7 85.07700  148.5  8232.2 2000 1998 17
48609557  8820  120 0.2449 0.2026  96.8 85.02933  148.9  8228.8 2000 1998 17
48610558  8220   60 0.2282 0.1013 175.7 85.05617  148.8  8229.2 2000 1998 17
48611560  7380   60 0.2049 0.1013 158.3 85.12067  148.5  8224.7 2000 1998 17
48612562  8040  360 0.2232 0.6079  34.7 85.38283  148.3  8227.3 2000 1998 17
48613562  7800   60 0.2166 0.1013 167.0 85.40767  148.3  8227.0 2000 1998 17
48614563  7200  360 0.1999 0.6079  30.3 85.37667  148.3  8224.0 2000 1998 17
48615564  7800  180 0.2166 0.3040  59.3 85.05983  148.2  8223.1 2000 1998 17
48616566  8760  120 0.2432 0.2026  96.2 85.02250  148.2  8221.3 2000 1999 17
48617569  7380  480 0.2049 0.8105  24.6 84.90817  148.6  8218.0 2000 1998 17
48618569  7920  240 0.2199 0.4053  46.5 84.87083  148.6  8216.2 2000 1998 17
48619569  8760   60 0.2432 0.1013 186.9 84.69267  148.7  8213.8 2000 1998 17
48620570  7980  180 0.2216 0.3040  60.6 84.60417  148.9  8212.1 2000 1998 17
48621571  8340   60 0.2316 0.1013 178.2 84.56067  148.9  8207.9 2000 1998 17
48622572  7740  240 0.2149 0.4053  45.6 84.28567  149.2  8204.0 2000 1998 17
48623574  8040   60 0.2232 0.1013 172.0 84.49067  149.0  8203.0 2000 1998 17
48624574  7560  300 0.2099 0.5066  36.8 84.49417  149.0  8203.5 2000 1998 17
48625576  7560  120 0.2099 0.2026  83.8 84.46633  149.2  8203.0 2000 1998 17
48626577  7080  120 0.1966 0.2026  78.8 84.50767  149.1  8201.4 2000 1998 17
48627578  9420   60 0.2615 0.1013 200.6 84.17217  149.0  8199.4 2000 1998 17
48628579  8760  240 0.2432 0.4053  50.8 84.14867  149.1  8197.7 2000 1999 17
48629580  8220  180 0.2282 0.3040  62.2 84.06533  148.7  8194.1 2000 1998 17
48630582  8160   60 0.2266 0.1013 174.5 84.11450  148.5  8190.7 2000 1998 17
48631584  7440  180 0.2066 0.3040  56.9 84.09517  148.5  8187.9 2000 1997 17
48632584  8400   60 0.2332 0.1013 179.4 84.06000  148.5  8184.5 2000 1998 17
48633585  7740  120 0.2149 0.2026  85.6 83.88300  148.3  8181.4 2000 1998 17
48634586  7560    0 0.2099 0.0000   5.5 83.82533  148.4  8176.4 2000 1998 17
48635587  8580  120 0.2382 0.2026  94.3 83.89050  148.8  8174.2 2000 1998 17
48636589  7620  120 0.2116 0.2026  84.4 83.64683  149.0  8171.9 2000 1998 17
48637590  7620  120 0.2116 0.2026  84.4 83.35700  148.9  8168.6 2000 1998 17
48638591 10080  300 0.2799 0.5066  47.2 83.07483  149.2  8165.1 2000 1998 17
48639592  7500  180 0.2082 0.3040  57.3 82.97750  149.4  8162.5 2000 1998 17
48640593  8520  240 0.2365 0.4053  49.6 83.14800  149.2  8160.2 2000 1998 17
48641594  7020  120 0.1949 0.2026  78.2 83.29400  149.1  8159.5 2000 1998 17
48642595  9120  420 0.2532 0.7092  32.5 83.11900  148.9  8157.4 2000 1998 17
48643597  8460  120 0.2349 0.2026  93.1 83.06733  149.0  8153.1 2000 1998 17
48644597  7920  180 0.2199 0.3040  60.2 82.81567  149.3  8149.5 2000 1998 17
48645598  8340  240 0.2316 0.4053  48.7 82.71150  149.7  8147.7 2000 1998 17
48646599  7200  180 0.1999 0.3040  55.2 82.74833  149.4  8144.9 2000 1998 17
48647600  8220  120 0.2282 0.2026  90.6 82.78383  149.1  8142.2 2000 1998 17
48648602  9420    0 0.2615 0.0000   5.5 82.76933  149.1  8140.1 2000 1998 17
48649602  8400  120 0.2332 0.2026  92.5 82.94083  148.7  8136.7 2000 1998 17
48650603  7980   60 0.2216 0.1013 170.7 82.94200  148.6  8132.4 2000 1999 17
48651604  6120   60 0.1699 0.1013 132.2 83.08767  148.4  8127.9 2000 1998 17
48652606  8640  120 0.2399 0.2026  95.0 83.15450  148.8  8125.1 2000 1998 17
48653607  7200   60 0.1999 0.1013 162.1 83.05567  149.0  8121.3 2000 1998 17
48654612  7380  300 0.2049 0.5066  34.6 82.97600  149.1  8117.6 2000 1998 17
48655609  8280  120 0.2299 0.2026  91.2 82.91317  149.2  8116.4 2000 1998 17
48656609  7920  300 0.2199 0.5066  40.0 82.95417  149.1  8115.7 2000 1998 17
48657611  6960  180 0.1932 0.3040  53.5 82.68583  149.5  8113.3 2000 1998 17
48658610  6360   60 0.1766 0.1013 137.2 82.38150  149.4  8112.6 2000 1998 17
48659611  8040  240 0.2232 0.4053  47.1 82.15983  149.5  8107.1 2000 1998 17
48660613  7320  120 0.2032 0.2026  81.3 82.09450  149.6  8104.6 2000 1998 17
48661614  8040  240 0.2232 0.4053  47.1 82.00850  149.2  8100.7 2000 1998 17
48662615  8100  180 0.2249 0.3040  61.4 82.16367  149.0  8099.0 2000 1998 17
48663617  8160  180 0.2266 0.3040  61.8 82.23867  148.6  8095.7 2000 1998 17
48664617  8760  120 0.2432 0.2026  96.2 82.32467  148.5  8091.2 2000 1998 17
48665618  6900  120 0.1916 0.2026  76.9 82.14667  148.6  8089.1 2000 1998 17
48666619  7380  180 0.2049 0.3040  56.4 81.89283  149.0  8087.4 2000 1998 17
48667620  8040   60 0.2232 0.1013 172.0 81.83900  148.5  8088.0 2000 1998 17
48668620  7800   60 0.2166 0.1013 167.0 81.74783  148.1  8083.0 2000 1998 17
48669621  8160  180 0.2266 0.3040  61.8 81.73017  148.1  8079.6 2000 1998 17
48670623  8880  240 0.2465 0.4053  51.5 81.47383  148.4  8077.2 2000 1998 17
48671624  9360   60 0.2599 0.1013 199.3 81.43650  148.4  8075.4 2000 1998 17
48672625  7380  240 0.2049 0.4053  43.7 81.56067  148.3  8073.5 2000 1998 17
48673626  7500   60 0.2082 0.1013 160.8 81.57400  148.2  8071.6 2000 1998 17
48674627  8700  120 0.2415 0.2026  95.6 81.61850  147.9  8071.5 2000 1998 17
48675629  8520  120 0.2365 0.2026  93.7 81.26033  147.8  8067.6 2000 1998 17
48676630  7800  120 0.2166 0.2026  86.3 81.21067  147.9  8067.7 2000 1998 17
48677631  6600   60 0.1832 0.1013 142.2 81.07600  147.9  8061.2 2000 1998 17
48678632  7920  180 0.2199 0.3040  60.2 81.02083  148.0  8055.8 2000 1998 17
48679633  8340  180 0.2316 0.3040  63.1 80.97850  148.1  8053.2 2000 1998 17
48680634  7980  240 0.2216 0.4053  46.8 80.70867  148.4  8049.7 2000 1998 17
48681635  7560   60 0.2099 0.1013 162.1 80.90533  147.9  8045.1 2000 1998 17
48682636  7200   60 0.1999 0.1013 154.6 80.88400  147.9  8042.0 2000 1998 17
48683637  7620  120 0.2116 0.2026  84.4 80.54850  147.8  8038.2 2000 1998 17
48684638  8400  120 0.2332 0.2026  92.5 80.62067  147.5  8035.7 2000 1998 17
48685639  6540    0 0.1816 0.0000   5.5 80.50017  147.9  8033.6 2000 1998 17
48686642  8760  240 0.2432 0.4053  50.8 80.44833  147.9  8031.1 2000 1998 17
