~VERSION INFORMATION
VERS     .                               2.0:CWLS LAS VERSION
WRAP     .                                NO: One line per depth step
~WELL INFORMATION
#    MNEM.UNIT                     DATA TYPE:INFORMATION
#========.==================================:=========================================
STRT     .ms                        35037231:Время первой записи в файле
STOP     .ms                                :Время последней записи в файле
STEP     .ms                               0:Шаг времени, 0 - переменный шаг
NULL     .                           -999.25:Метка, нет значения
DATE     .                        02.10.2024:Дата каротажа
DRV      .                                  :Наименование драйвера прибора
NAME     .                           ННКТ(б):Название прибора
SNUM     .                          23613012:Серийный номер прибора
FRMW     .                         0.23.10.2:Версия прошивки на контроллере прибора
~CURVE INFORMATION
#    MNEM.UNIT                      API CODE:CURVE DESCRIPTION
#========.==================================:=========================================
TIME     .                                  :Time of RealDepth
NTNC     .имп/мин                       NTNC:Счёт, ближний зонд ННКТ
FTNC     .у.е.                          FTNC:Счёт, дальний зонд ННКТ
NTNL     .имп/мин                       NTNL:Счёт нормированный на счёт в воде, ближний зонд ННКТ
FTNL     .у.е.                          FTNL:Счёт нормированный на счёт в воде, дальний зонд ННКТ
TRNP     .%                             TRNP:Пористость по водородосодержанию ННКТ
avg_TRNP .                                  :
avg_FTNC .                                  :
avg_NTNC .                                  :
UHVS     .В                                 :Установленное напряжение на высоковольтнике
UHVM     .В                                 :Измеренное напряжение на высоковольтнике
MT       .°C                                :Температура
~PARAMETER INFORMATION BLOCK
#    MNEM.UNIT                      API CODE:CURVE DESCRIPTION
#========.==================================:=========================================
~OTHER INFORMATION

~A        NTNC FTNC   NTNL   FTNL  TRNP avg_TRNP g_FTNC vg_NTNC UHVS UHVM MT
# ...
36078251  5820  240 0.1616 0.4053  35.6 32.60950  536.9  4757.4 2000 1998 20
36079252  5640  780 0.1566 1.3171  14.5 32.60683  535.2  4769.0 2000 1998 20
36080253  5220  300 0.1449 0.5066  27.1 32.71433  533.8  4777.1 2000 1998 20
36081254  5820  540 0.1616 0.9119  18.9 32.71217  531.8  4787.7 2000 1998 20
36082255  6540  480 0.1816 0.8105  22.4 32.74900  530.9  4797.0 2000 1998 20
36083256  6480  600 0.1799 1.0132  18.9 32.88617  529.4  4808.3 2000 1998 20
36084257  5280  240 0.1466 0.4053  32.8 33.01867  527.9  4818.8 2000 1998 20
36085258  5640  480 0.1566 0.8105  20.1 33.16517  526.2  4830.7 2000 1998 20
36086259  5400  420 0.1499 0.7092  21.5 33.21483  525.3  4841.4 2000 1998 20
36087260  4740  420 0.1316 0.7092  19.5 33.29700  524.0  4851.6 2000 1998 20
36088261  5520  360 0.1533 0.6079  24.5 33.35617  522.7  4861.5 2000 1998 20
36089261  5220  540 0.1449 0.9119  17.5 33.44067  521.3  4872.5 2000 1998 20
36090262  4920  360 0.1366 0.6079  22.5 33.43783  518.6  4882.0 2000 1998 20
36091263  5460  360 0.1516 0.6079  24.3 33.65900  516.5  4890.2 2000 1998 20
36092265  5760  420 0.1599 0.7092  22.5 33.79067  515.0  4900.7 2000 1998 20
36093266  5820  360 0.1616 0.6079  25.6 33.92767  513.8  4912.3 2000 1998 20
36094267  6480  300 0.1799 0.5066  32.3 34.01850  512.4  4923.9 2000 1998 20
36095268  6540  300 0.1816 0.5066  32.6 34.26733  511.1  4934.9 2000 1998 20
36096269  5640  240 0.1566 0.4053  34.7 34.29550  510.0  4944.8 2000 1998 20
36097271  6360  240 0.1766 0.4053  38.4 34.55650  508.1  4955.0 2000 1998 20
36098272  5940  300 0.1649 0.5066  30.1 34.82700  506.3  4965.6 2000 1998 20
36099272  6000  540 0.1666 0.9119  19.3 34.90017  505.2  4975.3 2000 1998 20
36100272  5400  420 0.1499 0.7092  21.5 34.99400  504.5  4987.0 2000 1998 20
36101273  6060  360 0.1682 0.6079  26.4 35.07200  503.2  4996.1 2000 1998 20
36102275  6300  360 0.1749 0.6079  27.2 35.16883  501.4  5004.1 2000 1998 20
36103275  5880  300 0.1633 0.5066  29.8 35.22667  499.9  5012.9 2000 1998 20
36104277  6060  360 0.1682 0.6079  26.4 35.28050  499.2  5022.2 2000 1998 20
36105277  6120  420 0.1699 0.7092  23.6 35.40267  498.0  5031.6 2000 1998 20
36106279  6660  360 0.1849 0.6079  28.5 35.48567  496.6  5042.4 2000 1998 20
36107279  5880  360 0.1633 0.6079  25.8 35.60950  494.8  5052.2 2000 1998 20
36108280  6600  300 0.1832 0.5066  32.8 35.68750  493.0  5061.0 2000 1998 20
36109280  7080  300 0.1966 0.5066  34.8 35.81517  491.2  5070.9 2000 1998 20
36110282  6240  300 0.1732 0.5066  31.3 35.86483  490.0  5081.2 2000 1998 20
36111282  5760  420 0.1599 0.7092  22.5 36.08650  488.1  5090.0 2000 1998 20
36112283  6540  240 0.1816 0.4053  39.4 36.22450  486.2  5100.8 2000 1998 20
36113285  6060  240 0.1682 0.4053  36.9 36.26067  485.8  5112.3 2000 1998 20
36114285  7200  120 0.1999 0.2026  80.0 36.49783  484.6  5120.8 2000 1998 20
36115286  6660  180 0.1849 0.3040  51.5 36.53317  483.3  5129.3 2000 1998 20
36116287  5640  180 0.1566 0.3040  44.4 36.57600  481.8  5138.3 2000 1998 19
36117288  7380  360 0.2049 0.6079  31.0 36.64100  480.1  5148.9 2000 1998 20
36118289  6420  420 0.1782 0.7092  25.4 36.71900  479.2  5157.8 2000 1998 19
36119291  7260  480 0.2016 0.8105  23.4 36.85783  477.3  5168.4 2000 1998 19
36120293  5100  240 0.1416 0.4053  33.1 36.98050  476.0  5177.9 2000 1998 19
36121294  6180  600 0.1716 1.0132  18.3 37.02917  474.9  5185.3 2000 1998 19
36122296  6120  360 0.1699 0.6079  26.6 37.14183  473.5  5194.6 2000 1998 19
36123296  6420  240 0.1782 0.4053  38.7 37.13967  472.0  5206.1 2000 1998 19
36124297  6840  240 0.1899 0.4053  40.9 37.35317  469.5  5214.2 2000 1998 19
36125298  6120  180 0.1699 0.3040  47.7 37.34983  468.3  5224.8 2000 1998 19
36126301  5460  480 0.1516 0.8105  19.6 37.39250  466.9  5233.4 2000 1998 19
36127300  5940  240 0.1649 0.4053  36.2 37.51133  465.7  5242.9 2000 1998 19
36128301  6840  300 0.1899 0.5066  33.8 37.78200  464.0  5253.8 2000 1998 19
36129302  5940  300 0.1649 0.5066  30.1 37.90150  463.1  5263.3 2000 1998 19
36130302  7080  420 0.1966 0.7092  26.4 37.96800  461.9  5271.5 2000 1998 19
36131305  5940  480 0.1649 0.8105  20.9 38.02550  460.5  5280.6 2000 1998 19
36132307  7080  180 0.1966 0.3040  54.4 38.08783  459.4  5291.1 2000 1998 19
36133306  7020  300 0.1949 0.5066  34.6 38.13150  457.9  5297.8 2000 1998 19
36134306  6780  300 0.1882 0.5066  33.6 38.17467  456.5  5306.1 2000 1998 19
36135308  6720  120 0.1866 0.2026  75.1 38.23150  455.9  5315.5 2000 1998 19
36136310  6900  240 0.1916 0.4053  41.2 38.48100  454.6  5325.6 2000 1998 19
36137311  6900  480 0.1916 0.8105  23.4 38.54133  453.2  5335.7 2000 1998 19
36138312  6480  240 0.1799 0.4053  39.0 38.77500  451.1  5344.6 2000 1998 19
36139313  5460  240 0.1516 0.4053  33.8 38.83283  449.9  5354.5 2000 1998 19
36140315  6780  120 0.1882 0.2026  75.7 38.87033  447.8  5363.8 2000 1998 19
36141315  7500  300 0.2082 0.5066  36.6 38.91200  447.0  5372.5 2000 1998 19
36142316  7920  300 0.2199 0.5066  38.3 39.04567  445.8  5383.7 2000 1998 19
36143316  7020  240 0.1949 0.4053  41.8 39.29683  444.3  5393.3 2000 1998 19
36144317  6120  120 0.1699 0.2026  68.9 39.36367  443.2  5404.6 2000 1998 19
36145319  7920  180 0.2199 0.3040  60.2 39.47850  442.0  5413.8 2000 1998 19
36146318  6240  120 0.1732 0.2026  70.1 39.58800  440.4  5422.5 2000 1998 19
36147320  6960  360 0.1932 0.6079  29.5 39.69317  439.0  5431.0 2000 1998 19
36148321  5400  240 0.1499 0.4053  33.5 39.78950  437.3  5442.5 2000 1998 19
36149321  6360  300 0.1766 0.5066  31.8 39.78667  435.2  5450.9 2000 1998 19
36150322  6360  180 0.1766 0.3040  49.4 39.82983  434.2  5457.8 2000 1998 19
36151323  6120  240 0.1699 0.4053  37.2 39.88300  433.3  5466.9 2000 1998 19
36152323  7740  360 0.2149 0.6079  32.2 40.20517  431.8  5479.6 2000 1998 19
36153324  6000  360 0.1666 0.6079  26.2 40.29100  431.3  5490.9 2000 1998 19
36154325  6360   60 0.1766 0.1013 137.2 40.40300  429.5  5499.1 2000 1998 19
36155326  6720  300 0.1866 0.5066  33.3 40.46750  427.9  5509.8 2000 1998 19
36156329  6360  240 0.1766 0.4053  38.4 40.53600  426.8  5518.3 2000 1998 19
36157329  6660  240 0.1849 0.4053  40.0 40.60583  425.1  5526.7 2000 1998 19
36158330  7140  120 0.1982 0.2026  79.4 40.68250  423.6  5536.4 2000 1998 19
36159331  6060  300 0.1682 0.5066  30.6 40.70967  423.7  5547.2 2000 1998 19
36160332  7200  420 0.1999 0.7092  26.8 40.75200  422.5  5555.8 2000 1998 19
36161332  7200  120 0.1999 0.2026  80.0 40.82417  421.4  5563.9 2000 1998 19
36162333  5760  240 0.1599 0.4053  35.3 41.03900  419.9  5572.3 2000 1998 19
36163334  5880  180 0.1633 0.3040  46.1 41.08017  419.1  5580.7 2000 1998 19
36164335  7080  240 0.1966 0.4053  42.2 41.19433  417.3  5589.2 2000 1998 19
36165336  7740  360 0.2149 0.6079  32.2 41.25150  416.2  5598.7 2000 1998 19
36166336  7500  180 0.2082 0.3040  57.3 41.28950  414.9  5608.4 2000 1998 19
36167337  7740  180 0.2149 0.3040  61.4 41.35317  413.1  5618.9 2000 1998 19
36168337  7260  180 0.2016 0.3040  53.1 41.39550  412.3  5629.8 2000 1998 19
36169338  7320  300 0.2032 0.5066  35.8 41.46883  410.9  5637.7 2000 1998 19
36170340  7980  300 0.2216 0.5066  40.3 41.51267  410.4  5646.7 2000 1998 19
36171340  7200    0 0.1999 0.0000   5.5 41.60767  409.3  5658.2 2000 1998 19
36172340  7020  120 0.1949 0.2026  78.2 41.90267  407.9  5670.3 2000 1998 19
36173341  6600  180 0.1832 0.3040  51.1 41.98617  407.0  5680.9 2000 1998 19
36174343  5460  180 0.1516 0.3040  43.2 42.10083  406.0  5690.4 2000 1998 19
36175343  5040  300 0.1399 0.5066  26.4 42.31783  404.2  5698.7 2000 1998 19
36176343  7620  180 0.2116 0.3040  58.1 42.44383  402.7  5709.2 2000 1998 19
36177345  6540  120 0.1816 0.2026  73.2 42.49600  401.3  5720.3 2000 1998 19
36178345  6960  180 0.1932 0.3040  53.5 42.60417  399.5  5728.4 2000 1998 19
36179346  6900  240 0.1916 0.4053  41.2 42.66433  398.6  5738.5 2000 1998 19
36180348  6600  360 0.1832 0.6079  28.3 42.74067  397.1  5747.8 2000 1999 19
36181348  7200  120 0.1999 0.2026  80.0 42.77700  395.7  5756.3 2000 1998 19
