~VERSION INFORMATION
VERS     .                               2.0:CWLS LAS VERSION
WRAP     .                                NO: One line per depth step
~WELL INFORMATION
#    MNEM.UNIT                     DATA TYPE:INFORMATION
#========.==================================:=========================================
STRT     .ms                        35037231:Время первой записи в файле
STOP     .ms                                :Время последней записи в файле
STEP     .ms                               0:Шаг времени, 0 - переменный шаг
NULL     .                           -999.25:Метка, нет значения
DATE     .                        02.10.2024:Дата каротажа
DRV      .                                  :Наименование драйвера прибора
NAME     .                           ННКТ(б):Название прибора
SNUM     .                          23613012:Серийный номер прибора
FRMW     .                         0.23.10.2:Версия прошивки на контроллере прибора
~CURVE INFORMATION
#    MNEM.UNIT                      API CODE:CURVE DESCRIPTION
#========.==================================:=========================================
TIME     .                                  :Time of RealDepth
NTNC     .имп/мин                       NTNC:Счёт, ближний зонд ННКТ
FTNC     .у.е.                          FTNC:Счёт, дальний зонд ННКТ
NTNL     .имп/мин                       NTNL:Счёт нормированный на счёт в воде, ближний зонд ННКТ
FTNL     .у.е.                          FTNL:Счёт нормированный на счёт в воде, дальний зонд ННКТ
TRNP     .%                             TRNP:Пористость по водородосодержанию ННКТ
avg_TRNP .                                  :
avg_FTNC .                                  :
avg_NTNC .                                  :
UHVS     .В                                 :Установленное напряжение на высоковольтнике
UHVM     .В                                 :Измеренное напряжение на высоковольтнике
MT       .°C                                :Температура
~PARAMETER INFORMATION BLOCK
#    MNEM.UNIT                      API CODE:CURVE DESCRIPTION
#========.==================================:=========================================
~OTHER INFORMATION

~A        NTNC FTNC   NTNL   FTNL  TRNP avg_TRNP g_FTNC vg_NTNC UHVS UHVM MT
# ...
38161997  8460  180 0.2349 0.3040  63.9 82.86033  129.1  7867.4 2000 1998 17
38162998  8640   60 0.2399 0.1013 184.4 82.88317  129.1  7868.5 2000 1998 18
38163999  7440  120 0.2066 0.2026  82.5 82.83817  129.2  7868.5 2000 1998 17
38165000  7260  120 0.2016 0.2026  80.7 82.63950  129.5  7870.0 2000 1998 18
38166001  7560  240 0.2099 0.4053  44.6 82.71300  129.3  7871.3 2000 1998 18
38167002  9300  180 0.2582 0.3040  69.7 82.85700  129.2  7872.1 2000 1998 18
38168003  7500  120 0.2082 0.2026  83.2 82.70900  129.0  7870.8 2000 1998 18
38169004  9000  120 0.2499 0.2026  98.7 82.84367  129.2  7871.0 2000 1998 18
38170005  7380  180 0.2049 0.3040  56.4 82.74833  129.3  7874.4 2000 1998 18
38171006  7380  180 0.2049 0.3040  56.4 82.93267  129.1  7873.2 2000 1998 18
38172007  7680    0 0.2132 0.0000   5.5 82.93383  129.1  7874.0 2000 1998 18
38173007  6780  180 0.1882 0.3040  52.3 82.77017  129.2  7871.8 2000 1998 18
38174009  7860  120 0.2182 0.2026  86.9 82.66250  129.3  7874.1 2000 1998 18
38175009  7620   60 0.2116 0.1013 170.7 82.77650  129.2  7873.4 2000 1998 18
38176010  8700  120 0.2415 0.2026  95.6 82.70967  128.8  7874.1 2000 1998 18
38177011  8340  420 0.2316 0.7092  28.9 82.61433  128.9  7875.5 2000 1998 18
38178012  8220   60 0.2282 0.1013 175.7 82.74583  129.1  7875.3 2000 1998 18
38179013  7860  120 0.2182 0.2026  91.2 82.83550  129.4  7874.2 2000 1998 18
38180015  7200  180 0.1999 0.3040  55.2 82.80583  129.5  7874.9 2000 1998 18
38181016  8820  360 0.2449 0.6079  35.9 82.93000  129.7  7873.9 2000 1998 18
38182017  8880  120 0.2465 0.2026  97.4 82.71933  130.0  7874.0 2000 1998 18
38183018  8460   60 0.2349 0.1013 180.7 82.74433  129.9  7874.5 2000 1998 18
38184018  7260  180 0.2016 0.3040  55.6 82.74433  129.9  7873.2 2000 1998 17
38185020  8340  120 0.2316 0.2026  91.9 82.78817  129.8  7873.1 2000 1998 18
38186020  7500   60 0.2082 0.1013 160.8 82.75467  129.9  7874.6 2000 1998 18
38187021  8220  240 0.2282 0.4053  48.1 82.57450  130.0  7872.1 2000 1998 18
38188022  7380   60 0.2049 0.1013 158.3 82.66300  129.6  7871.7 2000 1998 18
38189023  7260  120 0.2016 0.2026  80.7 82.75050  129.3  7872.3 2000 1998 18
38190025  6960   60 0.1932 0.1013 149.6 82.95400  129.0  7872.9 2000 1998 18
38191026  7380  180 0.2049 0.3040  56.4 83.09067  129.2  7872.6 2000 1998 17
38192027  7380  180 0.2049 0.3040  56.4 83.20967  129.4  7870.5 2000 1998 18
38193028  7680    0 0.2132 0.0000   5.5 83.20450  129.4  7870.0 2000 1998 18
38194030  7200   60 0.1999 0.1013 154.6 83.32350  129.6  7869.5 2000 1998 18
38195031  7860  120 0.2182 0.2026  86.9 83.20233  129.4  7871.5 2000 1998 18
38196031  7980  240 0.2216 0.4053  46.8 83.14067  129.0  7873.8 2000 1998 18
38197032  8700  120 0.2415 0.2026  95.6 83.28467  129.2  7875.4 2000 1998 18
38198034  7620  180 0.2116 0.3040  58.1 83.09967  129.7  7876.3 2000 1998 18
38199034  6180  120 0.1716 0.2026  69.5 83.10383  129.7  7877.1 2000 1998 18
38200034  7680   60 0.2132 0.1013 164.5 83.02050  129.9  7874.5 2000 1998 18
38201035  7680  120 0.2132 0.2026  85.0 83.28867  129.2  7875.2 2000 1998 18
38202036  8160   60 0.2266 0.1013 174.5 83.29067  129.2  7875.4 2000 1998 18
38203038  7440  240 0.2066 0.4053  44.0 83.33433  129.0  7876.5 2000 1998 18
38204039  7140  240 0.1982 0.4053  42.5 83.60350  129.1  7874.9 2000 1998 18
38205040  7080  120 0.1966 0.2026  78.8 83.57350  129.1  7872.0 2000 1998 18
38206042  8520  180 0.2365 0.3040  64.3 83.38783  129.3  7871.5 2000 1998 18
38207043  7320    0 0.2032 0.0000   5.5 83.11033  129.2  7872.7 2000 1998 17
38208042  7800    0 0.2166 0.0000   5.5 83.08333  129.2  7871.4 2000 1998 18
38209045  8280   60 0.2299 0.1013 177.0 83.12100  129.0  7868.1 2000 1998 18
38210045  7740    0 0.2149 0.0000   5.5 83.29567  128.8  7867.6 2000 1998 18
38211046  7020   60 0.1949 0.1013 150.9 83.22867  128.9  7865.4 2000 1998 18
38212047  8520  120 0.2365 0.2026  93.7 83.19550  129.0  7864.1 2000 1998 17
38213048  7200  120 0.1999 0.2026  80.0 83.32067  128.9  7863.4 2000 1998 18
38214049  8160  120 0.2266 0.2026  90.0 83.58567  129.0  7862.8 2000 1998 18
38215050  7980    0 0.2216 0.0000   5.5 83.51117  128.6  7862.5 2000 1998 18
38216052  8460  120 0.2349 0.2026  93.1 83.32350  128.8  7862.3 2000 1998 18
38217054  8580  240 0.2382 0.4053  49.9 83.08217  129.1  7860.8 2000 1998 18
38218054  7140  300 0.1982 0.5066  35.1 82.95483  129.2  7858.9 2000 1998 18
38219054  8580   60 0.2382 0.1013 183.2 83.08933  129.1  7857.9 2000 1999 18
38220055  7740  240 0.2149 0.4053  45.6 83.03483  129.2  7857.0 2000 1998 18
38221055  7620   60 0.2116 0.1013 163.3 82.88367  129.0  7855.8 2000 1998 18
38222058  7320  240 0.2032 0.4053  43.4 82.78017  129.1  7856.6 2000 1998 18
38223059  9000    0 0.2499 0.0000   5.5 82.69050  128.8  7856.0 2000 1998 18
38224060  7620  240 0.2116 0.4053  46.8 82.82617  128.7  7856.5 2000 1998 18
38225061  8280  180 0.2299 0.3040  62.7 82.88000  128.5  7855.6 2000 1998 18
38226062  6780  180 0.1882 0.3040  52.3 82.73083  128.6  7854.8 2000 1998 18
38227063  7800    0 0.2166 0.0000   5.5 82.52017  129.2  7853.8 2000 1998 18
38228063  7560   60 0.2099 0.1013 162.1 82.28933  129.5  7851.6 2000 1998 18
38229065  7920  180 0.2199 0.3040  60.2 82.58967  129.6  7852.6 2000 1998 18
38230065  8160  120 0.2266 0.2026  90.0 82.54283  129.7  7852.5 2000 1998 18
38231066  7920   60 0.2199 0.1013 169.5 82.70433  129.6  7853.9 2000 1999 18
38232067  7200  180 0.1999 0.3040  55.2 82.58217  129.7  7854.1 2000 1998 18
38233069  7920  120 0.2199 0.2026  87.5 82.66000  129.4  7854.0 2000 1998 18
38234069  7140  120 0.1982 0.2026  79.4 82.52650  129.2  7854.5 2000 1998 18
38235071  8220   60 0.2282 0.1013 175.7 82.47767  128.7  7857.6 2000 1998 18
38236072  8220  180 0.2282 0.3040  62.2 82.56417  128.5  7859.4 2000 1998 18
38237072  7260  120 0.2016 0.2026  80.7 82.44517  128.3  7860.0 2000 1998 18
38238074  6420  120 0.1782 0.2026  72.0 82.71300  127.8  7863.1 2000 1998 18
38239074  6780  120 0.1882 0.2026  75.7 82.61367  127.9  7865.1 2000 1998 18
38240075  8040  300 0.2232 0.5066  38.8 82.68467  128.3  7866.0 2000 1998 18
38241076  8400  180 0.2332 0.3040  63.5 82.42583  128.2  7866.2 2000 1999 18
38242077  7380  240 0.2049 0.4053  43.7 82.41950  128.3  7868.9 2000 1998 18
38243078  8940  120 0.2482 0.2026  98.1 82.38300  128.4  7866.6 2000 1998 18
38244079  8580  240 0.2382 0.4053  49.9 82.25050  128.2  7867.8 2000 1999 18
38245080  7440   60 0.2066 0.1013 159.6 82.48650  127.9  7870.8 2000 1998 18
38246081  7380  120 0.2049 0.2026  81.9 82.39833  128.2  7869.3 2000 1997 18
38247082  7680  180 0.2132 0.3040  58.5 82.58950  128.0  7869.8 2000 1998 18
38248083  8220  120 0.2282 0.2026  90.6 82.58533  128.0  7869.4 2000 1998 18
38249084  8160  180 0.2266 0.3040  61.8 82.30167  127.9  7869.9 2000 1998 18
38250085  8040  120 0.2232 0.2026  88.7 82.28583  127.9  7867.6 2000 1998 18
38251086  7980   60 0.2216 0.1013 170.7 82.24950  128.0  7868.6 2000 1998 18
38252087  8220  180 0.2282 0.3040  62.2 82.46700  128.1  7869.0 2000 1998 18
38253088  8220  120 0.2282 0.2026  90.6 82.66483  127.8  7867.9 2000 1998 18
38254089  7200  120 0.1999 0.2026  80.0 82.71933  127.7  7869.4 2000 1998 18
38255090  8520   60 0.2365 0.1013 181.9 82.64883  128.1  7871.4 2000 1998 18
38256091  6300  240 0.1749 0.4053  38.1 82.40967  128.6  7871.1 2000 1998 18
38257092  9120   60 0.2532 0.1013 194.4 82.33000  128.8  7869.8 2000 1998 18
38258093  8100  120 0.2249 0.2026  89.4 82.25183  129.0  7869.6 2000 1998 18
38259094  7380  240 0.2049 0.4053  43.7 82.40300  128.9  7870.8 2000 1998 18
38260095  7560  240 0.2099 0.4053  44.6 82.38783  128.9  7868.6 2000 1998 17
38261097  7440   60 0.2066 0.1013 159.6 82.33817  128.3  7867.0 2000 1998 18
38262097  7980  180 0.2216 0.3040  60.6 82.60117  128.4  7868.9 2000 1998 18
38263098  7800  360 0.2166 0.6079  32.4 82.74817  128.6  7870.0 2000 1998 18
38264100  8400    0 0.2332 0.0000   5.5 82.59383  128.7  7869.2 2000 1998 18
38265101  8400  180 0.2332 0.3040  63.5 82.84850  128.8  7870.5 2000 1998 17
