~VERSION INFORMATION
VERS     .                               2.0:CWLS LAS VERSION
WRAP     .                                NO: One line per depth step
~WELL INFORMATION
#    MNEM.UNIT                     DATA TYPE:INFORMATION
#========.==================================:=========================================
STRT     .ms                        35037231:Время первой записи в файле
STOP     .ms                                :Время последней записи в файле
STEP     .ms                               0:Шаг времени, 0 - переменный шаг
NULL     .                           -999.25:Метка, нет значения
DATE     .                        02.10.2024:Дата каротажа
DRV      .                                  :Наименование драйвера прибора
NAME     .                           ННКТ(б):Название прибора
SNUM     .                          23613012:Серийный номер прибора
FRMW     .                         0.23.10.2:Версия прошивки на контроллере прибора
~CURVE INFORMATION
#    MNEM.UNIT                      API CODE:CURVE DESCRIPTION
#========.==================================:=========================================
TIME     .                                  :Time of RealDepth
NTNC     .имп/мин                       NTNC:Счёт, ближний зонд ННКТ
FTNC     .у.е.                          FTNC:Счёт, дальний зонд ННКТ
NTNL     .имп/мин                       NTNL:Счёт нормированный на счёт в воде, ближний зонд ННКТ
FTNL     .у.е.                          FTNL:Счёт нормированный на счёт в воде, дальний зонд ННКТ
TRNP     .%                             TRNP:Пористость по водородосодержанию ННКТ
avg_TRNP .                                  :
avg_FTNC .                                  :
avg_NTNC .                                  :
UHVS     .В                                 :Установленное напряжение на высоковольтнике
UHVM     .В                                 :Измеренное напряжение на высоковольтнике
MT       .°C                                :Температура
~PARAMETER INFORMATION BLOCK
#    MNEM.UNIT                      API CODE:CURVE DESCRIPTION
#========.==================================:=========================================
~OTHER INFORMATION

~A        NTNC FTNC   NTNL   FTNL  TRNP avg_TRNP g_FTNC vg_NTNC UHVS UHVM MT
# ...
49625492  9600  120 0.2665 0.2026 104.9 86.33733  133.8  8347.0 2000 1998 17
49626492  7620   60 0.2116 0.1013 163.3 86.47400  133.7  8345.5 2000 1998 18
49629120  9180  120 0.2549 0.2026  88.1 86.21717  133.6  8346.0 2000 1998 18
49629332  8880  240 0.2465 0.4053  51.5 86.36317  133.5  8346.5 2000 1998 17
49630332  8580  360 0.2382 0.6079  35.1 86.34783  133.6  8347.6 2000 1998 17
49631334  8760   60 0.2432 0.1013 186.9 86.38883  133.5  8347.2 2000 1998 17
49632334  9300  360 0.2582 0.6079  37.6 86.40200  133.5  8349.1 2000 1998 17
49633335  8400   60 0.2332 0.1013 179.4 86.35433  133.6  8349.0 2000 1998 18
49634336  9120    0 0.2532 0.0000   5.5 86.21450  133.4  8349.0 2000 1998 18
49635336  9360   60 0.2599 0.1013 199.3 86.22550  133.4  8350.6 2000 1998 17
49636338  8760  180 0.2432 0.3040  66.0 86.39333  133.3  8352.0 2000 1998 18
49637339  8700  180 0.2415 0.3040  65.6 86.53317  133.5  8352.4 2000 1998 18
49638339  9480  180 0.2632 0.3040  70.9 86.46683  133.6  8350.1 2000 1998 17
49639340  8460  240 0.2349 0.4053  49.3 86.48133  133.6  8352.2 2000 1998 17
49640341  8340  300 0.2316 0.5066  40.0 86.49900  133.5  8351.1 2000 1998 18
49641344  9720    0 0.2699 0.0000   5.5 86.56983  133.3  8351.5 2000 1998 17
49642344  8580  120 0.2382 0.2026  94.3 86.51083  133.5  8352.4 2000 1998 18
49643344  8400   60 0.2332 0.1013 179.4 86.73450  133.6  8350.3 2000 1999 18
49644344  8520  120 0.2365 0.2026  93.7 86.68317  133.7  8350.5 2000 1998 17
49645345  8880  300 0.2465 0.5066  42.3 86.84883  133.5  8349.3 2000 1998 17
49646349  8880   60 0.2465 0.1013 189.4 86.85800  133.4  8348.2 2000 1998 17
49647347  8160   60 0.2266 0.1013 174.5 86.57017  133.3  8348.0 2000 1998 18
49648349  8940  180 0.2482 0.3040  67.2 86.48733  133.0  8349.2 2000 1998 17
49649351  8820    0 0.2449 0.0000   5.5 86.43733  133.1  8348.6 2000 1998 18
49650350  8640  120 0.2399 0.2026  95.0 86.40517  133.2  8347.1 2000 1998 18
49651352  8580   60 0.2382 0.1013 183.2 86.38650  133.2  8346.2 2000 1998 17
49652354  8280  180 0.2299 0.3040  62.7 86.41417  133.1  8346.6 2000 1998 18
49653354  9300   60 0.2582 0.1013 198.1 86.39767  133.1  8342.6 2000 1998 17
49654356  8520  240 0.2365 0.4053  49.6 86.28483  132.9  8345.3 2000 1998 17
49655357  9480  180 0.2632 0.3040  70.9 86.28000  133.0  8347.0 2000 1998 18
49656358  9780  180 0.2715 0.3040  73.0 86.14750  133.1  8347.7 2000 1998 18
49657363  8280  360 0.2299 0.6079  34.1 86.19250  132.9  8344.6 2000 1998 17
49658361  8700  300 0.2415 0.5066  41.5 86.18350  132.9  8343.3 2000 1998 17
49659361  8520   60 0.2365 0.1013 181.9 86.16567  133.0  8343.8 2000 1998 17
49660362  8760   60 0.2432 0.1013 186.9 85.90467  132.9  8343.4 2000 1998 17
49661364  8520    0 0.2365 0.0000   5.5 85.68867  133.1  8341.5 2000 1998 18
49662368  9600   60 0.2665 0.1013 204.3 85.77633  133.4  8341.9 2000 1998 18
49663365  8640  360 0.2399 0.6079  36.8 85.56383  133.6  8340.5 2000 1998 17
49664366  8460    0 0.2349 0.0000   5.5 85.63117  134.0  8339.2 2000 1997 17
49665368  9300    0 0.2582 0.0000   5.5 85.50283  133.8  8339.9 2000 1998 17
49666368  8700  120 0.2415 0.2026  95.6 85.45683  133.9  8339.1 2000 1998 18
49667369  8700  120 0.2415 0.2026  99.9 85.35250  134.4  8339.3 2000 1998 18
49668369  9240  360 0.2565 0.6079  37.4 85.50683  134.6  8340.4 2000 1998 18
49669371  8520  180 0.2365 0.3040  64.3 85.80500  134.7  8342.0 2000 1998 18
49670372  8640  180 0.2399 0.3040  65.1 85.85200  134.6  8342.2 2000 1997 18
49671373  8940  240 0.2482 0.4053  51.8 85.81700  134.9  8344.5 2000 1998 18
49672374  8760  300 0.2432 0.5066  41.8 85.94217  134.8  8344.3 2000 1998 17
49673377  9780  300 0.2715 0.5066  46.0 86.08200  135.0  8345.2 2000 1998 17
49674376  9420  240 0.2615 0.4053  54.3 85.99917  134.7  8348.0 2000 1998 18
49675377 10140   60 0.2815 0.1013 215.5 86.11583  134.5  8345.7 2000 1998 17
49676378  8700  120 0.2415 0.2026  95.6 86.04283  134.7  8345.5 2000 1998 17
49677379  8940  120 0.2482 0.2026  98.1 86.04767  134.7  8346.2 2000 1998 18
49678380  9240   60 0.2565 0.1013 196.8 86.03933  134.7  8345.4 2000 1997 17
49679382  9300   60 0.2582 0.1013 198.1 86.22983  134.5  8346.4 2000 1998 17
49680382  9420  120 0.2615 0.2026 103.0 86.09733  134.3  8349.4 2000 1998 17
49681383  8640    0 0.2399 0.0000   5.5 85.89367  134.5  8348.5 2000 1998 18
49682383  8280  120 0.2299 0.2026  91.2 85.71550  134.6  8345.8 2000 1998 18
49683385  9780  180 0.2715 0.3040  73.0 85.85833  134.8  8345.4 2000 1998 18
49684386  8760    0 0.2432 0.0000   5.5 85.98983  135.0  8345.1 2000 1998 17
49685387  9060    0 0.2515 0.0000   5.5 85.85617  135.1  8345.1 2000 1998 18
49686388  8940  240 0.2482 0.4053  51.8 85.60317  135.7  8342.4 2000 1998 17
49687390  8700  120 0.2415 0.2026  95.6 85.51683  135.4  8342.4 2000 1998 18
49688390  7620  480 0.2116 0.8105  25.2 85.55400  135.3  8344.5 2000 1998 17
49689391  8340  120 0.2316 0.2026  91.9 85.34650  135.6  8344.3 2000 1998 18
49690392  7860  120 0.2182 0.2026  86.9 85.29417  135.7  8343.6 2000 1998 17
49691392  8100   60 0.2249 0.1013 173.2 85.09683  135.9  8342.0 2000 1998 18
49692394  9360    0 0.2599 0.0000   5.5 85.08133  135.9  8340.5 2000 1998 18
49693396  8820  120 0.2449 0.2026  96.8 85.18283  135.8  8337.6 2000 1998 18
49694394  8880  120 0.2465 0.2026  97.4 85.36100  135.5  8335.4 2000 1998 17
49695396 10020  120 0.2782 0.2026 109.2 85.40233  135.4  8335.0 2000 1998 18
49696397  8340  180 0.2316 0.3040  63.1 85.33250  135.0  8335.2 2000 1998 18
49697398  9060  300 0.2515 0.5066  43.0 85.53917  134.5  8333.6 2000 1998 18
49698399  8580  120 0.2382 0.2026  94.3 85.40867  134.6  8334.8 2000 1998 18
49699400  7800   60 0.2166 0.1013 167.0 85.66550  134.7  8333.9 2000 1998 18
49700401  8640  180 0.2399 0.3040  65.1 85.66550  134.7  8333.7 2000 1998 17
49701402  8460  120 0.2349 0.2026  93.1 85.60283  134.9  8334.8 2000 1998 17
49702404  9600  180 0.2665 0.3040  71.8 85.46933  135.0  8335.3 2000 1998 17
49703406 10800    0 0.2999 0.0000   5.5 85.42917  135.2  8334.6 2000 1998 18
49704406  9420  240 0.2615 0.4053  54.3 85.67350  134.8  8336.0 2000 1998 18
49705407  8160   60 0.2266 0.1013 174.5 85.84817  134.4  8331.8 2000 1998 17
49706408  9300  300 0.2582 0.5066  44.0 85.68867  134.5  8329.8 2000 1998 18
49707410  8340   60 0.2316 0.1013 178.2 85.66450  134.6  8327.7 2000 1998 18
49708412  9180  180 0.2549 0.3040  68.9 85.68000  134.6  8329.2 2000 1998 17
49709412  8160  300 0.2266 0.5066  39.3 85.68000  134.6  8329.6 2000 1998 17
49710412  9300  180 0.2582 0.3040  69.7 85.65917  134.6  8327.6 2000 1999 18
49711412  8520  180 0.2365 0.3040  64.3 85.74483  134.9  8326.9 2000 1998 18
49712414  9720   60 0.2699 0.1013 216.7 85.53850  135.1  8324.4 2000 1998 18
49713414  9120  180 0.2532 0.3040  68.5 85.84917  135.2  8323.5 2000 1998 17
49714417  9120  120 0.2532 0.2026  95.0 85.85050  135.1  8320.8 2000 1998 17
49715418  7200  120 0.1999 0.2026  80.0 85.81217  135.2  8322.3 2000 1999 17
49716419  8700  120 0.2415 0.2026  99.9 85.60450  135.5  8320.3 2000 1998 18
49717419  8940  240 0.2482 0.4053  51.8 85.78333  135.3  8319.4 2000 1998 18
49718420  8820  300 0.2449 0.5066  42.0 85.77400  135.4  8321.2 2000 1998 17
49719421  9060   60 0.2515 0.1013 193.1 85.76583  135.4  8320.8 2000 1997 17
49720423  9180  180 0.2549 0.3040  68.9 85.82067  135.3  8322.3 2000 1999 17
49721424 10440  180 0.2899 0.3040  77.6 85.81267  135.4  8323.5 2000 1998 18
49722424 10380    0 0.2882 0.0000   5.5 85.78133  135.5  8322.1 2000 1998 18
49723426 10440  180 0.2899 0.3040  77.6 85.54883  135.8  8320.4 2000 1998 18
49724427 10260  120 0.2849 0.2026 111.7 85.61933  135.7  8316.0 2000 1998 18
49725428  9300  240 0.2582 0.4053  53.6 85.63283  135.7  8317.3 2000 1998 18
49726428  9300  120 0.2582 0.2026 101.8 85.42850  135.9  8316.5 2000 1998 18
49727431  9480  120 0.2632 0.2026 103.7 85.55483  136.1  8313.5 2000 1998 18
49728432  7440  120 0.2066 0.2026  82.5 85.45433  136.4  8311.6 2000 1998 18
49729433  9060  180 0.2515 0.3040  68.0 85.49917  136.3  8310.8 2000 1998 17
