~VERSION INFORMATION
VERS     .                               2.0:CWLS LAS VERSION
WRAP     .                                NO: One line per depth step
~WELL INFORMATION
#    MNEM.UNIT                     DATA TYPE:INFORMATION
#========.==================================:=========================================
STRT     .ms                        35037231:Время первой записи в файле
STOP     .ms                                :Время последней записи в файле
STEP     .ms                               0:Шаг времени, 0 - переменный шаг
NULL     .                           -999.25:Метка, нет значения
DATE     .                        02.10.2024:Дата каротажа
DRV      .                                  :Наименование драйвера прибора
NAME     .                           ННКТ(б):Название прибора
SNUM     .                          23613012:Серийный номер прибора
FRMW     .                         0.23.10.2:Версия прошивки на контроллере прибора
~CURVE INFORMATION
#    MNEM.UNIT                      API CODE:CURVE DESCRIPTION
#========.==================================:=========================================
TIME     .                                  :Time of RealDepth
NTNC     .имп/мин                       NTNC:Счёт, ближний зонд ННКТ
FTNC     .у.е.                          FTNC:Счёт, дальний зонд ННКТ
NTNL     .имп/мин                       NTNL:Счёт нормированный на счёт в воде, ближний зонд ННКТ
FTNL     .у.е.                          FTNL:Счёт нормированный на счёт в воде, дальний зонд ННКТ
TRNP     .%                             TRNP:Пористость по водородосодержанию ННКТ
avg_TRNP .                                  :
avg_FTNC .                                  :
avg_NTNC .                                  :
UHVS     .В                                 :Установленное напряжение на высоковольтнике
UHVM     .В                                 :Измеренное напряжение на высоковольтнике
MT       .°C                                :Температура
~PARAMETER INFORMATION BLOCK
#    MNEM.UNIT                      API CODE:CURVE DESCRIPTION
#========.==================================:=========================================
~OTHER INFORMATION

~A        NTNC FTNC   NTNL   FTNL  TRNP avg_TRNP g_FTNC vg_NTNC UHVS UHVM MT
# ...
46499521 11280  180 0.3132 0.3040  83.4 93.69733  173.8 10011.4 2000 1998 17
46500521  9840  120 0.2732 0.2026 107.4 93.62067  174.0 10012.4 2000 1998 17
46501522 10380   60 0.2882 0.1013 220.4 93.71283  173.8 10013.3 2000 1998 17
46502524 10500   60 0.2915 0.1013 222.9 93.42117  174.3 10010.8 2000 1998 17
46503526  9660   60 0.2682 0.1013 205.5 93.42250  174.3 10011.0 2000 1998 17
46504527  9120  360 0.2532 0.6079  37.0 93.52300  174.1 10012.5 2000 1998 17
46505530  9240  300 0.2565 0.5066  43.8 93.52783  174.1 10013.2 2000 1998 17
46506530  9540   60 0.2649 0.1013 203.1 93.25033  174.6 10013.8 2000 1998 17
46507531 10560  300 0.2932 0.5066  49.2 93.29333  174.5 10015.8 2000 1998 17
46508532 10800  300 0.2999 0.5066  50.2 93.21667  174.7 10016.6 2000 1998 17
46509535  9480   60 0.2632 0.1013 201.8 93.29300  174.4 10020.4 2000 1998 17
46510536  9420  420 0.2615 0.7092  33.4 93.25983  174.5 10022.3 2000 1998 17
46511537 10620  240 0.2949 0.4053  60.5 93.24433  174.6 10023.5 2000 1998 17
46512538  9960  180 0.2765 0.3040  74.2 93.21200  174.8 10022.9 2000 1998 17
46513539  9840  240 0.2732 0.4053  58.9 93.44250  174.6 10022.9 2000 1998 17
46514540 10740   60 0.2982 0.1013 216.7 93.42800  174.6 10021.6 2000 1998 17
46515540  9900  120 0.2749 0.2026 108.0 93.53883  174.4 10024.3 2000 1999 17
46516541  9720  120 0.2699 0.2026 106.1 93.88633  173.9 10027.1 2000 1998 17
46517543 10440  180 0.2899 0.3040  81.3 93.78800  174.3 10029.0 2000 1998 17
46518544 10680  120 0.2965 0.2026 116.1 93.67433  174.6 10027.5 2000 1999 17
46519546 10980  180 0.3048 0.3040  81.3 93.67950  174.6 10028.5 2000 1998 17
46520547  9240   60 0.2565 0.1013 196.8 93.63300  174.8 10028.0 2000 1998 17
46521551  9840  180 0.2732 0.3040  73.4 93.52117  174.5 10027.5 2000 1998 17
46522549  9780  180 0.2715 0.3040  73.0 93.46933  174.5 10022.5 2000 1998 17
46523550  9960  120 0.2765 0.2026 108.6 93.21667  174.9 10022.7 2000 1998 17
46524552 10560  180 0.2932 0.3040  78.4 93.03950  175.0 10022.7 2000 1999 17
46525553 10140  360 0.2815 0.6079  40.5 93.03000  175.1 10023.0 2000 1999 17
46526554 10020  360 0.2782 0.6079  40.1 93.17283  175.0 10021.5 2000 1999 17
46527554 10800  180 0.2999 0.3040  80.0 93.14000  175.1 10020.8 2000 1998 17
46528555  7980  240 0.2216 0.4053  46.8 93.24400  174.5 10017.2 2000 1997 17
46529556  9120   60 0.2532 0.1013 194.4 93.12867  174.2 10017.6 2000 1998 17
46530558  9660  120 0.2682 0.2026 105.5 93.05417  174.4 10019.8 2000 1999 17
46531559 10800  180 0.2999 0.3040  80.0 93.12467  174.0 10019.9 2000 1998 17
46532560 11760  120 0.3265 0.2026 127.3 92.91550  174.2 10020.2 2000 1998 17
46533562 10140  180 0.2815 0.3040  75.5 92.90333  174.3 10022.7 2000 1998 17
46534563  9960  240 0.2765 0.4053  57.1 92.91450  174.3 10024.3 2000 1998 17
46535564  9240  300 0.2565 0.5066  43.8 92.98433  174.1 10022.1 2000 1998 17
46536567 10020  180 0.2782 0.3040  74.7 93.06567  174.5 10022.7 2000 1998 17
46537567  8460  180 0.2349 0.3040  63.9 93.09850  174.4 10023.4 2000 1998 17
46538568 10680   60 0.2965 0.1013 226.7 93.10883  174.4 10025.7 2000 1998 17
46539571  9060  240 0.2515 0.4053  52.4 92.97667  174.7 10022.6 2000 1999 17
46540571  9060  120 0.2515 0.2026  99.3 92.80367  174.8 10023.0 2000 1998 17
46541572 10560  240 0.2932 0.4053  60.2 92.63900  174.9 10023.7 2000 1998 17
46542572 10740  300 0.2982 0.5066  50.0 92.55450  175.1 10023.7 2000 1998 17
46543573 10920   60 0.3032 0.1013 231.6 92.58500  175.0 10023.9 2000 1998 17
46544574 10260  180 0.2849 0.3040  76.3 92.61617  174.6 10024.6 2000 1998 17
46545577 10020  240 0.2782 0.4053  57.4 92.66383  174.5 10023.5 2000 1998 17
46546576  9720  360 0.2699 0.6079  39.0 92.42983  174.8 10023.9 2000 1998 17
46547578 10020  120 0.2782 0.2026 109.2 92.44650  174.8 10025.5 2000 1998 17
46548579 10680  240 0.2965 0.4053  60.8 92.51483  174.8 10028.8 2000 1998 17
46549581  9120  240 0.2532 0.4053  52.7 92.59000  174.6 10026.9 2000 1998 17
46550581  8580  120 0.2382 0.2026  94.3 92.94367  174.0 10030.1 2000 1998 17
46551582 10920    0 0.3032 0.0000   5.5 92.95000  174.0 10031.0 2000 1998 17
46552584  9360  120 0.2599 0.2026 102.4 93.00683  173.9 10031.4 2000 1998 17
46553585 12840  180 0.3565 0.3040  94.1 92.70400  174.2 10029.3 2000 1998 17
46554587 10560  240 0.2932 0.4053  63.0 92.54667  174.0 10030.6 2000 1998 17
46555588 11520  240 0.3198 0.4053  62.0 92.62333  173.9 10032.8 2000 1999 17
46556590 10620  120 0.2949 0.2026 115.5 92.84783  173.7 10032.1 2000 1998 17
46557590 10440  240 0.2899 0.4053  59.5 92.67083  173.5 10029.7 2000 1998 17
46558591  9780  120 0.2715 0.2026 111.7 92.71667  173.4 10031.9 2000 1998 17
46559593  9780  180 0.2715 0.3040  73.0 92.95267  173.1 10030.1 2000 1998 17
46560593  9660  120 0.2682 0.2026 105.5 93.03250  172.9 10029.1 2000 1998 17
46561594  9840  120 0.2732 0.2026 107.4 93.07517  173.6 10028.5 2000 1998 17
46562595 10260  180 0.2849 0.3040  76.3 93.30917  173.4 10028.8 2000 1998 17
46563597  9420  120 0.2615 0.2026 103.0 93.25033  173.5 10024.0 2000 1998 17
46564597  9720  420 0.2699 0.7092  34.3 93.31467  173.3 10027.1 2000 1998 17
46565599 11160  240 0.3098 0.4053  63.3 93.37633  173.0 10027.9 2000 1998 17
46566601  8820    0 0.2449 0.0000   5.5 93.08317  173.4 10027.1 2000 1998 17
46567603  9360  120 0.2599 0.2026 102.4 93.04100  173.7 10025.3 2000 1998 17
46568604  9180  120 0.2549 0.2026 100.5 93.03183  173.8 10025.0 2000 1998 17
46569606 10920  180 0.3032 0.3040  80.9 92.87233  173.9 10025.6 2000 1998 17
46570607  9060  180 0.2515 0.3040  68.0 92.74333  173.6 10023.5 2000 1998 17
46571607 10260  120 0.2849 0.2026 111.7 92.46033  173.8 10020.7 2000 1998 17
46572609 10080   60 0.2799 0.1013 214.2 92.33000  174.6 10020.6 2000 1998 17
46573610 10680  180 0.2965 0.3040  79.2 92.59100  174.3 10020.3 2000 1998 17
46574611 10680    0 0.2965 0.0000   5.5 92.63800  174.2 10019.2 2000 1998 17
46575612  9600  240 0.2665 0.4053  55.2 92.63183  174.2 10018.3 2000 1998 17
46576614 11460  180 0.3182 0.3040  84.6 92.66133  174.1 10019.0 2000 1998 17
46577615 10140  300 0.2815 0.5066  47.5 92.82817  174.0 10018.6 2000 1998 17
46578617  9660  120 0.2682 0.2026 105.5 92.81567  174.0 10018.0 2000 1999 17
46579618  9840  300 0.2732 0.5066  46.3 92.90600  173.7 10017.2 2000 1998 17
46580619 10080    0 0.2799 0.0000   5.5 92.91217  173.7 10017.5 2000 1998 17
46581621 11100  180 0.3082 0.3040  82.1 92.59733  173.6 10019.7 2000 1998 17
46582623 11760  300 0.3265 0.5066  54.2 92.69200  173.4 10020.1 2000 1998 17
46583623 10020  120 0.2782 0.2026 109.2 92.75150  173.2 10016.4 2000 1998 17
46584624  9060   60 0.2515 0.1013 193.1 92.80567  173.1 10016.3 2000 1998 17
46585626  9360  360 0.2599 0.6079  37.8 92.68567  173.4 10015.2 2000 1998 17
46586628  9060  120 0.2515 0.2026  99.3 92.56283  173.1 10017.1 2000 1998 17
46587628  9060  120 0.2515 0.2026  99.3 92.51267  173.2 10013.6 2000 1999 17
46588631  9480  120 0.2632 0.2026 103.7 92.55667  173.9 10011.7 2000 1998 17
46589630 10440  180 0.2899 0.3040  77.6 92.57733  173.9 10013.7 2000 1998 17
46590632  9360  120 0.2599 0.2026 102.4 92.47333  174.2 10013.2 2000 1998 17
46591634 10260  180 0.2849 0.3040  76.3 92.59900  173.6 10011.7 2000 1998 17
46592634 11160   60 0.3098 0.1013 236.6 92.62067  173.5 10010.6 2000 1998 17
46593636 10860  420 0.3015 0.7092  37.6 92.58417  173.6 10009.6 2000 1998 17
46594638  9300  180 0.2582 0.3040  69.7 92.62267  173.0 10007.0 2000 1998 17
46595638  9060  420 0.2515 0.7092  33.7 92.75017  172.9 10004.8 2000 1998 17
46596639  9960  180 0.2765 0.3040  74.2 92.68083  173.0 10003.2 2000 1998 17
46597640 10320  120 0.2865 0.2026 112.4 92.67350  173.0 10001.8 2000 1998 17
46598642 10560  180 0.2932 0.3040  78.4 92.44783  173.2 10002.5 2000 1998 17
46599643  9420  120 0.2615 0.2026 103.0 92.50483  173.8 10001.8 2000 1998 17
46600645 10080  420 0.2799 0.7092  35.3 92.77583  173.3 10001.8 2000 1998 17
46601645  9720  180 0.2699 0.3040  72.6 92.74183  173.6 10002.1 2000 1999 17
46602647 10020  120 0.2782 0.2026 109.2 93.06067  173.7  9999.4 2000 1999 17
