~VERSION INFORMATION
VERS     .                               2.0:CWLS LAS VERSION
WRAP     .                                NO: One line per depth step
~WELL INFORMATION
#    MNEM.UNIT                     DATA TYPE:INFORMATION
#========.==================================:=========================================
STRT     .ms                        35037231:Время первой записи в файле
STOP     .ms                                :Время последней записи в файле
STEP     .ms                               0:Шаг времени, 0 - переменный шаг
NULL     .                           -999.25:Метка, нет значения
DATE     .                        02.10.2024:Дата каротажа
DRV      .                                  :Наименование драйвера прибора
NAME     .                           ННКТ(б):Название прибора
SNUM     .                          23613012:Серийный номер прибора
FRMW     .                         0.23.10.2:Версия прошивки на контроллере прибора
~CURVE INFORMATION
#    MNEM.UNIT                      API CODE:CURVE DESCRIPTION
#========.==================================:=========================================
TIME     .                                  :Time of RealDepth
NTNC     .имп/мин                       NTNC:Счёт, ближний зонд ННКТ
FTNC     .у.е.                          FTNC:Счёт, дальний зонд ННКТ
NTNL     .имп/мин                       NTNL:Счёт нормированный на счёт в воде, ближний зонд ННКТ
FTNL     .у.е.                          FTNL:Счёт нормированный на счёт в воде, дальний зонд ННКТ
TRNP     .%                             TRNP:Пористость по водородосодержанию ННКТ
avg_TRNP .                                  :
avg_FTNC .                                  :
avg_NTNC .                                  :
UHVS     .В                                 :Установленное напряжение на высоковольтнике
UHVM     .В                                 :Измеренное напряжение на высоковольтнике
MT       .°C                                :Температура
~PARAMETER INFORMATION BLOCK
#    MNEM.UNIT                      API CODE:CURVE DESCRIPTION
#========.==================================:=========================================
~OTHER INFORMATION

~A        NTNC FTNC   NTNL   FTNL  TRNP avg_TRNP g_FTNC vg_NTNC UHVS UHVM MT
# ...
39204689  7680  120 0.2132 0.2026  85.0 90.66533  121.2  7926.3 2000 1998 17
39205691  8160   60 0.2266 0.1013 174.5 90.50017  121.5  7927.4 2000 1998 17
39206692  8220  180 0.2282 0.3040  62.2 90.71717  121.2  7928.5 2000 1998 17
39207693  8400  240 0.2332 0.4053  49.0 90.80100  120.8  7927.6 2000 1998 17
39208694  8880   60 0.2465 0.1013 189.4 90.84617  120.7  7927.5 2000 1999 17
39209695  7980  120 0.2216 0.2026  88.1 90.81383  120.8  7929.2 2000 1998 17
39210696  8400  120 0.2332 0.2026  92.5 90.74750  120.4  7929.8 2000 1998 17
39211697  8520  180 0.2365 0.3040  64.3 90.67350  120.0  7927.4 2000 1998 17
39212698  8700  180 0.2415 0.3040  65.6 90.70083  119.9  7924.8 2000 1998 17
39213699  8280  120 0.2299 0.2026  91.2 90.44817  120.1  7920.6 2000 1998 17
39214700  8340  120 0.2316 0.2026  91.9 90.39467  120.4  7919.1 2000 1998 17
39215702  7020  180 0.1949 0.3040  54.0 90.33883  120.4  7916.4 2000 1998 17
39216703  7860   60 0.2182 0.1013 168.3 90.45783  120.6  7915.1 2000 1998 17
39217705  8220   60 0.2282 0.1013 175.7 90.30950  120.8  7916.8 2000 1998 17
39218705  7140   60 0.1982 0.1013 153.4 90.24467  121.0  7917.8 2000 1998 17
39219706  7680   60 0.2132 0.1013 164.5 90.30467  120.9  7919.4 2000 1998 17
39220707  7260  180 0.2016 0.3040  55.6 90.38233  120.6  7919.1 2000 1998 17
39221707  8220    0 0.2282 0.0000   5.5 90.36917  120.7  7920.5 2000 1998 17
39222708  8820   60 0.2449 0.1013 188.1 90.60017  120.3  7921.5 2000 1998 17
39223709  8220    0 0.2282 0.0000   5.5 90.44900  120.4  7921.9 2000 1998 17
39224710  8280   60 0.2299 0.1013 177.0 90.46567  120.4  7922.7 2000 1998 17
39225712  9060   60 0.2515 0.1013 193.1 90.57750  120.3  7921.4 2000 1998 17
39226714  7200   60 0.1999 0.1013 154.6 90.36583  120.6  7921.6 2000 1998 17
39227713  6900   60 0.1916 0.1013 148.4 90.27683  120.3  7923.2 2000 1998 17
39228713  8580    0 0.2382 0.0000   5.5 90.03450  120.2  7925.3 2000 1998 17
39229715  9060    0 0.2515 0.0000   5.5 89.98783  120.3  7925.5 2000 1998 17
39230716  7200  180 0.1999 0.3040  55.2 89.90950  120.6  7926.4 2000 1998 17
39231716  9600    0 0.2665 0.0000   5.5 89.75933  120.4  7927.5 2000 1998 17
39232717  7620  300 0.2116 0.5066  37.1 89.75800  120.4  7927.3 2000 1998 17
39233717  7620  120 0.2116 0.2026  84.4 89.54850  120.8  7927.5 2000 1998 17
39234719  7500  180 0.2082 0.3040  57.3 89.62317  120.6  7928.4 2000 1998 17
39235720  8820  180 0.2449 0.3040  66.4 89.80633  120.5  7931.0 2000 1998 17
39236721  8160  240 0.2266 0.4053  49.9 89.82900  120.4  7929.4 2000 1998 17
39237722  8280  120 0.2299 0.2026  91.2 89.73467  120.8  7928.3 2000 1998 17
39238724  7980  120 0.2216 0.2026  88.1 89.88683  121.0  7929.5 2000 1998 17
39239726  8340  300 0.2316 0.5066  40.0 89.61967  120.9  7929.9 2000 1998 17
39240725  7740   60 0.2149 0.1013 165.8 89.60617  121.0  7929.9 2000 1998 17
39241726  7920  180 0.2199 0.3040  60.2 89.66883  120.8  7928.9 2000 1997 17
39242727  7080  180 0.1966 0.3040  54.4 89.76833  120.7  7927.0 2000 1998 17
39243728  7560   60 0.2099 0.1013 162.1 89.78550  120.7  7929.5 2000 1998 17
39244729  7680    0 0.2132 0.0000   5.5 89.65817  120.8  7929.6 2000 1998 17
39245730  7560   60 0.2099 0.1013 162.1 89.71983  121.2  7927.6 2000 1998 17
39246731  7980  120 0.2216 0.2026  88.1 89.72400  121.2  7927.8 2000 1998 17
39247731  7860   60 0.2182 0.1013 168.3 89.81717  121.5  7928.7 2000 1998 17
39248732  7140   60 0.1982 0.1013 153.4 89.74367  121.8  7930.3 2000 1998 17
39249733  7140   60 0.1982 0.1013 153.4 89.79850  121.6  7929.5 2000 1998 17
39250734  7860  120 0.2182 0.2026  86.9 89.67017  121.7  7929.4 2000 1998 17
39251735  7860   60 0.2182 0.1013 168.3 89.59017  121.4  7932.1 2000 1998 17
39252736  8280  120 0.2299 0.2026  91.2 89.63817  121.3  7931.7 2000 1998 17
39253737  7920  120 0.2199 0.2026  87.5 89.50567  121.1  7934.7 2000 1998 17
39254738  7920  180 0.2199 0.3040  60.2 89.46217  121.2  7935.0 2000 1998 17
39255739  7260   60 0.2016 0.1013 155.8 89.52633  121.2  7938.1 2000 1998 17
39256741  6720  300 0.1866 0.5066  33.3 89.50250  121.2  7935.8 2000 1998 17
39257742  9060   60 0.2515 0.1013 193.1 89.34417  121.0  7934.4 2000 1998 17
39258742  7260   60 0.2016 0.1013 155.8 89.21267  121.1  7935.1 2000 1998 17
39259742  9360   60 0.2599 0.1013 199.3 89.05633  121.2  7934.3 2000 1998 17
39260745  7740  120 0.2149 0.2026  85.6 89.03050  121.2  7931.8 2000 1998 17
39261746  8340  180 0.2316 0.3040  63.1 89.02150  121.2  7930.5 2000 1998 17
39262746  7500  120 0.2082 0.2026  83.2 88.94700  121.4  7929.7 2000 1998 17
39263748  8760   60 0.2432 0.1013 186.9 89.03467  121.7  7929.1 2000 1998 17
39264750  6780  240 0.1882 0.4053  40.6 89.04300  121.7  7929.9 2000 1998 17
39265750  8820   60 0.2449 0.1013 188.1 88.86183  121.8  7926.8 2000 1998 17
39266751  7200   60 0.1999 0.1013 154.6 88.85983  121.8  7926.7 2000 1998 17
39267752  7620    0 0.2116 0.0000   5.5 88.82750  122.0  7927.7 2000 1998 17
39268753  7740  120 0.2149 0.2026  85.6 89.00700  121.8  7926.3 2000 1998 17
39269754  6480  180 0.1799 0.3040  50.2 89.19500  121.5  7926.0 2000 1998 17
39270755  8760  120 0.2432 0.2026  96.2 89.05217  121.3  7927.6 2000 1998 17
39271756  6300  120 0.1749 0.2026  70.7 88.79950  121.7  7926.2 2000 1998 17
39272758  8340  120 0.2316 0.2026  91.9 88.90300  121.6  7923.4 2000 1998 17
39273759  8280  120 0.2299 0.2026  91.2 88.69800  121.8  7922.9 2000 1998 17
39274759  7440  120 0.2066 0.2026  82.5 88.96900  121.3  7924.9 2000 1998 17
39275760  7860  120 0.2182 0.2026  86.9 88.99800  121.3  7927.7 2000 1998 17
39276761  8220  180 0.2282 0.3040  62.2 89.09533  121.6  7928.3 2000 1998 17
39277763  7080   60 0.1966 0.1013 152.1 88.99500  121.7  7930.9 2000 1998 17
39278764  7980  120 0.2216 0.2026  88.1 89.15650  121.9  7933.3 2000 1998 17
39279765  7980   60 0.2216 0.1013 170.7 89.16467  121.9  7934.1 2000 1998 17
39280766  6780   60 0.1882 0.1013 145.9 89.22633  121.6  7931.9 2000 1998 17
39281767  8100  180 0.2249 0.3040  64.3 89.23517  121.6  7933.6 2000 1998 17
39282768  7500    0 0.2082 0.0000   5.5 89.23517  121.6  7933.1 2000 1998 17
39283769  7980  120 0.2216 0.2026  88.1 89.51683  121.7  7933.9 2000 1998 17
39284770  7200   60 0.1999 0.1013 154.6 89.45717  121.8  7933.3 2000 1998 17
39285770  7800  180 0.2166 0.3040  61.8 89.24100  122.3  7935.8 2000 1998 17
39286771  8160  180 0.2266 0.3040  61.8 89.16033  122.4  7938.7 2000 1998 17
39287772  7920  240 0.2199 0.4053  46.5 89.23133  122.8  7938.6 2000 1998 17
39288774  7080  180 0.1966 0.3040  54.4 89.15583  122.4  7938.0 2000 1998 17
39289774  7200   60 0.1999 0.1013 154.6 89.25667  122.7  7939.7 2000 1998 17
39290775  8280  300 0.2299 0.5066  39.8 89.27950  122.4  7938.9 2000 1998 17
39291776  8040   60 0.2232 0.1013 172.0 89.27950  122.4  7940.2 2000 1998 17
39292777  7800  360 0.2166 0.6079  32.4 89.26283  122.4  7939.4 2000 1998 17
39293778  7680  120 0.2132 0.2026  85.0 89.45967  122.2  7940.7 2000 1998 17
39294779  8520   60 0.2365 0.1013 181.9 89.19950  122.6  7938.7 2000 1998 17
39295782  8220  120 0.2282 0.2026  90.6 89.05350  122.7  7937.8 2000 1998 17
39296781  9120  180 0.2532 0.3040  68.5 88.98983  122.9  7939.0 2000 1998 17
39297783  7800  240 0.2166 0.4053  45.9 89.06783  123.2  7936.2 2000 1998 17
39298783  9060  120 0.2515 0.2026  99.3 89.10683  123.1  7935.5 2000 1998 17
39299784  7620  120 0.2116 0.2026  84.4 88.84583  123.0  7936.6 2000 1998 17
39300786  7860  120 0.2182 0.2026  86.9 88.81983  123.1  7934.0 2000 1998 17
39301786  8520    0 0.2365 0.0000   5.5 88.77283  123.4  7934.4 2000 1998 17
39302787  7680  180 0.2132 0.3040  58.5 89.05033  123.5  7936.4 2000 1998 17
39303788  7980   60 0.2216 0.1013 170.7 89.03617  123.6  7937.8 2000 1998 17
39304789  6780  180 0.1882 0.3040  52.3 88.87883  123.4  7938.4 2000 1998 17
39305790  7620  120 0.2116 0.2026  84.4 88.86783  123.5  7940.1 2000 1998 17
39306791  8520  180 0.2365 0.3040  64.3 88.87400  123.5  7940.4 2000 1998 17
39307792  8160   60 0.2266 0.1013 174.5 88.71317  123.7  7940.7 2000 1998 17
